GMAT/ProtoCube/eclipse.txt

Start Time (UTC)            Stop Time (UTC)               Duration (s)    Occ Body        Type        Event Number  Total Duration (s)
27 Apr 2022 12:24:45.587    27 Apr 2022 12:24:53.804      8.2161833066    Earth           Penumbra    1             2152.5233694
27 Apr 2022 12:24:53.804    27 Apr 2022 13:00:38.111      2144.3071861    Earth           Umbra       1             2152.5233694
27 Apr 2022 13:58:16.900    27 Apr 2022 14:34:01.298      2144.3973737    Earth           Umbra       2             2152.6223046
27 Apr 2022 14:34:01.298    27 Apr 2022 14:34:09.523      8.2249308703    Earth           Penumbra    2             2152.6223046
27 Apr 2022 15:31:31.787    27 Apr 2022 15:31:40.003      8.2151960232    Earth           Penumbra    3             2160.9176849
27 Apr 2022 15:31:40.003    27 Apr 2022 16:07:24.481      2144.4779755    Earth           Umbra       3             2160.9176849
27 Apr 2022 16:07:24.481    27 Apr 2022 16:07:32.705      8.2245134516    Earth           Penumbra    3             2160.9176849
27 Apr 2022 17:04:54.904    27 Apr 2022 17:05:03.118      8.2147716894    Earth           Penumbra    4             2160.9898635
27 Apr 2022 17:05:03.118    27 Apr 2022 17:40:47.669      2144.5510294    Earth           Umbra       4             2160.9898635
27 Apr 2022 17:40:47.669    27 Apr 2022 17:40:55.893      8.2240624004    Earth           Penumbra    4             2160.9898635
27 Apr 2022 18:38:26.242    27 Apr 2022 19:14:10.868      2144.6262965    Earth           Umbra       5             2152.8499122
27 Apr 2022 19:14:10.868    27 Apr 2022 19:14:19.092      8.2236157497    Earth           Penumbra    5             2152.8499122
27 Apr 2022 20:11:41.149    27 Apr 2022 20:11:49.364      8.2142870058    Earth           Penumbra    6             2161.1452725
27 Apr 2022 20:11:49.364    27 Apr 2022 20:47:34.071      2144.7076677    Earth           Umbra       6             2161.1452725
27 Apr 2022 20:47:34.071    27 Apr 2022 20:47:42.295      8.2233177731    Earth           Penumbra    6             2161.1452725
27 Apr 2022 21:45:04.264    27 Apr 2022 21:45:12.478      8.2141138148    Earth           Penumbra    7             2161.2257211
27 Apr 2022 21:45:12.478    27 Apr 2022 22:20:57.266      2144.7883845    Earth           Umbra       7             2161.2257211
27 Apr 2022 22:20:57.266    27 Apr 2022 22:21:05.489      8.2232228480    Earth           Penumbra    7             2161.2257211
27 Apr 2022 23:18:27.367    27 Apr 2022 23:18:35.581      8.2139409380    Earth           Penumbra    8             2161.2971802
27 Apr 2022 23:18:35.581    27 Apr 2022 23:54:20.441      2144.8600406    Earth           Umbra       8             2161.2971802
27 Apr 2022 23:54:20.441    27 Apr 2022 23:54:28.664      8.2231986453    Earth           Penumbra    8             2161.2971802
28 Apr 2022 00:51:50.463    28 Apr 2022 00:51:58.677      8.2137165125    Earth           Penumbra    9             2161.3571040
28 Apr 2022 00:51:58.677    28 Apr 2022 01:27:43.597      2144.9203542    Earth           Umbra       9             2161.3571040
28 Apr 2022 01:27:43.597    28 Apr 2022 01:27:51.820      8.2230333122    Earth           Penumbra    9             2161.3571040
28 Apr 2022 02:25:13.566    28 Apr 2022 02:25:21.780      8.2133531570    Earth           Penumbra    10            2161.4062576
28 Apr 2022 02:25:21.780    28 Apr 2022 03:01:06.750      2144.9702499    Earth           Umbra       10            2161.4062576
28 Apr 2022 03:01:06.750    28 Apr 2022 03:01:14.973      8.2226545550    Earth           Penumbra    10            2161.4062576
28 Apr 2022 03:58:36.695    28 Apr 2022 03:58:44.908      8.2128436421    Earth           Penumbra    11            2161.4437282
28 Apr 2022 03:58:44.908    28 Apr 2022 04:34:29.916      2145.0087495    Earth           Umbra       11            2161.4437282
28 Apr 2022 04:34:29.916    28 Apr 2022 04:34:38.139      8.2221349818    Earth           Penumbra    11            2161.4437282
28 Apr 2022 05:31:59.855    28 Apr 2022 05:32:08.067      8.2122756634    Earth           Penumbra    12            2161.4684124
28 Apr 2022 05:32:08.067    28 Apr 2022 06:07:53.101      2145.0345830    Earth           Umbra       12            2161.4684124
28 Apr 2022 06:07:53.101    28 Apr 2022 06:08:01.323      8.2215538016    Earth           Penumbra    12            2161.4684124
28 Apr 2022 07:05:23.032    28 Apr 2022 07:05:31.244      8.2117718062    Earth           Penumbra    13            2161.4837960
28 Apr 2022 07:05:31.244    28 Apr 2022 07:41:16.295      2145.0511084    Earth           Umbra       13            2161.4837960
28 Apr 2022 07:41:16.295    28 Apr 2022 07:41:24.516      8.2209157292    Earth           Penumbra    13            2161.4837960
28 Apr 2022 08:38:46.204    28 Apr 2022 08:38:54.415      8.2114596851    Earth           Penumbra    14            2153.2788955
28 Apr 2022 08:38:54.415    28 Apr 2022 09:14:39.483      2145.0674358    Earth           Umbra       14            2153.2788955
28 Apr 2022 10:12:17.561    28 Apr 2022 10:48:02.655      2145.0936946    Earth           Umbra       15            2153.3134539
28 Apr 2022 10:48:02.655    28 Apr 2022 10:48:10.875      8.2197593409    Earth           Penumbra    15            2153.3134539
28 Apr 2022 11:45:32.465    28 Apr 2022 11:45:40.677      8.2116168458    Earth           Penumbra    16            2161.5642531
28 Apr 2022 11:45:40.677    28 Apr 2022 12:21:25.810      2145.1330822    Earth           Umbra       16            2161.5642531
28 Apr 2022 12:21:25.810    28 Apr 2022 12:21:34.030      8.2195540890    Earth           Penumbra    16            2161.5642531
28 Apr 2022 13:18:55.564    28 Apr 2022 13:19:03.776      8.2118683029    Earth           Penumbra    17            2153.3897186
28 Apr 2022 13:19:03.776    28 Apr 2022 13:54:48.954      2145.1778503    Earth           Umbra       17            2153.3897186
28 Apr 2022 14:52:26.877    28 Apr 2022 15:28:12.094      2145.2164443    Earth           Umbra       18            2153.4362891
28 Apr 2022 15:28:12.094    28 Apr 2022 15:28:20.314      8.2198448363    Earth           Penumbra    18            2153.4362891
28 Apr 2022 16:25:41.781    28 Apr 2022 16:25:49.993      8.2123064669    Earth           Penumbra    19            2161.6786705
28 Apr 2022 16:25:49.993    28 Apr 2022 17:01:35.239      2145.2463428    Earth           Umbra       19            2161.6786705
28 Apr 2022 17:01:35.239    28 Apr 2022 17:01:43.459      8.2200211706    Earth           Penumbra    19            2161.6786705
28 Apr 2022 17:59:04.906    28 Apr 2022 17:59:13.118      8.2126635360    Earth           Penumbra    20            2153.4889559
28 Apr 2022 17:59:13.118    28 Apr 2022 18:34:58.395      2145.2762923    Earth           Umbra       20            2153.4889559
28 Apr 2022 19:32:36.244    28 Apr 2022 20:08:21.558      2145.3139691    Earth           Umbra       21            2153.5343571
28 Apr 2022 20:08:21.558    28 Apr 2022 20:08:29.778      8.2203879836    Earth           Penumbra    21            2153.5343571
28 Apr 2022 21:05:51.147    28 Apr 2022 21:05:59.361      8.2136303885    Earth           Penumbra    22            2161.7902335
28 Apr 2022 21:05:59.361    28 Apr 2022 21:41:44.717      2145.3557936    Earth           Umbra       22            2161.7902335
28 Apr 2022 21:41:44.717    28 Apr 2022 21:41:52.937      8.2208094886    Earth           Penumbra    22            2161.7902335
28 Apr 2022 22:39:14.252    28 Apr 2022 22:39:22.466      8.2141201012    Earth           Penumbra    23            2161.8274020
28 Apr 2022 22:39:22.466    28 Apr 2022 23:15:07.858      2145.3919330    Earth           Umbra       23            2161.8274020
28 Apr 2022 23:15:07.858    28 Apr 2022 23:15:16.080      8.2213488640    Earth           Penumbra    23            2161.8274020
29 Apr 2022 00:12:37.348    29 Apr 2022 00:12:45.562      8.2145475782    Earth           Penumbra    24            2161.8532556
29 Apr 2022 00:12:45.562    29 Apr 2022 00:48:30.979      2145.4169241    Earth           Umbra       24            2161.8532556
29 Apr 2022 00:48:30.979    29 Apr 2022 00:48:39.201      8.2217838848    Earth           Penumbra    24            2161.8532556
29 Apr 2022 01:46:00.446    29 Apr 2022 01:46:08.661      8.2148304675    Earth           Penumbra    25            2161.8679806
29 Apr 2022 01:46:08.661    29 Apr 2022 02:21:54.092      2145.4311776    Earth           Umbra       25            2161.8679806
29 Apr 2022 02:21:54.092    29 Apr 2022 02:22:02.314      8.2219724776    Earth           Penumbra    25            2161.8679806
29 Apr 2022 03:19:23.565    29 Apr 2022 03:19:31.780      8.2149316790    Earth           Penumbra    26            2161.8721699
29 Apr 2022 03:19:31.780    29 Apr 2022 03:55:17.216      2145.4352830    Earth           Umbra       26            2161.8721699
29 Apr 2022 03:55:17.216    29 Apr 2022 03:55:25.438      8.2219551899    Earth           Penumbra    26            2161.8721699
29 Apr 2022 04:52:46.714    29 Apr 2022 04:52:54.929      8.2149131340    Earth           Penumbra    27            2161.8648581
29 Apr 2022 04:52:54.929    29 Apr 2022 05:28:40.357      2145.4281052    Earth           Umbra       27            2161.8648581
29 Apr 2022 05:28:40.357    29 Apr 2022 05:28:48.579      8.2218398340    Earth           Penumbra    27            2161.8648581
29 Apr 2022 06:26:09.882    29 Apr 2022 06:26:18.097      8.2148936461    Earth           Penumbra    28            2161.8474702
29 Apr 2022 06:26:18.097    29 Apr 2022 07:02:03.508      2145.4109140    Earth           Umbra       28            2161.8474702
29 Apr 2022 07:02:03.508    29 Apr 2022 07:02:11.729      8.2216625568    Earth           Penumbra    28            2161.8474702
29 Apr 2022 07:59:33.047    29 Apr 2022 07:59:41.262      8.2150052302    Earth           Penumbra    29            2161.8274375
29 Apr 2022 07:59:41.262    29 Apr 2022 08:35:26.653      2145.3909948    Earth           Umbra       29            2161.8274375
29 Apr 2022 08:35:26.653    29 Apr 2022 08:35:34.875      8.2214375027    Earth           Penumbra    29            2161.8274375
29 Apr 2022 09:32:56.191    29 Apr 2022 09:33:04.406      8.2153629279    Earth           Penumbra    30            2161.8160679
29 Apr 2022 09:33:04.406    29 Apr 2022 10:08:49.786      2145.3794168    Earth           Umbra       30            2161.8160679
29 Apr 2022 10:08:49.786    29 Apr 2022 10:08:58.007      8.2212882000    Earth           Penumbra    30            2161.8160679
29 Apr 2022 11:06:27.522    29 Apr 2022 11:42:12.905      2145.3830459    Earth           Umbra       31            2153.6044338
29 Apr 2022 11:42:12.905    29 Apr 2022 11:42:21.127      8.2213878399    Earth           Penumbra    31            2153.6044338
29 Apr 2022 12:39:42.403    29 Apr 2022 12:39:50.620      8.2167025656    Earth           Penumbra    32            2161.8359726
29 Apr 2022 12:39:50.620    29 Apr 2022 13:15:36.017      2145.3974815    Earth           Umbra       32            2161.8359726
29 Apr 2022 13:15:36.017    29 Apr 2022 13:15:44.239      8.2217885996    Earth           Penumbra    32            2161.8359726
29 Apr 2022 14:13:05.501    29 Apr 2022 14:13:13.718      8.2173840143    Earth           Penumbra    33            2153.6278410
29 Apr 2022 14:13:13.718    29 Apr 2022 14:48:59.128      2145.4104570    Earth           Umbra       33            2153.6278410
29 Apr 2022 15:46:36.829    29 Apr 2022 16:22:22.244      2145.4150577    Earth           Umbra       34            2153.6379583
29 Apr 2022 16:22:22.244    29 Apr 2022 16:22:30.467      8.2229006686    Earth           Penumbra    34            2153.6379583
29 Apr 2022 17:19:51.732    29 Apr 2022 17:19:59.951      8.2187635708    Earth           Penumbra    35            2161.8593940
29 Apr 2022 17:19:59.951    29 Apr 2022 17:55:45.368      2145.4172507    Earth           Umbra       35            2161.8593940
29 Apr 2022 17:55:45.368    29 Apr 2022 17:55:53.592      8.2233796944    Earth           Penumbra    35            2161.8593940
29 Apr 2022 18:53:14.855    29 Apr 2022 18:53:23.074      8.2196244970    Earth           Penumbra    36            2153.6467106
29 Apr 2022 18:53:23.074    29 Apr 2022 19:29:08.501      2145.4270861    Earth           Umbra       36            2153.6467106
29 Apr 2022 20:26:37.969    29 Apr 2022 20:26:46.190      8.2205391722    Earth           Penumbra    37            2161.8902103
29 Apr 2022 20:26:46.190    29 Apr 2022 21:02:31.635      2145.4451055    Earth           Umbra       37            2161.8902103
29 Apr 2022 21:02:31.635    29 Apr 2022 21:02:39.859      8.2245656289    Earth           Penumbra    37            2161.8902103
29 Apr 2022 22:00:01.071    29 Apr 2022 22:00:09.292      8.2214312162    Earth           Penumbra    38            2161.9086447
29 Apr 2022 22:00:09.292    29 Apr 2022 22:35:54.754      2145.4618303    Earth           Umbra       38            2161.9086447
29 Apr 2022 22:35:54.754    29 Apr 2022 22:36:02.980      8.2253831788    Earth           Penumbra    38            2161.9086447
29 Apr 2022 23:33:24.161    29 Apr 2022 23:33:32.383      8.2222528523    Earth           Penumbra    39            2161.9170842
29 Apr 2022 23:33:32.383    30 Apr 2022 00:09:17.851      2145.4686774    Earth           Umbra       39            2161.9170842
30 Apr 2022 00:09:17.851    30 Apr 2022 00:09:26.078      8.2261538948    Earth           Penumbra    39            2161.9170842
30 Apr 2022 01:06:47.248    30 Apr 2022 01:06:55.471      8.2229286432    Earth           Penumbra    40            2161.9138291
30 Apr 2022 01:06:55.471    30 Apr 2022 01:42:40.936      2145.4642238    Earth           Umbra       40            2161.9138291
30 Apr 2022 01:42:40.936    30 Apr 2022 01:42:49.162      8.2266766112    Earth           Penumbra    40            2161.9138291
30 Apr 2022 02:40:10.352    30 Apr 2022 02:40:18.575      8.2233966677    Earth           Penumbra    41            2161.9004886
30 Apr 2022 02:40:18.575    30 Apr 2022 03:16:04.026      2145.4501642    Earth           Umbra       41            2161.9004886
30 Apr 2022 03:16:04.026    30 Apr 2022 03:16:12.252      8.2269277540    Earth           Penumbra    41            2161.9004886
30 Apr 2022 04:13:33.482    30 Apr 2022 04:13:41.705      8.2236880437    Earth           Penumbra    42            2161.8771610
30 Apr 2022 04:13:41.705    30 Apr 2022 04:49:27.132      2145.4264462    Earth           Umbra       42            2161.8771610
30 Apr 2022 04:49:27.132    30 Apr 2022 04:49:35.359      8.2270267652    Earth           Penumbra    42            2161.8771610
30 Apr 2022 05:46:56.630    30 Apr 2022 05:47:04.854      8.2239152980    Earth           Penumbra    43            2161.8439897
30 Apr 2022 05:47:04.854    30 Apr 2022 06:22:50.247      2145.3930190    Earth           Umbra       43            2161.8439897
30 Apr 2022 06:22:50.247    30 Apr 2022 06:22:58.474      8.2270553685    Earth           Penumbra    43            2161.8439897
30 Apr 2022 07:20:19.779    30 Apr 2022 07:20:28.003      8.2242154749    Earth           Penumbra    44            2161.8060659
30 Apr 2022 07:20:28.003    30 Apr 2022 07:56:13.358      2145.3548274    Earth           Umbra       44            2161.8060659
30 Apr 2022 07:56:13.358    30 Apr 2022 07:56:21.585      8.2270229934    Earth           Penumbra    44            2161.8060659
30 Apr 2022 08:53:42.909    30 Apr 2022 08:53:51.133      8.2247161889    Earth           Penumbra    45            2161.7743012
30 Apr 2022 08:53:51.133    30 Apr 2022 09:29:36.456      2145.3225812    Earth           Umbra       45            2161.7743012
30 Apr 2022 09:29:36.456    30 Apr 2022 09:29:44.683      8.2270038198    Earth           Penumbra    45            2161.7743012
30 Apr 2022 10:27:06.013    30 Apr 2022 10:27:14.238      8.2254828187    Earth           Penumbra    46            2153.5314857
30 Apr 2022 10:27:14.238    30 Apr 2022 11:02:59.544      2145.3060029    Earth           Umbra       46            2153.5314857
30 Apr 2022 12:00:37.325    30 Apr 2022 12:36:22.630      2145.3046410    Earth           Umbra       47            2153.5322747
30 Apr 2022 12:36:22.630    30 Apr 2022 12:36:30.857      8.2276337198    Earth           Penumbra    47            2153.5322747
30 Apr 2022 13:33:52.181    30 Apr 2022 13:34:00.409      8.2273253705    Earth           Penumbra    48            2161.7628030
30 Apr 2022 13:34:00.409    30 Apr 2022 14:09:45.716      2145.3071816    Earth           Umbra       48            2161.7628030
30 Apr 2022 14:09:45.716    30 Apr 2022 14:09:53.944      8.2282959949    Earth           Penumbra    48            2161.7628030
30 Apr 2022 15:07:15.275    30 Apr 2022 15:07:23.503      8.2281554933    Earth           Penumbra    49            2153.5313556
30 Apr 2022 15:07:23.503    30 Apr 2022 15:43:08.806      2145.3032001    Earth           Umbra       49            2153.5313556
30 Apr 2022 16:40:46.609    30 Apr 2022 17:16:31.903      2145.2946801    Earth           Umbra       50            2153.5242406
30 Apr 2022 17:16:31.903    30 Apr 2022 17:16:40.133      8.2295605098    Earth           Penumbra    50            2153.5242406
30 Apr 2022 18:14:01.487    30 Apr 2022 18:14:09.717      8.2300156471    Earth           Penumbra    51            2161.7523719
30 Apr 2022 18:14:09.717    30 Apr 2022 18:49:55.009      2145.2922243    Earth           Umbra       51            2161.7523719
30 Apr 2022 18:49:55.009    30 Apr 2022 18:50:03.240      8.2301319460    Earth           Penumbra    51            2161.7523719
30 Apr 2022 19:47:24.587    30 Apr 2022 19:47:32.818      8.2310903119    Earth           Penumbra    52            2153.5316322
30 Apr 2022 19:47:32.818    30 Apr 2022 20:23:18.119      2145.3005419    Earth           Umbra       52            2153.5316322
30 Apr 2022 21:20:47.673    30 Apr 2022 21:20:55.905      8.2321423455    Earth           Penumbra    53            2161.7760736
30 Apr 2022 21:20:55.905    30 Apr 2022 21:56:41.217      2145.3122780    Earth           Umbra       53            2161.7760736
30 Apr 2022 21:56:41.217    30 Apr 2022 21:56:49.449      8.2316532615    Earth           Penumbra    53            2161.7760736
30 Apr 2022 22:54:10.744    30 Apr 2022 22:54:18.977      8.2331120269    Earth           Penumbra    54            2161.7822359
30 Apr 2022 22:54:18.977    30 Apr 2022 23:30:04.294      2145.3166213    Earth           Umbra       54            2161.7822359
30 Apr 2022 23:30:04.294    30 Apr 2022 23:30:12.526      8.2325025578    Earth           Penumbra    54            2161.7822359
01 May 2022 00:27:33.809    01 May 2022 00:27:42.043      8.2339371205    Earth           Penumbra    55            2161.7763562
01 May 2022 00:27:42.043    01 May 2022 01:03:27.352      2145.3092854    Earth           Umbra       55            2161.7763562
01 May 2022 01:03:27.352    01 May 2022 01:03:35.585      8.2331337151    Earth           Penumbra    55            2161.7763562
01 May 2022 02:00:56.883    01 May 2022 02:01:05.118      8.2345412462    Earth           Penumbra    56            2161.7600348
01 May 2022 02:01:05.118    01 May 2022 02:36:50.410      2145.2920411    Earth           Umbra       56            2161.7600348
01 May 2022 02:36:50.410    01 May 2022 02:36:58.643      8.2334524370    Earth           Penumbra    56            2161.7600348
01 May 2022 03:34:19.979    01 May 2022 03:34:28.214      8.2349256612    Earth           Penumbra    57            2161.7348994
01 May 2022 03:34:28.214    01 May 2022 04:10:13.480      2145.2664195    Earth           Umbra       57            2161.7348994
01 May 2022 04:10:13.480    01 May 2022 04:10:21.714      8.2335542771    Earth           Penumbra    57            2161.7348994
01 May 2022 05:07:43.093    01 May 2022 05:07:51.328      8.2351874909    Earth           Penumbra    58            2161.7008719
01 May 2022 05:07:51.328    01 May 2022 05:43:36.560      2145.2321245    Earth           Umbra       58            2161.7008719
01 May 2022 05:43:36.560    01 May 2022 05:43:44.794      8.2335599349    Earth           Penumbra    58            2161.7008719
01 May 2022 06:41:06.207    01 May 2022 06:41:14.443      8.2354593789    Earth           Penumbra    59            2153.4272455
01 May 2022 06:41:14.443    01 May 2022 07:16:59.635      2145.1917861    Earth           Umbra       59            2153.4272455
01 May 2022 08:14:37.541    01 May 2022 08:50:22.696      2145.1545890    Earth           Umbra       60            2153.3880106
01 May 2022 08:50:22.696    01 May 2022 08:50:30.929      8.2334216335    Earth           Penumbra    60            2153.3880106
01 May 2022 09:47:52.381    01 May 2022 09:48:00.617      8.2365642185    Earth           Penumbra    61            2161.6019864
01 May 2022 09:48:00.617    01 May 2022 10:23:45.749      2145.1319591    Earth           Umbra       61            2161.6019864
01 May 2022 10:23:45.749    01 May 2022 10:23:53.983      8.2334631239    Earth           Penumbra    61            2161.6019864
01 May 2022 11:21:15.438    01 May 2022 11:21:23.675      8.2374550053    Earth           Penumbra    62            2153.3648967
01 May 2022 11:21:23.675    01 May 2022 11:57:08.802      2145.1274417    Earth           Umbra       62            2153.3648967
01 May 2022 12:54:46.728    01 May 2022 13:30:31.860      2145.1320924    Earth           Umbra       63            2153.3663998
01 May 2022 13:30:31.860    01 May 2022 13:30:40.094      8.2343073911    Earth           Penumbra    63            2153.3663998
01 May 2022 14:28:01.548    01 May 2022 14:28:09.787      8.2391906879    Earth           Penumbra    64            2161.6074327
01 May 2022 14:28:09.787    01 May 2022 15:03:54.921      2145.1333478    Earth           Umbra       64            2161.6074327
01 May 2022 15:03:54.921    01 May 2022 15:04:03.156      8.2348942291    Earth           Penumbra    64            2161.6074327
01 May 2022 16:01:24.618    01 May 2022 16:01:32.858      8.2399834064    Earth           Penumbra    65            2161.6041575
01 May 2022 16:01:32.858    01 May 2022 16:37:17.986      2145.1287772    Earth           Umbra       65            2161.6041575
01 May 2022 16:37:17.986    01 May 2022 16:37:26.222      8.2353968290    Earth           Penumbra    65            2161.6041575
01 May 2022 17:34:47.691    01 May 2022 17:34:55.932      8.2408845657    Earth           Penumbra    66            2161.6044004
01 May 2022 17:34:55.932    01 May 2022 18:10:41.060      2145.1276752    Earth           Umbra       66            2161.6044004
01 May 2022 18:10:41.060    01 May 2022 18:10:49.296      8.2358406507    Earth           Penumbra    66            2161.6044004
01 May 2022 19:08:10.758    01 May 2022 19:08:19.000      8.2418919657    Earth           Penumbra    67            2161.6163472
01 May 2022 19:08:19.000    01 May 2022 19:44:04.138      2145.1381050    Earth           Umbra       67            2161.6163472
01 May 2022 19:44:04.138    01 May 2022 19:44:12.374      8.2363501657    Earth           Penumbra    67            2161.6163472
01 May 2022 20:41:33.810    01 May 2022 20:41:42.053      8.2428962225    Earth           Penumbra    68            2161.6360658
01 May 2022 20:41:42.053    01 May 2022 21:17:27.209      2145.1561688    Earth           Umbra       68            2161.6360658
01 May 2022 21:17:27.209    01 May 2022 21:17:35.446      8.2370008109    Earth           Penumbra    68            2161.6360658
01 May 2022 22:14:56.843    01 May 2022 22:15:05.087      8.2438108977    Earth           Penumbra    69            2161.6518460
01 May 2022 22:15:05.087    01 May 2022 22:50:50.258      2145.1703252    Earth           Umbra       69            2161.6518460
01 May 2022 22:50:50.258    01 May 2022 22:50:58.495      8.2377099199    Earth           Penumbra    69            2161.6518460
01 May 2022 23:48:19.866    01 May 2022 23:48:28.111      8.2445781562    Earth           Penumbra    70            2161.6558960
01 May 2022 23:48:28.111    02 May 2022 00:24:13.284      2145.1730576    Earth           Umbra       70            2161.6558960
02 May 2022 00:24:13.284    02 May 2022 00:24:21.522      8.2382602966    Earth           Penumbra    70            2161.6558960
02 May 2022 01:21:42.893    02 May 2022 01:21:51.138      8.2451263326    Earth           Penumbra    71            2161.6485085
02 May 2022 01:21:51.138    02 May 2022 01:57:36.303      2145.1648924    Earth           Umbra       71            2161.6485085
02 May 2022 01:57:36.303    02 May 2022 01:57:44.541      8.2384897512    Earth           Penumbra    71            2161.6485085
02 May 2022 02:55:05.935    02 May 2022 02:55:14.181      8.2454258809    Earth           Penumbra    72            2153.3942185
02 May 2022 02:55:14.181    02 May 2022 03:30:59.330      2145.1487926    Earth           Umbra       72            2153.3942185
02 May 2022 04:28:37.239    02 May 2022 05:04:22.364      2145.1252977    Earth           Umbra       73            2153.3635457
02 May 2022 05:04:22.364    02 May 2022 05:04:30.603      8.2382480381    Earth           Penumbra    73            2153.3635457
02 May 2022 06:01:52.052    02 May 2022 06:02:00.298      8.2456245320    Earth           Penumbra    74            2161.5789266
02 May 2022 06:02:00.298    02 May 2022 06:37:45.393      2145.0953004    Earth           Umbra       74            2161.5789266
02 May 2022 06:37:45.393    02 May 2022 06:37:53.631      8.2380016102    Earth           Penumbra    74            2161.5789266
02 May 2022 07:35:15.096    02 May 2022 07:35:23.342      8.2458062097    Earth           Penumbra    75            2153.3114737
02 May 2022 07:35:23.342    02 May 2022 08:11:08.407      2145.0656675    Earth           Umbra       75            2153.3114737
02 May 2022 09:08:46.365    02 May 2022 09:44:31.413      2145.0481764    Earth           Umbra       76            2153.2856673
02 May 2022 09:44:31.413    02 May 2022 09:44:39.651      8.2374908379    Earth           Penumbra    76            2153.2856673
02 May 2022 10:42:01.125    02 May 2022 10:42:09.372      8.2468793029    Earth           Penumbra    77            2161.5342602
02 May 2022 10:42:09.372    02 May 2022 11:17:54.422      2145.0498860    Earth           Umbra       77            2161.5342602
02 May 2022 11:17:54.422    02 May 2022 11:18:02.659      8.2374949241    Earth           Penumbra    77            2161.5342602
02 May 2022 12:15:24.124    02 May 2022 12:15:32.372      8.2476211013    Earth           Penumbra    78            2161.5505990
02 May 2022 12:15:32.372    02 May 2022 12:51:17.437      2145.0652321    Earth           Umbra       78            2161.5505990
02 May 2022 12:51:17.437    02 May 2022 12:51:25.675      8.2377457526    Earth           Penumbra    78            2161.5505990
02 May 2022 13:48:47.127    02 May 2022 13:48:55.375      8.2482730038    Earth           Penumbra    79            2161.5674498
02 May 2022 13:48:55.375    02 May 2022 14:24:40.456      2145.0810918    Earth           Umbra       79            2161.5674498
02 May 2022 14:24:40.456    02 May 2022 14:24:48.695      8.2380849053    Earth           Penumbra    79            2161.5674498
02 May 2022 15:22:10.139    02 May 2022 15:22:18.387      8.2488500979    Earth           Penumbra    80            2161.5781483
02 May 2022 15:22:18.387    02 May 2022 15:58:03.478      2145.0909376    Earth           Umbra       80            2161.5781483
02 May 2022 15:58:03.478    02 May 2022 15:58:11.717      8.2383605652    Earth           Penumbra    80            2161.5781483
02 May 2022 16:55:33.155    02 May 2022 16:55:41.405      8.2494972856    Earth           Penumbra    81            2161.5893105
02 May 2022 16:55:41.405    02 May 2022 17:31:26.506      2145.1012590    Earth           Umbra       81            2161.5893105
02 May 2022 17:31:26.506    02 May 2022 17:31:34.744      8.2385541871    Earth           Penumbra    81            2161.5893105
02 May 2022 18:28:56.166    02 May 2022 18:29:04.416      8.2502711448    Earth           Penumbra    82            2153.3723037
02 May 2022 18:29:04.416    02 May 2022 19:04:49.538      2145.1220325    Earth           Umbra       82            2153.3723037
02 May 2022 20:02:27.412    02 May 2022 20:38:12.565      2145.1534065    Earth           Umbra       83            2153.3925095
02 May 2022 20:38:12.565    02 May 2022 20:38:20.804      8.2391029922    Earth           Penumbra    83            2153.3925095
02 May 2022 21:35:42.135    02 May 2022 21:35:50.387      8.2517861738    Earth           Penumbra    84            2161.6761471
02 May 2022 21:35:50.387    02 May 2022 22:11:35.572      2145.1848364    Earth           Umbra       84            2161.6761471
02 May 2022 22:11:35.572    02 May 2022 22:11:43.812      8.2395244972    Earth           Penumbra    84            2161.6761471
02 May 2022 23:09:05.094    02 May 2022 23:09:13.347      8.2523506950    Earth           Penumbra    85            2153.4583724
02 May 2022 23:09:13.347    02 May 2022 23:44:58.553      2145.2060217    Earth           Umbra       85            2153.4583724
03 May 2022 00:42:36.304    03 May 2022 01:18:21.519      2145.2150349    Earth           Umbra       86            2153.4549359
03 May 2022 01:18:21.519    03 May 2022 01:18:29.759      8.2399010542    Earth           Penumbra    86            2153.4549359
03 May 2022 02:15:51.018    03 May 2022 02:15:59.271      8.2528102328    Earth           Penumbra    87            2161.7078986
03 May 2022 02:15:59.271    03 May 2022 02:51:44.487      2145.2154686    Earth           Umbra       87            2161.7078986
03 May 2022 02:51:44.487    03 May 2022 02:51:52.726      8.2396197366    Earth           Penumbra    87            2161.7078986
03 May 2022 03:49:13.997    03 May 2022 03:49:22.250      8.2526898477    Earth           Penumbra    88            2161.7012837
03 May 2022 03:49:22.250    03 May 2022 04:25:07.459      2145.2094462    Earth           Umbra       88            2161.7012837
03 May 2022 04:25:07.459    03 May 2022 04:25:15.698      8.2391476259    Earth           Penumbra    88            2161.7012837
03 May 2022 05:22:36.976    03 May 2022 05:22:45.228      8.2524726517    Earth           Penumbra    89            2161.6882123
03 May 2022 05:22:45.228    03 May 2022 05:58:30.425      2145.1971289    Earth           Umbra       89            2161.6882123
03 May 2022 05:58:30.425    03 May 2022 05:58:38.664      8.2386107650    Earth           Penumbra    89            2161.6882123
03 May 2022 06:55:59.940    03 May 2022 06:56:08.193      8.2523148623    Earth           Penumbra    90            2161.6731494
03 May 2022 06:56:08.193    03 May 2022 07:31:53.375      2145.1827971    Earth           Umbra       90            2161.6731494
03 May 2022 07:31:53.375    03 May 2022 07:32:01.613      8.2380374428    Earth           Penumbra    90            2161.6731494
03 May 2022 08:29:22.886    03 May 2022 08:29:31.138      8.2523588673    Earth           Penumbra    91            2161.6671066
03 May 2022 08:29:31.138    03 May 2022 09:05:16.316      2145.1772528    Earth           Umbra       91            2161.6671066
03 May 2022 09:05:16.316    03 May 2022 09:05:24.553      8.2374949241    Earth           Penumbra    91            2161.6671066
03 May 2022 10:02:45.817    03 May 2022 10:02:54.070      8.2526678452    Earth           Penumbra    92            2153.4428059
03 May 2022 10:02:54.070    03 May 2022 10:38:39.260      2145.1901381    Earth           Umbra       92            2153.4428059
03 May 2022 11:36:16.993    03 May 2022 12:12:02.213      2145.2197626    Earth           Umbra       93            2153.4567782
03 May 2022 12:12:02.213    03 May 2022 12:12:10.450      8.2370155840    Earth           Penumbra    93            2153.4567782
03 May 2022 13:09:31.664    03 May 2022 13:09:39.917      8.2535196561    Earth           Penumbra    94            2161.7445205
03 May 2022 13:09:39.917    03 May 2022 13:45:25.171      2145.2539680    Earth           Umbra       94            2161.7445205
03 May 2022 13:45:25.171    03 May 2022 13:45:33.408      8.2370328717    Earth           Penumbra    94            2161.7445205
03 May 2022 14:42:54.593    03 May 2022 14:43:02.847      8.2538097748    Earth           Penumbra    95            2153.5368694
03 May 2022 14:43:02.847    03 May 2022 15:18:48.130      2145.2830597    Earth           Umbra       95            2153.5368694
03 May 2022 16:16:17.528    03 May 2022 16:16:25.782      8.2541259821    Earth           Penumbra    96            2161.8008767
03 May 2022 16:16:25.782    03 May 2022 16:52:11.092      2145.3098395    Earth           Umbra       96            2161.8008767
03 May 2022 16:52:11.092    03 May 2022 16:52:19.329      8.2369112293    Earth           Penumbra    96            2161.8008767
03 May 2022 17:49:40.459    03 May 2022 17:49:48.713      8.2545745187    Earth           Penumbra    97            2161.8358890
03 May 2022 17:49:48.713    03 May 2022 18:25:34.058      2145.3445136    Earth           Umbra       97            2161.8358890
03 May 2022 18:25:34.058    03 May 2022 18:25:42.295      8.2368009025    Earth           Penumbra    97            2161.8358890
03 May 2022 19:23:03.374    03 May 2022 19:23:11.629      8.2550937776    Earth           Penumbra    98            2161.8828690
03 May 2022 19:23:11.629    03 May 2022 19:58:57.020      2145.3909989    Earth           Umbra       98            2161.8828690
03 May 2022 19:58:57.020    03 May 2022 19:59:05.257      8.2367763855    Earth           Penumbra    98            2161.8828690
03 May 2022 20:56:26.266    03 May 2022 20:56:34.522      8.2555470290    Earth           Penumbra    99            2161.9336741
03 May 2022 20:56:34.522    03 May 2022 21:32:19.963      2145.4412736    Earth           Umbra       99            2161.9336741
03 May 2022 21:32:19.963    03 May 2022 21:32:28.200      8.2368533942    Earth           Penumbra    99            2161.9336741
03 May 2022 22:29:57.395    03 May 2022 23:05:42.878      2145.4834147    Earth           Umbra       100           2153.7203244
03 May 2022 23:05:42.878    03 May 2022 23:05:51.115      8.2369096577    Earth           Penumbra    100           2153.7203244
04 May 2022 00:03:12.004    04 May 2022 00:03:20.259      8.2559537608    Earth           Penumbra    101           2162.0050473
04 May 2022 00:03:20.259    04 May 2022 00:39:05.772      2145.5123533    Earth           Umbra       101           2162.0050473
04 May 2022 00:39:05.772    04 May 2022 00:39:14.009      8.2367402385    Earth           Penumbra    101           2162.0050473
04 May 2022 01:36:34.873    04 May 2022 01:36:43.129      8.2558151451    Earth           Penumbra    102           2153.7868920
04 May 2022 01:36:43.129    04 May 2022 02:12:28.660      2145.5310768    Earth           Umbra       102           2153.7868920
04 May 2022 03:09:57.750    04 May 2022 03:10:06.005      8.2554345019    Earth           Penumbra    103           2162.0343496
04 May 2022 03:10:06.005    04 May 2022 03:45:51.549      2145.5434215    Earth           Umbra       103           2162.0343496
04 May 2022 03:45:51.549    04 May 2022 03:45:59.784      8.2354936399    Earth           Penumbra    103           2162.0343496
04 May 2022 04:43:20.625    04 May 2022 04:43:28.880      8.2549105282    Earth           Penumbra    104           2162.0395520
04 May 2022 04:43:28.880    04 May 2022 05:19:14.430      2145.5499833    Earth           Umbra       104           2162.0395520
04 May 2022 05:19:14.430    04 May 2022 05:19:22.664      8.2346581738    Earth           Penumbra    104           2162.0395520
04 May 2022 06:16:43.486    04 May 2022 06:16:51.740      8.2544003846    Earth           Penumbra    105           2162.0409862
04 May 2022 06:16:51.740    04 May 2022 06:52:37.293      2145.5527858    Earth           Umbra       105           2162.0409862
04 May 2022 06:52:37.293    04 May 2022 06:52:45.527      8.2338000764    Earth           Penumbra    105           2162.0409862
04 May 2022 07:50:06.330    04 May 2022 07:50:14.584      8.2540637464    Earth           Penumbra    106           2162.0476184
04 May 2022 07:50:14.584    04 May 2022 08:26:00.144      2145.5605922    Earth           Umbra       106           2162.0476184
04 May 2022 08:26:00.144    04 May 2022 08:26:08.377      8.2329624100    Earth           Penumbra    106           2162.0476184
04 May 2022 09:23:37.415    04 May 2022 09:59:22.999      2145.5843773    Earth           Umbra       107           2153.8166406
04 May 2022 09:59:22.999    04 May 2022 09:59:31.232      8.2322633592    Earth           Penumbra    107           2153.8166406
04 May 2022 10:56:51.986    04 May 2022 10:57:00.240      8.2541310112    Earth           Penumbra    108           2162.1122174
04 May 2022 10:57:00.240    04 May 2022 11:32:45.866      2145.6262867    Earth           Umbra       108           2162.1122174
04 May 2022 11:32:45.866    04 May 2022 11:32:54.098      8.2317997352    Earth           Penumbra    108           2162.1122174
04 May 2022 12:30:14.808    04 May 2022 12:30:23.063      8.2542689983    Earth           Penumbra    109           2153.9306623
04 May 2022 12:30:23.063    04 May 2022 13:06:08.739      2145.6763933    Earth           Umbra       109           2153.9306623
04 May 2022 14:03:37.634    04 May 2022 14:03:45.888      8.2542925724    Earth           Penumbra    110           2162.2086188
04 May 2022 14:03:45.888    04 May 2022 14:39:31.611      2145.7231130    Earth           Umbra       110           2162.2086188
04 May 2022 14:39:31.611    04 May 2022 14:39:39.843      8.2312132115    Earth           Penumbra    110           2162.2086188
04 May 2022 15:37:00.464    04 May 2022 15:37:08.718      8.2542938297    Earth           Penumbra    111           2162.2505317
04 May 2022 15:37:08.718    04 May 2022 16:12:54.483      2145.7653883    Earth           Umbra       111           2162.2505317
04 May 2022 16:12:54.483    04 May 2022 16:13:02.714      8.2308495417    Earth           Penumbra    111           2162.2505317
04 May 2022 17:10:23.291    04 May 2022 17:10:31.546      8.2544195582    Earth           Penumbra    112           2162.2970013
04 May 2022 17:10:31.546    04 May 2022 17:46:17.358      2145.8121163    Earth           Umbra       112           2162.2970013
04 May 2022 17:46:17.358    04 May 2022 17:46:25.588      8.2304654410    Earth           Penumbra    112           2162.2970013
04 May 2022 18:43:46.105    04 May 2022 18:43:54.360      8.2546609570    Earth           Penumbra    113           2162.3548084
04 May 2022 18:43:54.360    04 May 2022 19:19:40.230      2145.8700042    Earth           Umbra       113           2162.3548084
04 May 2022 19:19:40.230    04 May 2022 19:19:48.460      8.2301432616    Earth           Penumbra    113           2162.3548084
04 May 2022 20:17:17.150    04 May 2022 20:53:03.084      2145.9344772    Earth           Umbra       114           2154.1644011
04 May 2022 20:53:03.084    04 May 2022 20:53:11.314      8.2299238653    Earth           Penumbra    114           2154.1644011
04 May 2022 21:50:31.661    04 May 2022 21:50:39.916      8.2549441606    Earth           Penumbra    115           2162.4782308
04 May 2022 21:50:39.916    04 May 2022 22:26:25.909      2145.9935511    Earth           Umbra       115           2162.4782308
04 May 2022 22:26:25.909    04 May 2022 22:26:34.139      8.2297355868    Earth           Penumbra    115           2162.4782308
04 May 2022 23:23:54.413    04 May 2022 23:24:02.668      8.2548310049    Earth           Penumbra    116           2154.2939310
04 May 2022 23:24:02.668    04 May 2022 23:59:48.707      2146.0391000    Earth           Umbra       116           2154.2939310
05 May 2022 00:57:17.166    05 May 2022 00:57:25.420      8.2544943667    Earth           Penumbra    117           2162.5554894
05 May 2022 00:57:25.420    05 May 2022 01:33:11.492      2146.0722232    Earth           Umbra       117           2162.5554894
05 May 2022 01:33:11.492    05 May 2022 01:33:19.721      8.2287718775    Earth           Penumbra    117           2162.5554894
05 May 2022 02:30:39.921    05 May 2022 02:30:48.175      8.2539188443    Earth           Penumbra    118           2162.5797000
05 May 2022 02:30:48.175    05 May 2022 03:06:34.273      2146.0979234    Earth           Umbra       118           2162.5797000
05 May 2022 03:06:34.273    05 May 2022 03:06:42.501      8.2278578309    Earth           Penumbra    118           2162.5797000
05 May 2022 04:04:02.672    05 May 2022 04:04:10.925      8.2531657303    Earth           Penumbra    119           2162.5981463
05 May 2022 04:04:10.925    05 May 2022 04:39:57.043      2146.1181631    Earth           Umbra       119           2162.5981463
05 May 2022 04:39:57.043    05 May 2022 04:40:05.270      8.2268174272    Earth           Penumbra    119           2162.5981463
05 May 2022 05:37:25.409    05 May 2022 05:37:33.661      8.2523818128    Earth           Penumbra    120           2162.6117196
05 May 2022 05:37:33.661    05 May 2022 06:13:19.795      2146.1335759    Earth           Umbra       120           2162.6117196
05 May 2022 06:13:19.795    05 May 2022 06:13:28.021      8.2257619360    Earth           Penumbra    120           2162.6117196
05 May 2022 07:10:56.382    05 May 2022 07:46:42.532      2146.1502846    Earth           Umbra       121           2154.3750187
05 May 2022 07:46:42.532    05 May 2022 07:46:50.757      8.2247341052    Earth           Penumbra    121           2154.3750187
05 May 2022 08:44:10.842    05 May 2022 08:44:19.093      8.2513756701    Earth           Penumbra    122           2162.6544299
05 May 2022 08:44:19.093    05 May 2022 09:20:05.272      2146.1792364    Earth           Umbra       122           2162.6544299
05 May 2022 09:20:05.272    05 May 2022 09:20:13.496      8.2238178584    Earth           Penumbra    122           2162.6544299
05 May 2022 10:17:33.548    05 May 2022 10:17:41.799      8.2512568566    Earth           Penumbra    123           2154.4771241
05 May 2022 10:17:41.799    05 May 2022 10:53:28.025      2146.2258672    Earth           Umbra       123           2154.4771241
05 May 2022 11:50:56.252    05 May 2022 11:51:04.503      8.2512062509    Earth           Penumbra    124           2162.7571866
05 May 2022 11:51:04.503    05 May 2022 12:26:50.787      2146.2833582    Earth           Umbra       124           2162.7571866
05 May 2022 12:26:50.787    05 May 2022 12:26:59.009      8.2226221799    Earth           Penumbra    124           2162.7571866
05 May 2022 13:24:27.207    05 May 2022 14:00:13.547      2146.3396214    Earth           Umbra       125           2154.5617913
05 May 2022 14:00:13.547    05 May 2022 14:00:21.769      8.2221698714    Earth           Penumbra    125           2154.5617913
05 May 2022 14:57:41.663    05 May 2022 14:57:49.914      8.2508617546    Earth           Penumbra    126           2162.8626974
05 May 2022 14:57:49.914    05 May 2022 15:33:36.304      2146.3901699    Earth           Umbra       126           2162.8626974
05 May 2022 15:33:36.304    05 May 2022 15:33:44.525      8.2216657000    Earth           Penumbra    126           2162.8626974
05 May 2022 16:31:04.369    05 May 2022 16:31:12.620      8.2507640007    Earth           Penumbra    127           2154.6922711
05 May 2022 16:31:12.620    05 May 2022 17:06:59.061      2146.4415071    Earth           Umbra       127           2154.6922711
05 May 2022 18:04:27.064    05 May 2022 18:04:35.315      8.2508202642    Earth           Penumbra    128           2162.9732647
05 May 2022 18:04:35.315    05 May 2022 18:40:21.817      2146.5017707    Earth           Umbra       128           2162.9732647
05 May 2022 18:40:21.817    05 May 2022 18:40:30.037      8.2206737017    Earth           Penumbra    128           2162.9732647
05 May 2022 19:37:57.986    05 May 2022 20:13:44.556      2146.5699800    Earth           Umbra       129           2154.7902803
05 May 2022 20:13:44.556    05 May 2022 20:13:52.776      8.2203002879    Earth           Penumbra    129           2154.7902803
05 May 2022 21:11:12.379    05 May 2022 21:11:20.629      8.2508611260    Earth           Penumbra    130           2163.1064813
05 May 2022 21:11:20.629    05 May 2022 21:47:07.265      2146.6356276    Earth           Umbra       130           2163.1064813
05 May 2022 21:47:07.265    05 May 2022 21:47:15.485      8.2199925673    Earth           Penumbra    130           2163.1064813
05 May 2022 22:44:35.005    05 May 2022 22:44:43.256      8.2506492734    Earth           Penumbra    131           2163.1586253
05 May 2022 22:44:43.256    05 May 2022 23:20:29.944      2146.6883531    Earth           Umbra       131           2163.1586253
05 May 2022 23:20:29.944    05 May 2022 23:20:38.163      8.2196229254    Earth           Penumbra    131           2163.1586253
06 May 2022 00:17:57.626    06 May 2022 00:18:05.876      8.2502419129    Earth           Penumbra    132           2163.1957272
06 May 2022 00:18:05.876    06 May 2022 00:53:52.603      2146.7264668    Earth           Umbra       132           2163.1957272
06 May 2022 00:53:52.603    06 May 2022 00:54:00.822      8.2190184854    Earth           Penumbra    132           2163.1957272
06 May 2022 01:51:20.246    06 May 2022 01:51:28.495      8.2496151561    Earth           Penumbra    133           2163.2228113
06 May 2022 01:51:28.495    06 May 2022 02:27:15.250      2146.7550662    Earth           Umbra       133           2163.2228113
06 May 2022 02:27:15.250    06 May 2022 02:27:23.469      8.2181298989    Earth           Penumbra    133           2163.2228113
06 May 2022 03:24:42.859    06 May 2022 03:24:51.108      8.2487960346    Earth           Penumbra    134           2163.2437684
06 May 2022 03:24:51.108    06 May 2022 04:00:37.886      2146.7779017    Earth           Umbra       134           2163.2437684
06 May 2022 04:00:37.886    06 May 2022 04:00:46.103      8.2170706359    Earth           Penumbra    134           2163.2437684
06 May 2022 04:58:05.457    06 May 2022 04:58:13.705      8.2479109056    Earth           Penumbra    135           2163.2592336
06 May 2022 04:58:13.705    06 May 2022 05:34:00.501      2146.7953358    Earth           Umbra       135           2163.2592336
06 May 2022 05:34:00.501    06 May 2022 05:34:08.717      8.2159868558    Earth           Penumbra    135           2163.2592336
06 May 2022 06:31:36.288    06 May 2022 07:07:23.099      2146.8108523    Earth           Umbra       136           2155.0258010
06 May 2022 07:07:23.099    06 May 2022 07:07:31.314      8.2149486523    Earth           Penumbra    136           2155.0258010
06 May 2022 08:04:50.618    06 May 2022 08:04:58.865      8.2466294174    Earth           Penumbra    137           2163.2947692
06 May 2022 08:04:58.865    06 May 2022 08:40:45.699      2146.8341222    Earth           Umbra       137           2163.2947692
06 May 2022 08:40:45.699    06 May 2022 08:40:53.913      8.2140176324    Earth           Penumbra    137           2163.2947692
06 May 2022 09:38:13.193    06 May 2022 09:38:21.440      8.2464071922    Earth           Penumbra    138           2155.1193364
06 May 2022 09:38:21.440    06 May 2022 10:14:08.312      2146.8729292    Earth           Umbra       138           2155.1193364
06 May 2022 11:11:35.767    06 May 2022 11:11:44.013      8.2463226398    Earth           Penumbra    139           2163.3830649
06 May 2022 11:11:44.013    06 May 2022 11:47:30.937      2146.9239719    Earth           Umbra       139           2163.3830649
06 May 2022 11:47:30.937    06 May 2022 11:47:39.150      8.2127704052    Earth           Penumbra    139           2163.3830649
06 May 2022 12:45:06.584    06 May 2022 13:20:53.560      2146.9759421    Earth           Umbra       140           2155.1882866
06 May 2022 13:20:53.560    06 May 2022 13:21:01.772      8.2123444998    Earth           Penumbra    140           2155.1882866
06 May 2022 14:18:20.910    06 May 2022 14:18:29.156      8.2459812867    Earth           Penumbra    141           2163.4796530
06 May 2022 14:18:29.156    06 May 2022 14:54:16.178      2147.0217733    Earth           Umbra       141           2163.4796530
06 May 2022 14:54:16.178    06 May 2022 14:54:24.390      8.2118984777    Earth           Penumbra    141           2163.4796530
06 May 2022 15:51:43.484    06 May 2022 15:51:51.730      8.2458458142    Earth           Penumbra    142           2155.3109156
06 May 2022 15:51:51.730    06 May 2022 16:27:38.795      2147.0650698    Earth           Umbra       142           2155.3109156
06 May 2022 17:25:06.049    06 May 2022 17:25:14.295      8.2458857330    Earth           Penumbra    143           2163.5709587
06 May 2022 17:25:14.295    06 May 2022 18:01:01.409      2147.1140301    Earth           Umbra       143           2163.5709587
06 May 2022 18:01:01.409    06 May 2022 18:01:09.620      8.2110428950    Earth           Penumbra    143           2163.5709587
06 May 2022 18:58:36.837    06 May 2022 19:34:24.008      2147.1707038    Earth           Umbra       144           2155.3814446
06 May 2022 19:34:24.008    06 May 2022 19:34:32.219      8.2107408321    Earth           Penumbra    144           2155.3814446
06 May 2022 20:31:51.105    06 May 2022 20:31:59.351      8.2460677251    Earth           Penumbra    145           2163.6837463
06 May 2022 20:31:59.351    06 May 2022 21:07:46.578      2147.2271559    Earth           Umbra       145           2163.6837463
06 May 2022 21:07:46.578    06 May 2022 21:07:54.789      8.2105226931    Earth           Penumbra    145           2163.6837463
06 May 2022 22:05:13.597    06 May 2022 22:05:21.843      8.2459608559    Earth           Penumbra    146           2155.5180880
06 May 2022 22:05:21.843    06 May 2022 22:41:09.115      2147.2721271    Earth           Umbra       146           2155.5180880
06 May 2022 23:38:36.080    06 May 2022 23:38:44.326      8.2456829958    Earth           Penumbra    147           2163.7565475
06 May 2022 23:38:44.326    07 May 2022 00:14:31.627      2147.3009114    Earth           Umbra       147           2163.7565475
07 May 2022 00:14:31.627    07 May 2022 00:14:39.837      8.2099531428    Earth           Penumbra    147           2163.7565475
07 May 2022 01:12:06.804    07 May 2022 01:47:54.121      2147.3174516    Earth           Umbra       148           2155.5267899
07 May 2022 01:47:54.121    07 May 2022 01:48:02.330      8.2093383302    Earth           Penumbra    148           2155.5267899
07 May 2022 02:45:21.027    07 May 2022 02:45:29.272      8.2445671549    Earth           Penumbra    149           2163.7801207
07 May 2022 02:45:29.272    07 May 2022 03:21:16.599      2147.3270334    Earth           Umbra       149           2163.7801207
07 May 2022 03:21:16.599    07 May 2022 03:21:24.807      8.2085201517    Earth           Penumbra    149           2163.7801207
07 May 2022 04:18:43.481    07 May 2022 04:18:51.725      8.2438193844    Earth           Penumbra    150           2155.5746268
07 May 2022 04:18:51.725    07 May 2022 04:54:39.055      2147.3308074    Earth           Umbra       150           2155.5746268
07 May 2022 05:52:05.921    07 May 2022 05:52:14.164      8.2431523944    Earth           Penumbra    151           2163.7801729
07 May 2022 05:52:14.164    07 May 2022 06:28:01.494      2147.3301747    Earth           Umbra       151           2163.7801729
07 May 2022 06:28:01.494    07 May 2022 06:28:09.701      8.2068457617    Earth           Penumbra    151           2163.7801729
07 May 2022 07:25:36.599    07 May 2022 08:01:23.932      2147.3326280    Earth           Umbra       152           2155.5387829
07 May 2022 08:01:23.932    07 May 2022 08:01:32.138      8.2061548834    Earth           Penumbra    152           2155.5387829
07 May 2022 08:58:50.794    07 May 2022 08:58:59.037      8.2426375360    Earth           Penumbra    153           2163.7954005
07 May 2022 08:58:59.037    07 May 2022 09:34:46.384      2147.3471085    Earth           Umbra       153           2163.7954005
07 May 2022 09:34:46.384    07 May 2022 09:34:54.590      8.2056544838    Earth           Penumbra    153           2163.7954005
07 May 2022 10:32:13.233    07 May 2022 10:32:21.476      8.2427409478    Earth           Penumbra    154           2155.6165127
07 May 2022 10:32:21.476    07 May 2022 11:08:08.849      2147.3737717    Earth           Umbra       154           2155.6165127
07 May 2022 12:05:35.669    07 May 2022 12:05:43.912      8.2428544178    Earth           Penumbra    155           2163.8512164
07 May 2022 12:05:43.912    07 May 2022 12:41:31.315      2147.4031347    Earth           Umbra       155           2163.8512164
07 May 2022 12:41:31.315    07 May 2022 12:41:39.520      8.2052273210    Earth           Penumbra    155           2163.8512164
07 May 2022 13:39:06.347    07 May 2022 14:14:53.773      2147.4265912    Earth           Umbra       156           2155.6316837
07 May 2022 14:14:53.773    07 May 2022 14:15:01.979      8.2050924771    Earth           Penumbra    156           2155.6316837
07 May 2022 15:12:20.541    07 May 2022 15:12:28.784      8.2429757458    Earth           Penumbra    157           2163.8928181
07 May 2022 15:12:28.784    07 May 2022 15:48:16.229      2147.4448803    Earth           Umbra       157           2163.8928181
07 May 2022 15:48:16.229    07 May 2022 15:48:24.434      8.2049620338    Earth           Penumbra    157           2163.8928181
07 May 2022 16:45:42.974    07 May 2022 16:45:51.218      8.2432407187    Earth           Penumbra    158           2155.7084246
07 May 2022 16:45:51.218    07 May 2022 17:21:38.683      2147.4651839    Earth           Umbra       158           2155.7084246
07 May 2022 18:19:05.388    07 May 2022 18:19:13.631      8.2436565659    Earth           Penumbra    159           2163.9401892
07 May 2022 18:19:13.631    07 May 2022 18:55:01.123      2147.4915787    Earth           Umbra       159           2163.9401892
07 May 2022 18:55:01.123    07 May 2022 18:55:09.328      8.2049538614    Earth           Penumbra    159           2163.9401892
07 May 2022 19:52:27.771    07 May 2022 19:52:36.015      8.2440557540    Earth           Penumbra    160           2163.9682813
07 May 2022 19:52:36.015    07 May 2022 20:28:23.534      2147.5191274    Earth           Umbra       160           2163.9682813
07 May 2022 20:28:23.534    07 May 2022 20:28:31.740      8.2050981349    Earth           Penumbra    160           2163.9682813
07 May 2022 21:25:50.130    07 May 2022 21:25:58.375      8.2443178981    Earth           Penumbra    161           2163.9867216
07 May 2022 21:25:58.375    07 May 2022 22:01:45.912      2147.5371038    Earth           Umbra       161           2163.9867216
07 May 2022 22:01:45.912    07 May 2022 22:01:54.117      8.2052999293    Earth           Penumbra    161           2163.9867216
07 May 2022 22:59:12.477    07 May 2022 22:59:20.721      8.2444301108    Earth           Penumbra    162           2155.7827321
07 May 2022 22:59:20.721    07 May 2022 23:35:08.259      2147.5383020    Earth           Umbra       162           2155.7827321
08 May 2022 00:32:34.816    08 May 2022 00:32:43.060      8.2443911349    Earth           Penumbra    163           2163.9742569
08 May 2022 00:32:43.060    08 May 2022 01:08:30.585      2147.5244769    Earth           Umbra       163           2163.9742569
08 May 2022 01:08:30.585    08 May 2022 01:08:38.790      8.2053888822    Earth           Penumbra    163           2163.9742569
08 May 2022 02:05:57.143    08 May 2022 02:06:05.387      8.2441871404    Earth           Penumbra    164           2163.9509531
08 May 2022 02:06:05.387    08 May 2022 02:41:52.889      2147.5016449    Earth           Umbra       164           2163.9509531
08 May 2022 02:41:52.889    08 May 2022 02:42:01.094      8.2051210804    Earth           Penumbra    164           2163.9509531
08 May 2022 03:39:27.698    08 May 2022 04:15:15.170      2147.4723982    Earth           Umbra       165           2155.6771691
08 May 2022 04:15:15.170    08 May 2022 04:15:23.375      8.2047709264    Earth           Penumbra    165           2155.6771691
08 May 2022 05:12:41.752    08 May 2022 05:12:49.996      8.2436043886    Earth           Penumbra    166           2163.8850786
08 May 2022 05:12:49.996    08 May 2022 05:48:37.433      2147.4369953    Earth           Umbra       166           2163.8850786
08 May 2022 05:48:37.433    08 May 2022 05:48:45.637      8.2044789218    Earth           Penumbra    166           2163.8850786
08 May 2022 06:46:04.049    08 May 2022 06:46:12.292      8.2435713848    Earth           Penumbra    167           2155.6439114
08 May 2022 06:46:12.292    08 May 2022 07:21:59.693      2147.4003400    Earth           Umbra       167           2155.6439114
08 May 2022 08:19:26.353    08 May 2022 08:19:34.597      8.2438699901    Earth           Penumbra    168           2163.8195124
08 May 2022 08:19:34.597    08 May 2022 08:55:21.968      2147.3712920    Earth           Umbra       168           2163.8195124
08 May 2022 08:55:21.968    08 May 2022 08:55:30.172      8.2043503644    Earth           Penumbra    168           2163.8195124
08 May 2022 09:52:56.906    08 May 2022 10:28:44.259      2147.3529878    Earth           Umbra       169           2155.5575969
08 May 2022 10:28:44.259    08 May 2022 10:28:52.463      8.2046090509    Earth           Penumbra    169           2155.5575969
08 May 2022 11:26:10.968    08 May 2022 11:26:19.213      8.2450672402    Earth           Penumbra    170           2163.7885829
08 May 2022 11:26:19.213    08 May 2022 12:02:06.551      2147.3384851    Earth           Umbra       170           2163.7885829
08 May 2022 12:02:06.551    08 May 2022 12:02:14.756      8.2050305558    Earth           Penumbra    170           2163.7885829
08 May 2022 12:59:33.272    08 May 2022 12:59:41.518      8.2456521923    Earth           Penumbra    171           2155.5643495
08 May 2022 12:59:41.518    08 May 2022 13:35:28.837      2147.3186973    Earth           Umbra       171           2155.5643495
08 May 2022 14:32:55.580    08 May 2022 14:33:03.826      8.2462538034    Earth           Penumbra    172           2163.7441642
08 May 2022 14:33:03.826    08 May 2022 15:08:51.118      2147.2919193    Earth           Umbra       172           2163.7441642
08 May 2022 15:08:51.118    08 May 2022 15:08:59.324      8.2059911219    Earth           Penumbra    172           2163.7441642
08 May 2022 16:06:17.886    08 May 2022 16:06:26.133      8.2470292342    Earth           Penumbra    173           2163.7172882
08 May 2022 16:06:26.133    08 May 2022 16:42:13.397      2147.2636876    Earth           Umbra       173           2163.7172882
08 May 2022 16:42:13.397    08 May 2022 16:42:21.604      8.2065713592    Earth           Penumbra    173           2163.7172882
08 May 2022 17:39:40.178    08 May 2022 17:39:48.426      8.2480074023    Earth           Penumbra    174           2163.6942720
08 May 2022 17:39:48.426    08 May 2022 18:15:35.665      2147.2389829    Earth           Umbra       174           2163.6942720
08 May 2022 18:15:35.665    08 May 2022 18:15:43.872      8.2072817255    Earth           Penumbra    174           2163.6942720
08 May 2022 19:13:02.441    08 May 2022 19:13:10.690      8.2490421482    Earth           Penumbra    175           2163.6727652
08 May 2022 19:13:10.690    08 May 2022 19:48:57.905      2147.2156206    Earth           Umbra       175           2163.6727652
08 May 2022 19:48:57.905    08 May 2022 19:49:06.113      8.2081024186    Earth           Penumbra    175           2163.6727652
