GMAT/Constellation/Eclipses/eclipse13.txt

Spacecraft: HSEYE13

Start Time (UTC)            Stop Time (UTC)               Duration (s)    Occ Body        Type        Event Number  Total Duration (s)
27 Apr 2022 12:31:47.073    27 Apr 2022 13:07:17.543      2130.4709534    Earth           Umbra       1             2138.8250641
27 Apr 2022 13:07:17.543    27 Apr 2022 13:07:25.898      8.3541106666    Earth           Penumbra    1             2138.8250641
27 Apr 2022 14:05:11.063    27 Apr 2022 14:05:19.474      8.4106303635    Earth           Penumbra    2             2147.7403085
27 Apr 2022 14:05:19.474    27 Apr 2022 14:40:50.457      2130.9833843    Earth           Umbra       2             2147.7403085
27 Apr 2022 14:40:50.457    27 Apr 2022 14:40:58.804      8.3462938084    Earth           Penumbra    2             2147.7403085
27 Apr 2022 15:38:43.510    27 Apr 2022 15:38:51.913      8.4025469609    Earth           Penumbra    3             2148.2233233
27 Apr 2022 15:38:51.913    27 Apr 2022 16:14:23.395      2131.4821208    Earth           Umbra       3             2148.2233233
27 Apr 2022 16:14:23.395    27 Apr 2022 16:14:31.733      8.3386554848    Earth           Penumbra    3             2148.2233233
27 Apr 2022 17:12:15.957    27 Apr 2022 17:12:24.352      8.3947992534    Earth           Penumbra    4             2148.6936247
27 Apr 2022 17:12:24.352    27 Apr 2022 17:47:56.319      2131.9676100    Earth           Umbra       4             2148.6936247
27 Apr 2022 17:47:56.319    27 Apr 2022 17:48:04.650      8.3312154980    Earth           Penumbra    4             2148.6936247
27 Apr 2022 18:45:56.764    27 Apr 2022 19:21:29.198      2132.4339919    Earth           Umbra       5             2132.4339919
27 Apr 2022 20:19:20.794    27 Apr 2022 20:19:29.173      8.3795056329    Earth           Penumbra    6             2149.5736686
27 Apr 2022 20:19:29.173    27 Apr 2022 20:55:02.051      2132.8773255    Earth           Umbra       6             2149.5736686
27 Apr 2022 20:55:02.051    27 Apr 2022 20:55:10.367      8.3168374957    Earth           Penumbra    6             2149.5736686
27 Apr 2022 21:52:53.234    27 Apr 2022 21:53:01.606      8.3719009417    Earth           Penumbra    7             2149.9803222
27 Apr 2022 21:53:01.606    27 Apr 2022 22:28:34.905      2133.2983973    Earth           Umbra       7             2149.9803222
27 Apr 2022 22:28:34.905    27 Apr 2022 22:28:43.215      8.3100239513    Earth           Penumbra    7             2149.9803222
27 Apr 2022 23:26:25.677    27 Apr 2022 23:26:34.041      8.3645866835    Earth           Penumbra    8             2150.3726478
27 Apr 2022 23:26:34.041    28 Apr 2022 00:02:07.746      2133.7045153    Earth           Umbra       8             2150.3726478
28 Apr 2022 00:02:07.746    28 Apr 2022 00:02:16.049      8.3035457879    Earth           Penumbra    8             2150.3726478
28 Apr 2022 01:00:06.418    28 Apr 2022 01:35:40.524      2134.1058399    Earth           Umbra       9             2142.4032451
28 Apr 2022 01:35:40.524    28 Apr 2022 01:35:48.821      8.2974052057    Earth           Penumbra    9             2142.4032451
28 Apr 2022 02:33:30.351    28 Apr 2022 02:33:38.702      8.3511604462    Earth           Penumbra    10            2151.1472412
28 Apr 2022 02:33:38.702    28 Apr 2022 03:09:13.206      2134.5044632    Earth           Umbra       10            2151.1472412
28 Apr 2022 03:09:13.206    28 Apr 2022 03:09:21.498      8.2916176063    Earth           Penumbra    10            2151.1472412
28 Apr 2022 04:07:02.595    28 Apr 2022 04:07:10.940      8.3449720871    Earth           Penumbra    11            2151.5241707
28 Apr 2022 04:07:10.940    28 Apr 2022 04:42:45.833      2134.8929924    Earth           Umbra       11            2151.5241707
28 Apr 2022 04:42:45.833    28 Apr 2022 04:42:54.119      8.2862062496    Earth           Penumbra    11            2151.5241707
28 Apr 2022 05:40:34.887    28 Apr 2022 05:40:43.226      8.3392244065    Earth           Penumbra    12            2143.6071066
28 Apr 2022 05:40:43.226    28 Apr 2022 06:16:18.494      2135.2678822    Earth           Umbra       12            2143.6071066
28 Apr 2022 07:14:07.267    28 Apr 2022 07:14:15.601      8.3339343779    Earth           Penumbra    13            2152.2440949
28 Apr 2022 07:14:15.601    28 Apr 2022 07:49:51.235      2135.6336850    Earth           Umbra       13            2152.2440949
28 Apr 2022 07:49:51.235    28 Apr 2022 07:49:59.511      8.2764754887    Earth           Penumbra    13            2152.2440949
28 Apr 2022 08:47:47.997    28 Apr 2022 09:23:23.985      2135.9883080    Earth           Umbra       14            2144.2603444
28 Apr 2022 09:23:23.985    28 Apr 2022 09:23:32.257      8.2720363280    Earth           Penumbra    14            2144.2603444
28 Apr 2022 10:21:12.001    28 Apr 2022 10:21:20.325      8.3237802261    Earth           Penumbra    15            2152.9082883
28 Apr 2022 10:21:20.325    28 Apr 2022 10:56:56.642      2136.3167981    Earth           Umbra       15            2152.9082883
28 Apr 2022 10:56:56.642    28 Apr 2022 10:57:04.909      8.2677100087    Earth           Penumbra    15            2152.9082883
28 Apr 2022 11:54:44.268    28 Apr 2022 11:54:52.587      8.3186303847    Earth           Penumbra    16            2144.9272425
28 Apr 2022 11:54:52.587    28 Apr 2022 12:30:29.195      2136.6086122    Earth           Umbra       16            2144.9272425
28 Apr 2022 13:28:16.541    28 Apr 2022 13:28:24.855      8.3136505913    Earth           Penumbra    17            2153.4434761
28 Apr 2022 13:28:24.855    28 Apr 2022 14:04:01.726      2136.8707197    Earth           Umbra       17            2153.4434761
28 Apr 2022 14:04:01.726    28 Apr 2022 14:04:09.985      8.2591057755    Earth           Penumbra    17            2153.4434761
28 Apr 2022 15:01:57.166    28 Apr 2022 15:37:34.282      2137.1157763    Earth           Umbra       18            2145.3707585
28 Apr 2022 15:37:34.282    28 Apr 2022 15:37:42.537      8.2549821935    Earth           Penumbra    18            2145.3707585
28 Apr 2022 16:35:21.184    28 Apr 2022 16:35:29.488      8.3047989872    Earth           Penumbra    19            2153.9022388
28 Apr 2022 16:35:29.488    28 Apr 2022 17:11:06.835      2137.3463653    Earth           Umbra       19            2153.9022388
28 Apr 2022 17:11:06.835    28 Apr 2022 17:11:15.086      8.2510745502    Earth           Penumbra    19            2153.9022388
28 Apr 2022 18:08:53.488    28 Apr 2022 18:09:01.788      8.3007366979    Earth           Penumbra    20            2145.8578346
28 Apr 2022 18:09:01.788    28 Apr 2022 18:44:39.346      2137.5570979    Earth           Umbra       20            2145.8578346
28 Apr 2022 19:42:25.786    28 Apr 2022 19:42:34.082      8.2966923248    Earth           Penumbra    21            2154.2847874
28 Apr 2022 19:42:34.082    28 Apr 2022 20:18:11.827      2137.7442763    Earth           Umbra       21            2154.2847874
28 Apr 2022 20:18:11.827    28 Apr 2022 20:18:20.070      8.2438187557    Earth           Penumbra    21            2154.2847874
28 Apr 2022 21:16:06.400    28 Apr 2022 21:51:44.309      2137.9092036    Earth           Umbra       22            2146.1497726
28 Apr 2022 21:51:44.309    28 Apr 2022 21:51:52.550      8.2405689871    Earth           Penumbra    22            2146.1497726
28 Apr 2022 22:49:30.439    28 Apr 2022 22:49:38.728      8.2889408455    Earth           Penumbra    23            2154.5850174
28 Apr 2022 22:49:38.728    28 Apr 2022 23:25:16.786      2138.0584107    Earth           Umbra       23            2154.5850174
28 Apr 2022 23:25:16.786    28 Apr 2022 23:25:25.024      8.2376659149    Earth           Penumbra    23            2154.5850174
29 Apr 2022 00:23:02.724    29 Apr 2022 00:23:11.010      8.2856005523    Earth           Penumbra    24            2146.4869193
29 Apr 2022 00:23:11.010    29 Apr 2022 00:58:49.211      2138.2013188    Earth           Umbra       24            2146.4869193
29 Apr 2022 01:56:34.921    29 Apr 2022 01:56:43.204      8.2826613332    Earth           Penumbra    25            2154.8568787
29 Apr 2022 01:56:43.204    29 Apr 2022 02:32:21.545      2138.3413134    Earth           Umbra       25            2154.8568787
29 Apr 2022 02:32:21.545    29 Apr 2022 02:32:29.778      8.2329039462    Earth           Penumbra    25            2154.8568787
29 Apr 2022 03:30:07.066    29 Apr 2022 03:30:15.346      8.2800810691    Earth           Penumbra    26            2154.9826827
29 Apr 2022 03:30:15.346    29 Apr 2022 04:05:53.817      2138.4715320    Earth           Umbra       26            2154.9826827
29 Apr 2022 04:05:53.817    29 Apr 2022 04:06:02.048      8.2310695667    Earth           Penumbra    26            2154.9826827
29 Apr 2022 05:03:47.529    29 Apr 2022 05:39:26.115      2138.5858862    Earth           Umbra       27            2146.8155055
29 Apr 2022 05:39:26.115    29 Apr 2022 05:39:34.345      8.2296192879    Earth           Penumbra    27            2146.8155055
29 Apr 2022 06:37:11.531    29 Apr 2022 06:37:19.807      8.2762529491    Earth           Penumbra    28            2146.9640390
29 Apr 2022 06:37:19.807    29 Apr 2022 07:12:58.495      2138.6877861    Earth           Umbra       28            2146.9640390
29 Apr 2022 08:10:43.847    29 Apr 2022 08:10:52.121      8.2748583052    Earth           Penumbra    29            2155.2815627
29 Apr 2022 08:10:52.121    29 Apr 2022 08:46:30.900      2138.7789883    Earth           Umbra       29            2155.2815627
29 Apr 2022 08:46:30.900    29 Apr 2022 08:46:39.128      8.2277160720    Earth           Penumbra    29            2155.2815627
29 Apr 2022 09:44:16.104    29 Apr 2022 09:44:24.377      8.2734655472    Earth           Penumbra    30            2155.3485175
29 Apr 2022 09:44:24.377    29 Apr 2022 10:20:03.225      2138.8479988    Earth           Umbra       30            2155.3485175
29 Apr 2022 10:20:03.225    29 Apr 2022 10:20:11.452      8.2270531682    Earth           Penumbra    30            2155.3485175
29 Apr 2022 11:17:56.561    29 Apr 2022 11:53:35.443      2138.8817082    Earth           Umbra       31            2147.1081233
29 Apr 2022 11:53:35.443    29 Apr 2022 11:53:43.669      8.2264150959    Earth           Penumbra    31            2147.1081233
29 Apr 2022 12:51:20.473    29 Apr 2022 12:51:28.744      8.2706712303    Earth           Penumbra    32            2155.3789489
29 Apr 2022 12:51:28.744    29 Apr 2022 13:27:07.626      2138.8824771    Earth           Umbra       32            2155.3789489
29 Apr 2022 13:27:07.626    29 Apr 2022 13:27:15.852      8.2258005976    Earth           Penumbra    32            2155.3789489
29 Apr 2022 14:24:52.704    29 Apr 2022 14:25:00.974      8.2696742029    Earth           Penumbra    33            2155.3574744
29 Apr 2022 14:25:00.974    29 Apr 2022 15:00:39.836      2138.8624762    Earth           Umbra       33            2155.3574744
29 Apr 2022 15:00:39.836    29 Apr 2022 15:00:48.062      8.2253240864    Earth           Penumbra    33            2155.3574744
29 Apr 2022 15:58:24.957    29 Apr 2022 15:58:33.226      8.2690556184    Earth           Penumbra    34            2155.3205272
29 Apr 2022 15:58:33.226    29 Apr 2022 16:34:12.052      2138.8263974    Earth           Umbra       34            2155.3205272
29 Apr 2022 16:34:12.052    29 Apr 2022 16:34:20.277      8.2250742009    Earth           Penumbra    34            2155.3205272
29 Apr 2022 17:31:57.192    29 Apr 2022 17:32:05.461      8.2686806330    Earth           Penumbra    35            2155.2631925
29 Apr 2022 17:32:05.461    29 Apr 2022 18:07:44.230      2138.7694704    Earth           Umbra       35            2155.2631925
29 Apr 2022 18:07:44.230    29 Apr 2022 18:07:52.455      8.2250415115    Earth           Penumbra    35            2155.2631925
29 Apr 2022 19:05:37.688    29 Apr 2022 19:41:16.376      2138.6879058    Earth           Umbra       36            2146.9131227
29 Apr 2022 19:41:16.376    29 Apr 2022 19:41:24.601      8.2252169028    Earth           Penumbra    36            2146.9131227
29 Apr 2022 20:39:01.669    29 Apr 2022 20:39:09.937      8.2681302563    Earth           Penumbra    37            2146.8517961
29 Apr 2022 20:39:09.937    29 Apr 2022 21:14:48.521      2138.5836659    Earth           Umbra       37            2146.8517961
29 Apr 2022 22:12:33.936    29 Apr 2022 22:12:42.204      8.2680941094    Earth           Penumbra    38            2154.9576520
29 Apr 2022 22:12:42.204    29 Apr 2022 22:48:20.667      2138.4630715    Earth           Umbra       38            2154.9576520
29 Apr 2022 22:48:20.667    29 Apr 2022 22:48:28.894      8.2264864468    Earth           Penumbra    38            2154.9576520
29 Apr 2022 23:46:06.169    29 Apr 2022 23:46:14.437      8.2684574649    Earth           Penumbra    39            2154.8307328
29 Apr 2022 23:46:14.437    30 Apr 2022 00:21:52.772      2138.3346042    Earth           Umbra       39            2154.8307328
30 Apr 2022 00:21:52.772    30 Apr 2022 00:22:01.000      8.2276711240    Earth           Penumbra    39            2154.8307328
30 Apr 2022 01:19:46.589    30 Apr 2022 01:55:24.792      2138.2023790    Earth           Umbra       40            2146.4315918
30 Apr 2022 01:55:24.792    30 Apr 2022 01:55:33.021      8.2292128704    Earth           Penumbra    40            2146.4315918
30 Apr 2022 02:53:10.413    30 Apr 2022 02:53:18.683      8.2704383181    Earth           Penumbra    41            2154.5620302
30 Apr 2022 02:53:18.683    30 Apr 2022 03:28:56.744      2138.0604670    Earth           Umbra       41            2154.5620302
30 Apr 2022 03:28:56.744    30 Apr 2022 03:29:04.975      8.2311248872    Earth           Penumbra    41            2154.5620302
30 Apr 2022 04:26:42.540    30 Apr 2022 04:26:50.812      8.2720542443    Earth           Penumbra    42            2146.1727825
30 Apr 2022 04:26:50.812    30 Apr 2022 05:02:28.712      2137.9007282    Earth           Umbra       42            2146.1727825
30 Apr 2022 06:00:14.764    30 Apr 2022 06:00:23.038      8.2741532824    Earth           Penumbra    43            2154.2348024
30 Apr 2022 06:00:23.038    30 Apr 2022 06:36:00.763      2137.7245322    Earth           Umbra       43            2154.2348024
30 Apr 2022 06:36:00.763    30 Apr 2022 06:36:08.999      8.2361169392    Earth           Penumbra    43            2154.2348024
30 Apr 2022 07:33:47.042    30 Apr 2022 07:33:55.319      8.2765899017    Earth           Penumbra    44            2154.0522518
30 Apr 2022 07:33:55.319    30 Apr 2022 08:09:32.855      2137.5365470    Earth           Umbra       44            2154.0522518
30 Apr 2022 08:09:32.855    30 Apr 2022 08:09:41.094      8.2391149364    Earth           Penumbra    44            2154.0522518
30 Apr 2022 09:07:27.551    30 Apr 2022 09:43:04.880      2137.3297408    Earth           Umbra       45            2145.5720433
30 Apr 2022 09:43:04.880    30 Apr 2022 09:43:13.123      8.2423024694    Earth           Penumbra    45            2145.5720433
30 Apr 2022 10:40:51.425    30 Apr 2022 10:40:59.706      8.2815046306    Earth           Penumbra    46            2153.6170802
30 Apr 2022 10:40:59.706    30 Apr 2022 11:16:36.796      2137.0900334    Earth           Umbra       46            2153.6170802
30 Apr 2022 11:16:36.796    30 Apr 2022 11:16:45.042      8.2455421798    Earth           Penumbra    46            2153.6170802
30 Apr 2022 12:14:23.568    30 Apr 2022 12:14:31.852      8.2840091432    Earth           Penumbra    47            2145.0990173
30 Apr 2022 12:14:31.852    30 Apr 2022 12:50:08.667      2136.8150081    Earth           Umbra       47            2145.0990173
30 Apr 2022 13:47:55.760    30 Apr 2022 13:48:04.047      8.2868207479    Earth           Penumbra    48            2153.0541906
30 Apr 2022 13:48:04.047    30 Apr 2022 14:23:40.562      2136.5151980    Earth           Umbra       48            2153.0541906
30 Apr 2022 14:23:40.562    30 Apr 2022 14:23:48.814      8.2521718461    Earth           Penumbra    48            2153.0541906
30 Apr 2022 15:21:27.984    30 Apr 2022 15:21:36.274      8.2900177105    Earth           Penumbra    49            2152.7429418
30 Apr 2022 15:21:36.274    30 Apr 2022 15:57:12.472      2136.1971419    Earth           Umbra       49            2152.7429418
30 Apr 2022 15:57:12.472    30 Apr 2022 15:57:20.727      8.2557821414    Earth           Penumbra    49            2152.7429418
30 Apr 2022 16:55:00.199    30 Apr 2022 16:55:08.493      8.2935167360    Earth           Penumbra    50            2152.4100629
30 Apr 2022 16:55:08.493    30 Apr 2022 17:30:44.350      2135.8568994    Earth           Umbra       50            2152.4100629
30 Apr 2022 17:30:44.350    30 Apr 2022 17:30:52.609      8.2596467226    Earth           Penumbra    50            2152.4100629
30 Apr 2022 18:28:32.405    30 Apr 2022 18:28:40.702      8.2971556345    Earth           Penumbra    51            2152.0511726
30 Apr 2022 18:28:40.702    30 Apr 2022 19:04:16.192      2135.4902706    Earth           Umbra       51            2152.0511726
30 Apr 2022 19:04:16.192    30 Apr 2022 19:04:24.456      8.2637464162    Earth           Penumbra    51            2152.0511726
30 Apr 2022 20:02:04.631    30 Apr 2022 20:02:12.932      8.3008702844    Earth           Penumbra    52            2143.4006682
30 Apr 2022 20:02:12.932    30 Apr 2022 20:37:48.032      2135.0997979    Earth           Umbra       52            2143.4006682
30 Apr 2022 21:35:36.881    30 Apr 2022 21:35:45.186      8.3047760418    Earth           Penumbra    53            2151.2698693
30 Apr 2022 21:35:45.186    30 Apr 2022 22:11:19.878      2134.6922055    Earth           Umbra       53            2151.2698693
30 Apr 2022 22:11:19.878    30 Apr 2022 22:11:28.151      8.2728878246    Earth           Penumbra    53            2151.2698693
30 Apr 2022 23:09:17.417    30 Apr 2022 23:44:51.692      2134.2751054    Earth           Umbra       54            2142.5531522
30 Apr 2022 23:44:51.692    30 Apr 2022 23:44:59.970      8.2780467812    Earth           Penumbra    54            2142.5531522
01 May 2022 00:42:41.262    01 May 2022 00:42:49.575      8.3138247253    Earth           Penumbra    55            2150.4501437
01 May 2022 00:42:49.575    01 May 2022 01:18:23.428      2133.8527326    Earth           Umbra       55            2150.4501437
01 May 2022 01:18:23.428    01 May 2022 01:18:31.712      8.2835863810    Earth           Penumbra    55            2150.4501437
01 May 2022 02:16:13.353    01 May 2022 02:16:21.672      8.3190113422    Earth           Penumbra    56            2150.0287409
01 May 2022 02:16:21.672    01 May 2022 02:51:55.092      2133.4202245    Earth           Umbra       56            2150.0287409
01 May 2022 02:51:55.092    01 May 2022 02:52:03.382      8.2895050524    Earth           Penumbra    56            2150.0287409
01 May 2022 03:49:45.470    01 May 2022 03:49:53.795      8.3246433525    Earth           Penumbra    57            2149.5884911
01 May 2022 03:49:53.795    01 May 2022 04:25:26.763      2132.9680173    Earth           Umbra       57            2149.5884911
01 May 2022 04:25:26.763    01 May 2022 04:25:35.059      8.2958304556    Earth           Penumbra    57            2149.5884911
01 May 2022 05:23:17.688    01 May 2022 05:23:26.019      8.3307741908    Earth           Penumbra    58            2140.8256121
01 May 2022 05:23:26.019    01 May 2022 05:58:58.514      2132.4948379    Earth           Umbra       58            2140.8256121
01 May 2022 06:56:49.975    01 May 2022 06:56:58.313      8.3373007597    Earth           Penumbra    59            2148.6540463
01 May 2022 06:56:58.313    01 May 2022 07:32:30.320      2132.0070988    Earth           Umbra       59            2148.6540463
01 May 2022 07:32:30.320    01 May 2022 07:32:38.630      8.3096467657    Earth           Penumbra    59            2148.6540463
01 May 2022 08:30:22.228    01 May 2022 08:30:30.572      8.3439426846    Earth           Penumbra    60            2148.1637044
01 May 2022 08:30:30.572    01 May 2022 09:06:02.074      2131.5027938    Earth           Umbra       60            2148.1637044
01 May 2022 09:06:02.074    01 May 2022 09:06:10.391      8.3169679390    Earth           Penumbra    60            2148.1637044
01 May 2022 10:03:54.400    01 May 2022 10:04:02.750      8.3505311748    Earth           Penumbra    61            2147.6435119
01 May 2022 10:04:02.750    01 May 2022 10:39:33.719      2130.9686005    Earth           Umbra       61            2147.6435119
01 May 2022 10:39:33.719    01 May 2022 10:39:42.043      8.3243802655    Earth           Penumbra    61            2147.6435119
01 May 2022 11:37:26.553    01 May 2022 11:37:34.910      8.3571708994    Earth           Penumbra    62            2147.0866360
01 May 2022 11:37:34.910    01 May 2022 12:13:05.307      2130.3976530    Earth           Umbra       62            2147.0866360
01 May 2022 12:13:05.307    01 May 2022 12:13:13.639      8.3318120800    Earth           Penumbra    62            2147.0866360
01 May 2022 13:11:07.119    01 May 2022 13:46:36.917      2129.7977308    Earth           Umbra       63            2138.1370740
01 May 2022 13:46:36.917    01 May 2022 13:46:45.256      8.3393432200    Earth           Penumbra    63            2138.1370740
01 May 2022 14:44:31.000    01 May 2022 14:44:39.371      8.3713907981    Earth           Penumbra    64            2137.5481033
01 May 2022 14:44:39.371    01 May 2022 15:20:08.548      2129.1767125    Earth           Umbra       64            2137.5481033
01 May 2022 16:18:03.245    01 May 2022 16:18:11.624      8.3790501812    Earth           Penumbra    65            2145.2659411
01 May 2022 16:18:11.624    01 May 2022 16:53:40.155      2128.5316977    Earth           Umbra       65            2145.2659411
01 May 2022 16:53:40.155    01 May 2022 16:53:48.511      8.3551931893    Earth           Penumbra    65            2145.2659411
01 May 2022 17:51:35.480    01 May 2022 17:51:43.867      8.3869261318    Earth           Penumbra    66            2144.6082727
01 May 2022 17:51:43.867    01 May 2022 18:27:11.725      2127.8578015    Earth           Umbra       66            2144.6082727
01 May 2022 18:27:11.725    01 May 2022 18:27:20.089      8.3635450224    Earth           Penumbra    66            2144.6082727
01 May 2022 19:25:07.735    01 May 2022 19:25:16.130      8.3949224674    Earth           Penumbra    67            2143.9250018
01 May 2022 19:25:16.130    01 May 2022 20:00:43.288      2127.1578826    Earth           Umbra       67            2143.9250018
01 May 2022 20:00:43.288    01 May 2022 20:00:51.660      8.3721967181    Earth           Penumbra    67            2143.9250018
01 May 2022 20:58:40.018    01 May 2022 20:58:48.421      8.4031058243    Earth           Penumbra    68            2143.2239665
01 May 2022 20:58:48.421    01 May 2022 21:34:14.861      2126.4396228    Earth           Umbra       68            2143.2239665
01 May 2022 21:34:14.861    01 May 2022 21:34:23.242      8.3812378580    Earth           Penumbra    68            2143.2239665
01 May 2022 22:32:12.289    01 May 2022 22:32:20.701      8.4116647951    Earth           Penumbra    69            2142.5124966
01 May 2022 22:32:20.701    01 May 2022 23:07:46.411      2125.7101099    Earth           Umbra       69            2142.5124966
01 May 2022 23:07:46.411    01 May 2022 23:07:54.802      8.3907218766    Earth           Penumbra    69            2142.5124966
02 May 2022 00:05:44.496    02 May 2022 00:05:52.917      8.4207225940    Earth           Penumbra    70            2141.7944851
02 May 2022 00:05:52.917    02 May 2022 00:41:17.890      2124.9731341    Earth           Umbra       70            2141.7944851
02 May 2022 00:41:17.890    02 May 2022 00:41:26.291      8.4006283432    Earth           Penumbra    70            2141.7944851
02 May 2022 01:39:16.640    02 May 2022 01:39:25.070      8.4302635049    Earth           Penumbra    71            2132.6550258
02 May 2022 01:39:25.070    02 May 2022 02:14:49.295      2124.2247623    Earth           Umbra       71            2132.6550258
02 May 2022 03:12:57.241    02 May 2022 03:48:20.696      2123.4546564    Earth           Umbra       72            2131.8763295
02 May 2022 03:48:20.696    02 May 2022 03:48:29.117      8.4216731018    Earth           Penumbra    72            2131.8763295
02 May 2022 04:46:21.064    02 May 2022 04:46:29.515      8.4508216940    Earth           Penumbra    73            2139.5422998
02 May 2022 04:46:29.515    02 May 2022 05:21:52.174      2122.6586312    Earth           Umbra       73            2139.5422998
02 May 2022 05:21:52.174    02 May 2022 05:22:00.606      8.4328469122    Earth           Penumbra    73            2139.5422998
02 May 2022 06:19:53.413    02 May 2022 06:20:01.875      8.4618175984    Earth           Penumbra    74            2138.7498083
02 May 2022 06:20:01.875    02 May 2022 06:55:23.718      2121.8435670    Earth           Umbra       74            2138.7498083
02 May 2022 06:55:23.718    02 May 2022 06:55:32.163      8.4444236825    Earth           Penumbra    74            2138.7498083
02 May 2022 07:53:25.741    02 May 2022 07:53:34.214      8.4730080678    Earth           Penumbra    75            2137.9418616
02 May 2022 07:53:34.214    02 May 2022 08:28:55.227      2121.0125560    Earth           Umbra       75            2137.9418616
02 May 2022 08:28:55.227    02 May 2022 08:29:03.683      8.4562974866    Earth           Penumbra    75            2137.9418616
02 May 2022 09:26:57.989    02 May 2022 09:27:06.473      8.4841777920    Earth           Penumbra    76            2137.1072720
02 May 2022 09:27:06.473    02 May 2022 10:02:26.628      2120.1547805    Earth           Umbra       76            2137.1072720
02 May 2022 10:02:26.628    02 May 2022 10:02:35.096      8.4683136782    Earth           Penumbra    76            2137.1072720
02 May 2022 11:00:30.207    02 May 2022 11:00:38.702      8.4953780053    Earth           Penumbra    77            2136.2354853
02 May 2022 11:00:38.702    02 May 2022 11:35:57.962      2119.2597397    Earth           Umbra       77            2136.2354853
02 May 2022 11:35:57.962    02 May 2022 11:36:06.442      8.4803675883    Earth           Penumbra    77            2136.2354853
02 May 2022 12:34:02.472    02 May 2022 12:34:10.979      8.5068230750    Earth           Penumbra    78            2126.8383391
02 May 2022 12:34:10.979    02 May 2022 13:09:29.311      2118.3315161    Earth           Umbra       78            2126.8383391
02 May 2022 14:07:34.792    02 May 2022 14:07:43.311      8.5186685901    Earth           Penumbra    79            2134.4021513
02 May 2022 14:07:43.311    02 May 2022 14:43:00.689      2117.3785842    Earth           Umbra       79            2134.4021513
02 May 2022 14:43:00.689    02 May 2022 14:43:09.194      8.5048984853    Earth           Penumbra    79            2134.4021513
02 May 2022 15:41:07.121    02 May 2022 15:41:15.652      8.5309186368    Earth           Penumbra    80            2133.4477773
02 May 2022 15:41:15.652    02 May 2022 16:16:32.051      2116.3992170    Earth           Umbra       80            2133.4477773
02 May 2022 16:16:32.051    02 May 2022 16:16:40.569      8.5176417022    Earth           Penumbra    80            2133.4477773
02 May 2022 17:14:47.987    02 May 2022 17:50:03.375      2115.3876355    Earth           Umbra       81            2123.9183565
02 May 2022 17:50:03.375    02 May 2022 17:50:11.905      8.5307209287    Earth           Penumbra    81            2123.9183565
02 May 2022 18:48:11.784    02 May 2022 18:48:20.340      8.5562105058    Earth           Penumbra    82            2131.4469172
02 May 2022 18:48:20.340    02 May 2022 19:23:34.687      2114.3465743    Earth           Umbra       82            2131.4469172
02 May 2022 19:23:34.687    02 May 2022 19:23:43.231      8.5441323929    Earth           Penumbra    82            2131.4469172
02 May 2022 20:21:44.156    02 May 2022 20:21:52.725      8.5691552027    Earth           Penumbra    83            2130.4122316
02 May 2022 20:21:52.725    02 May 2022 20:57:06.010      2113.2851176    Earth           Umbra       83            2130.4122316
02 May 2022 20:57:06.010    02 May 2022 20:57:14.568      8.5579587612    Earth           Penumbra    83            2130.4122316
02 May 2022 21:55:16.527    02 May 2022 21:55:25.110      8.5824761423    Earth           Penumbra    84            2129.3651620
02 May 2022 21:55:25.110    02 May 2022 22:30:37.320      2112.2104085    Earth           Umbra       84            2129.3651620
02 May 2022 22:30:37.320    02 May 2022 22:30:45.892      8.5722773569    Earth           Penumbra    84            2129.3651620
02 May 2022 23:28:57.441    03 May 2022 00:04:08.566      2111.1253690    Earth           Umbra       85            2111.1253690
03 May 2022 01:02:21.099    03 May 2022 01:02:29.710      8.6107377196    Earth           Penumbra    86            2127.2396709
03 May 2022 01:02:29.710    03 May 2022 01:37:39.736      2110.0265967    Earth           Umbra       86            2127.2396709
03 May 2022 01:37:39.736    03 May 2022 01:37:48.339      8.6023365380    Earth           Penumbra    86            2127.2396709
03 May 2022 02:35:53.364    03 May 2022 02:36:01.989      8.6256730137    Earth           Penumbra    87            2126.1472807
03 May 2022 02:36:01.989    03 May 2022 03:11:10.893      2108.9035645    Earth           Umbra       87            2126.1472807
03 May 2022 03:11:10.893    03 May 2022 03:11:19.511      8.6180431768    Earth           Penumbra    87            2126.1472807
03 May 2022 04:09:25.731    03 May 2022 04:09:34.372      8.6411696859    Earth           Penumbra    88            2125.0246253
03 May 2022 04:09:34.372    03 May 2022 04:44:42.121      2107.7492252    Earth           Umbra       88            2125.0246253
03 May 2022 04:44:42.121    03 May 2022 04:44:50.756      8.6342304130    Earth           Penumbra    88            2125.0246253
03 May 2022 05:43:06.857    03 May 2022 06:18:13.426      2106.5696629    Earth           Umbra       89            2115.2205458
03 May 2022 06:18:13.426    03 May 2022 06:18:22.077      8.6508828448    Earth           Penumbra    89            2115.2205458
03 May 2022 07:16:30.665    03 May 2022 07:16:39.339      8.6734985816    Earth           Penumbra    90            2122.7140687
03 May 2022 07:16:39.339    03 May 2022 07:51:44.712      2105.3726599    Earth           Umbra       90            2122.7140687
03 May 2022 07:51:44.712    03 May 2022 07:51:53.380      8.6679102620    Earth           Penumbra    90            2122.7140687
03 May 2022 08:50:03.052    03 May 2022 08:50:11.742      8.6898420355    Earth           Penumbra    91            2121.5264978
03 May 2022 08:50:11.742    03 May 2022 09:25:15.893      2104.1515044    Earth           Umbra       91            2121.5264978
03 May 2022 09:25:15.893    03 May 2022 09:25:24.578      8.6851514177    Earth           Penumbra    91            2121.5264978
03 May 2022 10:23:35.397    03 May 2022 10:23:44.104      8.7062131497    Earth           Penumbra    92            2120.3020285
03 May 2022 10:23:44.104    03 May 2022 10:58:46.997      2102.8933511    Earth           Umbra       92            2120.3020285
03 May 2022 10:58:46.997    03 May 2022 10:58:55.699      8.7024642387    Earth           Penumbra    92            2120.3020285
03 May 2022 11:57:07.788    03 May 2022 11:57:16.511      8.7228099466    Earth           Penumbra    93            2110.3207521
03 May 2022 11:57:16.511    03 May 2022 12:32:18.109      2101.5979422    Earth           Umbra       93            2110.3207521
03 May 2022 13:30:40.242    03 May 2022 13:30:48.982      8.7398147327    Earth           Penumbra    94            2109.0132205
03 May 2022 13:30:48.982    03 May 2022 14:05:49.256      2100.2734058    Earth           Umbra       94            2109.0132205
03 May 2022 15:04:12.718    03 May 2022 15:04:21.476      8.7572793709    Earth           Penumbra    95            2116.4320475
03 May 2022 15:04:21.476    03 May 2022 15:39:20.395      2098.9191852    Earth           Umbra       95            2116.4320475
03 May 2022 15:39:20.395    03 May 2022 15:39:29.150      8.7555829785    Earth           Penumbra    95            2116.4320475
03 May 2022 16:37:45.192    03 May 2022 16:37:53.967      8.7751369108    Earth           Penumbra    96            2115.0776509
03 May 2022 16:37:53.967    03 May 2022 17:12:51.496      2097.5284435    Earth           Umbra       96            2115.0776509
03 May 2022 17:12:51.496    03 May 2022 17:13:00.270      8.7740704184    Earth           Penumbra    96            2115.0776509
03 May 2022 18:11:17.683    03 May 2022 18:11:26.477      8.7932798546    Earth           Penumbra    97            2113.6894289
03 May 2022 18:11:26.477    03 May 2022 18:46:22.580      2096.1032033    Earth           Umbra       97            2113.6894289
03 May 2022 18:46:22.580    03 May 2022 18:46:31.373      8.7929457310    Earth           Penumbra    97            2113.6894289
03 May 2022 19:44:50.209    03 May 2022 19:44:59.021      8.8116761413    Earth           Penumbra    98            2112.2781586
03 May 2022 19:44:59.021    03 May 2022 20:19:53.675      2094.6542094    Earth           Umbra       98            2112.2781586
03 May 2022 20:19:53.675    03 May 2022 20:20:02.487      8.8122730376    Earth           Penumbra    98            2112.2781586
03 May 2022 21:18:22.745    03 May 2022 21:18:31.575      8.8304625009    Earth           Penumbra    99            2110.8520712
03 May 2022 21:18:31.575    03 May 2022 21:53:24.765      2093.1894530    Earth           Umbra       99            2110.8520712
03 May 2022 21:53:24.765    03 May 2022 21:53:33.597      8.8321557501    Earth           Penumbra    99            2110.8520712
03 May 2022 22:51:55.239    03 May 2022 22:52:04.088      8.8498290977    Earth           Penumbra    100           2109.4132177
03 May 2022 22:52:04.088    03 May 2022 23:26:55.799      2091.7107749    Earth           Umbra       100           2109.4132177
03 May 2022 23:26:55.799    03 May 2022 23:27:04.652      8.8526136708    Earth           Penumbra    100           2109.4132177
04 May 2022 00:25:27.672    04 May 2022 00:25:36.542      8.8698343956    Earth           Penumbra    101           2107.9581182
04 May 2022 00:25:36.542    04 May 2022 01:00:26.757      2090.2146910    Earth           Umbra       101           2107.9581182
04 May 2022 01:00:26.757    04 May 2022 01:00:35.630      8.8735927362    Earth           Penumbra    101           2107.9581182
04 May 2022 01:59:00.110    04 May 2022 01:59:09.001      8.8904450764    Earth           Penumbra    102           2106.4764211
04 May 2022 01:59:09.001    04 May 2022 02:33:57.691      2088.6909013    Earth           Umbra       102           2106.4764211
04 May 2022 02:33:57.691    04 May 2022 02:34:06.587      8.8950747158    Earth           Penumbra    102           2106.4764211
04 May 2022 03:32:32.650    04 May 2022 03:32:41.562      8.9116752846    Earth           Penumbra    103           2096.0415252
04 May 2022 03:32:41.562    04 May 2022 04:07:28.691      2087.1298500    Earth           Umbra       103           2096.0415252
04 May 2022 05:06:05.307    04 May 2022 05:06:14.240      8.9335118188    Earth           Penumbra    104           2103.4088466
04 May 2022 05:06:14.240    04 May 2022 05:40:59.776      2085.5356877    Earth           Umbra       104           2103.4088466
04 May 2022 05:40:59.776    04 May 2022 05:41:08.715      8.9396470576    Earth           Penumbra    104           2103.4088466
04 May 2022 06:39:37.981    04 May 2022 06:39:46.937      8.9557503699    Earth           Penumbra    105           2101.8384468
04 May 2022 06:39:46.937    04 May 2022 07:14:30.857      2083.9200162    Earth           Umbra       105           2101.8384468
04 May 2022 07:14:30.857    04 May 2022 07:14:39.819      8.9626802132    Earth           Penumbra    105           2101.8384468
04 May 2022 08:13:10.580    04 May 2022 08:13:19.558      8.9781115064    Earth           Penumbra    106           2100.2456782
04 May 2022 08:13:19.558    04 May 2022 08:48:01.839      2082.2815425    Earth           Umbra       106           2100.2456782
04 May 2022 08:48:01.839    04 May 2022 08:48:10.825      8.9860242326    Earth           Penumbra    106           2100.2456782
04 May 2022 09:46:43.128    04 May 2022 09:46:52.128      9.0005169623    Earth           Penumbra    107           2098.6168115
04 May 2022 09:46:52.128    04 May 2022 10:21:32.735      2080.6067936    Earth           Umbra       107           2098.6168115
04 May 2022 10:21:32.735    04 May 2022 10:21:41.745      9.0095008956    Earth           Penumbra    107           2098.6168115
04 May 2022 11:20:15.716    04 May 2022 11:20:24.739      9.0231405571    Earth           Penumbra    108           2096.9471731
04 May 2022 11:20:24.739    04 May 2022 11:55:03.630      2078.8909579    Earth           Umbra       108           2096.9471731
04 May 2022 11:55:03.630    04 May 2022 11:55:12.663      9.0330746840    Earth           Penumbra    108           2096.9471731
04 May 2022 12:53:57.423    04 May 2022 13:28:34.564      2077.1407517    Earth           Umbra       109           2086.1976705
04 May 2022 13:28:34.564    04 May 2022 13:28:43.621      9.0569187887    Earth           Penumbra    109           2086.1976705
04 May 2022 14:27:21.074    04 May 2022 14:27:30.144      9.0697578737    Earth           Penumbra    110           2093.5075893
04 May 2022 14:27:30.144    04 May 2022 15:02:05.500      2075.3565895    Earth           Umbra       110           2093.5075893
04 May 2022 15:02:05.500    04 May 2022 15:02:14.581      9.0812419192    Earth           Penumbra    110           2093.5075893
04 May 2022 16:00:53.775    04 May 2022 16:01:02.869      9.0938276611    Earth           Penumbra    111           2091.7303499
04 May 2022 16:01:02.869    04 May 2022 16:35:36.399      2073.5304251    Earth           Umbra       111           2091.7303499
04 May 2022 16:35:36.399    04 May 2022 16:35:45.505      9.1060971958    Earth           Penumbra    111           2091.7303499
04 May 2022 17:34:26.494    04 May 2022 17:34:35.613      9.1183070093    Earth           Penumbra    112           2089.9125741
04 May 2022 17:34:35.613    04 May 2022 18:09:07.275      2071.6628337    Earth           Umbra       112           2089.9125741
04 May 2022 18:09:07.275    04 May 2022 18:09:16.407      9.1314333840    Earth           Penumbra    112           2089.9125741
04 May 2022 19:07:59.252    04 May 2022 19:08:08.395      9.1431283392    Earth           Penumbra    113           2078.9093771
04 May 2022 19:08:08.395    04 May 2022 19:42:38.162      2069.7662488    Earth           Umbra       113           2078.9093771
04 May 2022 20:41:32.030    04 May 2022 20:41:41.198      9.1683846898    Earth           Penumbra    114           2086.2026013
04 May 2022 20:41:41.198    04 May 2022 21:16:09.049      2067.8504506    Earth           Umbra       114           2086.2026013
04 May 2022 21:16:09.049    04 May 2022 21:16:18.232      9.1837660060    Earth           Penumbra    114           2086.2026013
04 May 2022 22:15:04.778    04 May 2022 22:15:13.972      9.1942797415    Earth           Penumbra    115           2084.3215067
04 May 2022 22:15:13.972    04 May 2022 22:49:39.889      2065.9162854    Earth           Umbra       115           2084.3215067
04 May 2022 22:49:39.889    04 May 2022 22:49:49.100      9.2109416029    Earth           Penumbra    115           2084.3215067
04 May 2022 23:48:37.473    04 May 2022 23:48:46.694      9.2209241353    Earth           Penumbra    116           2082.4190901
04 May 2022 23:48:46.694    05 May 2022 00:23:10.653      2063.9594129    Earth           Umbra       116           2082.4190901
05 May 2022 00:23:10.653    05 May 2022 00:23:19.892      9.2387530720    Earth           Penumbra    116           2082.4190901
05 May 2022 01:22:10.167    05 May 2022 01:22:19.415      9.2482876964    Earth           Penumbra    117           2080.4853581
05 May 2022 01:22:19.415    05 May 2022 01:56:41.385      2061.9699243    Earth           Umbra       117           2080.4853581
05 May 2022 01:56:41.385    05 May 2022 01:56:50.652      9.2671460356    Earth           Penumbra    117           2080.4853581
05 May 2022 02:55:42.962    05 May 2022 02:55:52.238      9.2763565946    Earth           Penumbra    118           2078.5088585
05 May 2022 02:55:52.238    05 May 2022 03:30:12.175      2059.9363581    Earth           Umbra       118           2078.5088585
05 May 2022 03:30:12.175    05 May 2022 03:30:21.471      9.2961437535    Earth           Penumbra    118           2078.5088585
05 May 2022 04:29:15.890    05 May 2022 04:29:25.195      9.3051330303    Earth           Penumbra    119           2076.4909630
05 May 2022 04:29:25.195    05 May 2022 05:03:43.055      2057.8600445    Earth           Umbra       119           2076.4909630
05 May 2022 05:03:43.055    05 May 2022 05:03:52.381      9.3257855158    Earth           Penumbra    119           2076.4909630
05 May 2022 06:02:48.858    05 May 2022 06:02:58.193      9.3344570138    Earth           Penumbra    120           2074.4456003
05 May 2022 06:02:58.193    05 May 2022 06:37:13.948      2055.7551110    Earth           Umbra       120           2074.4456003
05 May 2022 06:37:13.948    05 May 2022 06:37:23.304      9.3560323468    Earth           Penumbra    120           2074.4456003
05 May 2022 07:36:21.759    05 May 2022 07:36:31.123      9.3640289968    Earth           Penumbra    121           2072.3773183
05 May 2022 07:36:31.123    05 May 2022 08:10:44.750      2053.6265625    Earth           Umbra       121           2072.3773183
05 May 2022 08:10:44.750    05 May 2022 08:10:54.137      9.3867267715    Earth           Penumbra    121           2072.3773183
05 May 2022 09:09:54.600    05 May 2022 09:10:03.994      9.3936974765    Earth           Penumbra    122           2070.2736873
05 May 2022 09:10:03.994    05 May 2022 09:44:15.456      2051.4623420    Earth           Umbra       122           2070.2736873
05 May 2022 09:44:15.456    05 May 2022 09:44:24.874      9.4176478218    Earth           Penumbra    122           2070.2736873
05 May 2022 10:43:27.474    05 May 2022 10:43:36.898      9.4235954108    Earth           Penumbra    123           2068.1257383
05 May 2022 10:43:36.898    05 May 2022 11:17:46.152      2049.2534401    Earth           Umbra       123           2068.1257383
05 May 2022 11:17:46.152    05 May 2022 11:17:55.600      9.4487027731    Earth           Penumbra    123           2068.1257383
05 May 2022 12:17:00.431    05 May 2022 12:17:09.885      9.4539475394    Earth           Penumbra    124           2065.9381081
05 May 2022 12:17:09.885    05 May 2022 12:51:16.889      2047.0041077    Earth           Umbra       124           2065.9381081
05 May 2022 12:51:16.889    05 May 2022 12:51:26.369      9.4800528721    Earth           Penumbra    124           2065.9381081
05 May 2022 13:50:33.438    05 May 2022 13:50:42.923      9.4848937355    Earth           Penumbra    125           2063.7121294
05 May 2022 13:50:42.923    05 May 2022 14:24:47.639      2044.7152701    Earth           Umbra       125           2063.7121294
05 May 2022 14:24:47.639    05 May 2022 14:24:57.151      9.5119656064    Earth           Penumbra    125           2063.7121294
05 May 2022 15:24:06.459    05 May 2022 15:24:15.976      9.5164692029    Earth           Penumbra    126           2051.8939486
05 May 2022 15:24:15.976    05 May 2022 15:58:18.353      2042.3774794    Earth           Umbra       126           2051.8939486
05 May 2022 16:57:39.502    05 May 2022 16:57:49.051      9.5486161066    Earth           Penumbra    127           2059.1153673
05 May 2022 16:57:49.051    05 May 2022 17:31:49.040      2039.9889821    Earth           Umbra       127           2059.1153673
05 May 2022 17:31:49.040    05 May 2022 17:31:58.618      9.5777690993    Earth           Penumbra    127           2059.1153673
05 May 2022 18:31:12.588    05 May 2022 18:31:22.169      9.5812483225    Earth           Penumbra    128           2056.7564534
05 May 2022 18:31:22.169    05 May 2022 19:05:19.733      2037.5636115    Earth           Umbra       128           2056.7564534
05 May 2022 19:05:19.733    05 May 2022 19:05:29.344      9.6115935361    Earth           Penumbra    128           2056.7564534
05 May 2022 20:04:45.703    05 May 2022 20:04:55.318      9.6144054551    Earth           Penumbra    129           2054.3745449
05 May 2022 20:04:55.318    05 May 2022 20:38:50.432      2035.1139778    Earth           Umbra       129           2054.3745449
05 May 2022 20:38:50.432    05 May 2022 20:39:00.078      9.6461616573    Earth           Penumbra    129           2054.3745449
05 May 2022 21:38:18.804    05 May 2022 21:38:28.452      9.6482870984    Earth           Penumbra    130           2051.9702549
05 May 2022 21:38:28.452    05 May 2022 22:12:21.093      2032.6403902    Earth           Umbra       130           2051.9702549
05 May 2022 22:12:21.093    05 May 2022 22:12:30.774      9.6815775032    Earth           Penumbra    130           2051.9702549
05 May 2022 23:11:51.860    05 May 2022 23:12:01.543      9.6830592141    Earth           Penumbra    131           2049.5376583
05 May 2022 23:12:01.543    05 May 2022 23:45:51.679      2030.1368042    Earth           Umbra       131           2049.5376583
05 May 2022 23:45:51.679    05 May 2022 23:46:01.397      9.7177948686    Earth           Penumbra    131           2049.5376583
06 May 2022 00:45:24.913    06 May 2022 00:45:34.632      9.7187126870    Earth           Penumbra    132           2047.0669600
06 May 2022 00:45:34.632    06 May 2022 01:19:22.226      2027.5935266    Earth           Umbra       132           2047.0669600
06 May 2022 01:19:22.226    06 May 2022 01:19:31.980      9.7547207144    Earth           Penumbra    132           2047.0669600
06 May 2022 02:19:07.823    06 May 2022 02:52:52.821      2024.9979755    Earth           Umbra       133           2034.7903314
06 May 2022 02:52:52.821    06 May 2022 02:53:02.613      9.7923559835    Earth           Penumbra    133           2034.7903314
06 May 2022 03:52:31.371    06 May 2022 03:52:41.163      9.7925360897    Earth           Penumbra    134           2041.9714344
06 May 2022 03:52:41.163    06 May 2022 04:26:23.511      2022.3481300    Earth           Umbra       134           2041.9714344
06 May 2022 04:26:23.511    06 May 2022 04:26:33.342      9.8307682551    Earth           Penumbra    134           2041.9714344
06 May 2022 05:26:04.740    06 May 2022 05:26:14.570      9.8305988358    Earth           Penumbra    135           2039.3595721
06 May 2022 05:26:14.570    06 May 2022 05:59:54.229      2019.6590123    Earth           Umbra       135           2039.3595721
06 May 2022 05:59:54.229    06 May 2022 06:00:04.099      9.8699609865    Earth           Penumbra    135           2039.3595721
06 May 2022 06:59:47.923    06 May 2022 07:33:24.865      2016.9421979    Earth           Umbra       136           2026.8519875
06 May 2022 07:33:24.865    06 May 2022 07:33:34.775      9.9097895902    Earth           Penumbra    136           2026.8519875
06 May 2022 08:33:11.301    06 May 2022 08:33:21.209      9.9077857914    Earth           Penumbra    137           2034.0470736
06 May 2022 08:33:21.209    06 May 2022 09:06:55.398      2014.1892940    Earth           Umbra       137           2034.0470736
06 May 2022 09:06:55.398    06 May 2022 09:07:05.348      9.9499938078    Earth           Penumbra    137           2034.0470736
06 May 2022 10:06:44.574    06 May 2022 10:06:54.521      9.9467500113    Earth           Penumbra    138           2031.3252995
06 May 2022 10:06:54.521    06 May 2022 10:40:25.909      2011.3881434    Earth           Umbra       138           2031.3252995
06 May 2022 10:40:25.909    06 May 2022 10:40:35.900      9.9904061062    Earth           Penumbra    138           2031.3252995
06 May 2022 11:40:17.938    06 May 2022 11:40:27.924      9.9862206029    Earth           Penumbra    139           2028.5570429
06 May 2022 11:40:27.924    06 May 2022 12:13:56.464      2008.5396635    Earth           Umbra       139           2028.5570429
06 May 2022 12:13:56.464    06 May 2022 12:14:06.495      10.031158815    Earth           Penumbra    139           2028.5570429
06 May 2022 13:13:51.369    06 May 2022 13:14:01.395      10.026388045    Earth           Penumbra    140           2025.7435373
06 May 2022 13:14:01.395    06 May 2022 13:47:27.040      2005.6445663    Earth           Umbra       140           2025.7435373
06 May 2022 13:47:27.040    06 May 2022 13:47:37.113      10.072582914    Earth           Penumbra    140           2025.7435373
06 May 2022 14:47:24.827    06 May 2022 14:47:34.894      10.067343805    Earth           Penumbra    141           2022.8738963
06 May 2022 14:47:34.894    06 May 2022 15:20:57.586      2002.6916698    Earth           Umbra       141           2022.8738963
06 May 2022 15:20:57.586    06 May 2022 15:21:07.701      10.114882712    Earth           Penumbra    141           2022.8738963
06 May 2022 16:20:58.313    06 May 2022 16:21:08.422      10.109083168    Earth           Penumbra    142           2019.9429209
06 May 2022 16:21:08.422    06 May 2022 16:54:28.098      1999.6758254    Earth           Umbra       142           2019.9429209
06 May 2022 16:54:28.098    06 May 2022 16:54:38.256      10.158012318    Earth           Penumbra    142           2019.9429209
06 May 2022 17:54:31.847    06 May 2022 17:54:41.999      10.151523468    Earth           Penumbra    143           2016.9650368
06 May 2022 17:54:41.999    06 May 2022 18:27:58.611      1996.6115994    Earth           Umbra       143           2016.9650368
06 May 2022 18:27:58.611    06 May 2022 18:28:08.812      10.201913898    Earth           Penumbra    143           2016.9650368
06 May 2022 19:28:05.424    06 May 2022 19:28:15.618      10.194649617    Earth           Penumbra    144           2013.9568260
06 May 2022 19:28:15.618    06 May 2022 20:01:29.134      1993.5154613    Earth           Umbra       144           2013.9568260
06 May 2022 20:01:29.134    06 May 2022 20:01:39.380      10.246715066    Earth           Penumbra    144           2013.9568260
06 May 2022 21:01:39.000    06 May 2022 21:01:49.239      10.238641093    Earth           Penumbra    145           2010.9192985
06 May 2022 21:01:49.239    06 May 2022 21:34:59.627      1990.3880803    Earth           Umbra       145           2010.9192985
06 May 2022 21:34:59.627    06 May 2022 21:35:09.920      10.292577068    Earth           Penumbra    145           2010.9192985
06 May 2022 22:35:12.545    06 May 2022 22:35:22.828      10.283709748    Earth           Penumbra    146           2007.8441093
06 May 2022 22:35:22.828    06 May 2022 23:08:30.049      1987.2209182    Earth           Umbra       146           2007.8441093
06 May 2022 23:08:30.049    06 May 2022 23:08:40.389      10.339481360    Earth           Penumbra    146           2007.8441093
07 May 2022 00:08:46.090    07 May 2022 00:08:56.420      10.329885443    Earth           Penumbra    147           2004.7210999
07 May 2022 00:08:56.420    07 May 2022 00:42:00.423      1984.0039179    Earth           Umbra       147           2004.7210999
07 May 2022 00:42:00.423    07 May 2022 00:42:10.811      10.387296556    Earth           Penumbra    147           2004.7210999
07 May 2022 01:42:19.736    07 May 2022 01:42:30.113      10.377101856    Earth           Penumbra    148           2001.5373221
07 May 2022 01:42:30.113    07 May 2022 02:15:30.837      1980.7242415    Earth           Umbra       148           2001.5373221
07 May 2022 02:15:30.837    07 May 2022 02:15:41.273      10.435978649    Earth           Penumbra    148           2001.5373221
07 May 2022 03:15:53.547    07 May 2022 03:16:03.972      10.425349243    Earth           Penumbra    149           1998.2874236
07 May 2022 03:16:03.972    07 May 2022 03:49:01.349      1977.3764562    Earth           Umbra       149           1998.2874236
07 May 2022 03:49:01.349    07 May 2022 03:49:11.835      10.485618166    Earth           Penumbra    149           1998.2874236
07 May 2022 04:49:27.454    07 May 2022 04:49:37.928      10.474570398    Earth           Penumbra    150           1994.9854651
07 May 2022 04:49:37.928    07 May 2022 05:22:31.903      1973.9746132    Earth           Umbra       150           1994.9854651
07 May 2022 05:22:31.903    07 May 2022 05:22:42.439      10.536281427    Earth           Penumbra    150           1994.9854651
07 May 2022 06:23:01.324    07 May 2022 06:23:11.849      10.524484632    Earth           Penumbra    151           1991.6486869
07 May 2022 06:23:11.849    07 May 2022 06:56:02.385      1970.5363502    Earth           Umbra       151           1991.6486869
07 May 2022 06:56:02.385    07 May 2022 06:56:12.973      10.587852134    Earth           Penumbra    151           1991.6486869
07 May 2022 07:56:35.124    07 May 2022 07:56:45.699      10.574784852    Earth           Penumbra    152           1988.2739941
07 May 2022 07:56:45.699    07 May 2022 08:29:32.758      1967.0591810    Earth           Umbra       152           1988.2739941
07 May 2022 08:29:32.758    07 May 2022 08:29:43.398      10.640028224    Earth           Penumbra    152           1988.2739941
07 May 2022 09:30:08.941    07 May 2022 09:30:19.566      10.625449999    Earth           Penumbra    153           1984.8476894
07 May 2022 09:30:19.566    07 May 2022 10:03:03.096      1963.5296884    Earth           Umbra       153           1984.8476894
07 May 2022 10:03:03.096    07 May 2022 10:03:13.788      10.692551010    Earth           Penumbra    153           1984.8476894
07 May 2022 11:03:42.856    07 May 2022 11:03:53.532      10.676713614    Earth           Penumbra    154           1981.3672397
07 May 2022 11:03:53.532    07 May 2022 11:36:33.477      1959.9450270    Earth           Umbra       154           1981.3672397
07 May 2022 11:36:33.477    07 May 2022 11:36:44.223      10.745499074    Earth           Penumbra    154           1981.3672397
07 May 2022 12:37:16.858    07 May 2022 12:37:27.586      10.728823068    Earth           Penumbra    155           1977.8328260
07 May 2022 12:37:27.586    07 May 2022 13:10:03.891      1956.3047360    Earth           Umbra       155           1977.8328260
07 May 2022 13:10:03.891    07 May 2022 13:10:14.690      10.799266887    Earth           Penumbra    155           1977.8328260
07 May 2022 14:10:50.903    07 May 2022 14:11:01.685      10.781935521    Earth           Penumbra    156           1974.2314245
07 May 2022 14:11:01.685    07 May 2022 14:43:34.280      1952.5953082    Earth           Umbra       156           1974.2314245
07 May 2022 14:43:34.280    07 May 2022 14:43:45.134      10.854180716    Earth           Penumbra    156           1974.2314245
07 May 2022 15:44:24.987    07 May 2022 15:44:35.823      10.836117296    Earth           Penumbra    157           1970.5532314
07 May 2022 15:44:35.823    07 May 2022 16:17:04.630      1948.8068754    Earth           Umbra       157           1970.5532314
07 May 2022 16:17:04.630    07 May 2022 16:17:15.540      10.910238675    Earth           Penumbra    157           1970.5532314
07 May 2022 17:17:59.128    07 May 2022 17:18:10.020      10.891318414    Earth           Penumbra    158           1966.8122178
07 May 2022 17:18:10.020    07 May 2022 17:50:34.973      1944.9535708    Earth           Umbra       158           1966.8122178
07 May 2022 17:50:34.973    07 May 2022 17:50:45.941      10.967328551    Earth           Penumbra    158           1966.8122178
07 May 2022 18:51:33.325    07 May 2022 18:51:44.273      10.947483242    Earth           Penumbra    159           1963.0296442
07 May 2022 18:51:44.273    07 May 2022 19:24:05.329      1941.0566088    Earth           Umbra       159           1963.0296442
07 May 2022 19:24:05.329    07 May 2022 19:24:16.355      11.025552184    Earth           Penumbra    159           1963.0296442
07 May 2022 20:25:07.541    07 May 2022 20:25:18.545      11.004744424    Earth           Penumbra    160           1959.2083095
07 May 2022 20:25:18.545    07 May 2022 20:57:35.664      1937.1184280    Earth           Umbra       160           1959.2083095
07 May 2022 20:57:35.664    07 May 2022 20:57:46.749      11.085137143    Earth           Penumbra    160           1959.2083095
07 May 2022 21:58:41.740    07 May 2022 21:58:52.803      11.063349957    Earth           Penumbra    161           1955.3368881
07 May 2022 21:58:52.803    07 May 2022 22:31:05.931      1933.1274160    Earth           Umbra       161           1955.3368881
07 May 2022 22:31:05.931    07 May 2022 22:31:17.077      11.146122089    Earth           Penumbra    161           1955.3368881
07 May 2022 23:32:15.948    07 May 2022 23:32:27.071      11.123391625    Earth           Penumbra    162           1951.4038759
07 May 2022 23:32:27.071    08 May 2022 00:04:36.143      1929.0721476    Earth           Umbra       162           1951.4038759
08 May 2022 00:04:36.143    08 May 2022 00:04:47.352      11.208336661    Earth           Penumbra    162           1951.4038759
08 May 2022 01:05:50.260    08 May 2022 01:06:01.445      11.184780474    Earth           Penumbra    163           1947.3967946
08 May 2022 01:06:01.445    08 May 2022 01:38:06.385      1924.9403445    Earth           Umbra       163           1947.3967946
08 May 2022 01:38:06.385    08 May 2022 01:38:17.657      11.271669588    Earth           Penumbra    163           1947.3967946
08 May 2022 02:39:24.755    08 May 2022 02:39:36.003      11.247486959    Earth           Penumbra    164           1943.3073874
08 May 2022 02:39:36.003    08 May 2022 03:11:36.726      1920.7236793    Earth           Umbra       164           1943.3073874
08 May 2022 03:11:36.726    08 May 2022 03:11:48.063      11.336221138    Earth           Penumbra    164           1943.3073874
08 May 2022 04:12:59.380    08 May 2022 04:13:10.691      11.311505421    Earth           Penumbra    165           1939.1469295
08 May 2022 04:13:10.691    08 May 2022 04:45:07.124      1916.4332835    Earth           Umbra       165           1939.1469295
08 May 2022 04:45:07.124    08 May 2022 04:45:18.526      11.402140616    Earth           Penumbra    165           1939.1469295
08 May 2022 05:46:33.993    08 May 2022 05:46:45.370      11.376607663    Earth           Penumbra    166           1934.9373234
08 May 2022 05:46:45.370    08 May 2022 06:18:37.461      1912.0913433    Earth           Umbra       166           1934.9373234
08 May 2022 06:18:37.461    08 May 2022 06:18:48.930      11.469372385    Earth           Penumbra    166           1934.9373234
08 May 2022 07:20:08.537    08 May 2022 07:20:19.979      11.442410841    Earth           Penumbra    167           1930.6832109
08 May 2022 07:20:19.979    08 May 2022 07:52:07.683      1907.7032237    Earth           Umbra       167           1930.6832109
08 May 2022 07:52:07.683    08 May 2022 07:52:19.220      11.537576350    Earth           Penumbra    167           1930.6832109
08 May 2022 08:53:43.090    08 May 2022 08:53:54.599      11.508771311    Earth           Penumbra    168           1926.3722390
08 May 2022 08:53:54.599    08 May 2022 09:25:37.856      1903.2570955    Earth           Umbra       168           1926.3722390
