GMAT/Constellation/Eclipses/eclipse11.txt

Spacecraft: HSEYE11

Start Time (UTC)            Stop Time (UTC)               Duration (s)    Occ Body        Type        Event Number  Total Duration (s)
27 Apr 2022 12:47:57.788    27 Apr 2022 13:22:49.340      2091.5520565    Earth           Umbra       1             2100.4571813
27 Apr 2022 13:22:49.340    27 Apr 2022 13:22:58.246      8.9051248273    Earth           Penumbra    1             2100.4571813
27 Apr 2022 14:21:29.386    27 Apr 2022 14:21:38.310      8.9234764804    Earth           Penumbra    2             2098.9419285
27 Apr 2022 14:21:38.310    27 Apr 2022 14:56:28.328      2090.0184520    Earth           Umbra       2             2098.9419285
27 Apr 2022 15:55:09.892    27 Apr 2022 15:55:18.836      8.9438724797    Earth           Penumbra    3             2106.3382784
27 Apr 2022 15:55:18.836    27 Apr 2022 16:30:07.283      2088.4474785    Earth           Umbra       3             2106.3382784
27 Apr 2022 16:30:07.283    27 Apr 2022 16:30:16.230      8.9469273691    Earth           Penumbra    3             2106.3382784
27 Apr 2022 17:28:50.410    27 Apr 2022 17:28:59.375      8.9646506938    Earth           Penumbra    4             2104.7706285
27 Apr 2022 17:28:59.375    27 Apr 2022 18:03:46.212      2086.8374594    Earth           Umbra       4             2104.7706285
27 Apr 2022 18:03:46.212    27 Apr 2022 18:03:55.181      8.9685184183    Earth           Penumbra    4             2104.7706285
27 Apr 2022 19:02:30.964    27 Apr 2022 19:02:39.950      8.9857366285    Earth           Penumbra    5             2103.1750669
27 Apr 2022 19:02:39.950    27 Apr 2022 19:37:25.149      2085.1987685    Earth           Umbra       5             2103.1750669
27 Apr 2022 19:37:25.149    27 Apr 2022 19:37:34.139      8.9905617759    Earth           Penumbra    5             2103.1750669
27 Apr 2022 20:36:11.544    27 Apr 2022 20:36:20.551      9.0071922052    Earth           Penumbra    6             2101.5622189
27 Apr 2022 20:36:20.551    27 Apr 2022 21:11:04.093      2083.5418593    Earth           Umbra       6             2101.5622189
27 Apr 2022 21:11:04.093    27 Apr 2022 21:11:13.106      9.0131674544    Earth           Penumbra    6             2101.5622189
27 Apr 2022 22:09:52.101    27 Apr 2022 22:10:01.130      9.0292072739    Earth           Penumbra    7             2099.9348106
27 Apr 2022 22:10:01.130    27 Apr 2022 22:44:42.999      2081.8691947    Earth           Umbra       7             2099.9348106
27 Apr 2022 22:44:42.999    27 Apr 2022 22:44:52.036      9.0364086907    Earth           Penumbra    7             2099.9348106
27 Apr 2022 23:43:32.602    27 Apr 2022 23:43:41.653      9.0519072488    Earth           Penumbra    8             2098.2899568
27 Apr 2022 23:43:41.653    28 Apr 2022 00:18:21.831      2080.1778097    Earth           Umbra       8             2098.2899568
28 Apr 2022 00:18:21.831    28 Apr 2022 00:18:30.892      9.0602399083    Earth           Penumbra    8             2098.2899568
28 Apr 2022 01:17:13.086    28 Apr 2022 01:17:22.161      9.0752682416    Earth           Penumbra    9             2096.6192457
28 Apr 2022 01:17:22.161    28 Apr 2022 01:52:00.620      2078.4593808    Earth           Umbra       9             2096.6192457
28 Apr 2022 01:52:00.620    28 Apr 2022 01:52:09.705      9.0845966712    Earth           Penumbra    9             2096.6192457
28 Apr 2022 02:50:53.652    28 Apr 2022 02:51:02.751      9.0992616490    Earth           Penumbra    10            2094.9114865
28 Apr 2022 02:51:02.751    28 Apr 2022 03:25:39.454      2076.7027455    Earth           Umbra       10            2094.9114865
28 Apr 2022 03:25:39.454    28 Apr 2022 03:25:48.564      9.1094792937    Earth           Penumbra    10            2094.9114865
28 Apr 2022 04:24:34.351    28 Apr 2022 04:24:43.475      9.1238943860    Earth           Penumbra    11            2084.0307230
28 Apr 2022 04:24:43.475    28 Apr 2022 04:59:18.382      2074.9068286    Earth           Umbra       11            2084.0307230
28 Apr 2022 05:58:15.109    28 Apr 2022 05:58:24.258      9.1490510968    Earth           Penumbra    12            2091.3934644
28 Apr 2022 05:58:24.258    28 Apr 2022 06:32:57.341      2073.0834805    Earth           Umbra       12            2091.3934644
28 Apr 2022 06:32:57.341    28 Apr 2022 06:33:06.502      9.1609327588    Earth           Penumbra    12            2091.3934644
28 Apr 2022 07:31:55.810    28 Apr 2022 07:32:04.984      9.1744627221    Earth           Penumbra    13            2089.6002408
28 Apr 2022 07:32:04.984    28 Apr 2022 08:06:36.223      2071.2384028    Earth           Umbra       13            2089.6002408
28 Apr 2022 08:06:36.223    28 Apr 2022 08:06:45.410      9.1873753583    Earth           Penumbra    13            2089.6002408
28 Apr 2022 09:05:36.442    28 Apr 2022 09:05:45.642      9.1999551281    Earth           Penumbra    14            2087.7747551
28 Apr 2022 09:05:45.642    28 Apr 2022 09:40:15.002      2069.3607528    Earth           Umbra       14            2087.7747551
28 Apr 2022 09:40:15.002    28 Apr 2022 09:40:24.216      9.2140470981    Earth           Penumbra    14            2087.7747551
28 Apr 2022 10:39:17.090    28 Apr 2022 10:39:26.316      9.2256090953    Earth           Penumbra    15            2085.9070088
28 Apr 2022 10:39:26.316    28 Apr 2022 11:13:53.757      2067.4405859    Earth           Umbra       15            2085.9070088
28 Apr 2022 11:13:53.757    28 Apr 2022 11:14:02.997      9.2408137629    Earth           Penumbra    15            2085.9070088
28 Apr 2022 12:12:57.817    28 Apr 2022 12:13:07.068      9.2516317614    Earth           Penumbra    16            2084.0011762
28 Apr 2022 12:13:07.068    28 Apr 2022 12:47:32.550      2065.4817612    Earth           Umbra       16            2084.0011762
28 Apr 2022 12:47:32.550    28 Apr 2022 12:47:41.818      9.2677831650    Earth           Penumbra    16            2084.0011762
28 Apr 2022 13:46:47.875    28 Apr 2022 14:21:11.363      2063.4877197    Earth           Umbra       17            2072.7829337
28 Apr 2022 14:21:11.363    28 Apr 2022 14:21:20.658      9.2952139908    Earth           Penumbra    17            2072.7829337
28 Apr 2022 15:20:19.391    28 Apr 2022 15:20:28.697      9.3052625307    Earth           Penumbra    18            2080.0793674
28 Apr 2022 15:20:28.697    28 Apr 2022 15:54:50.147      2061.4508524    Earth           Umbra       18            2080.0793674
28 Apr 2022 15:54:50.147    28 Apr 2022 15:54:59.471      9.3232523999    Earth           Penumbra    18            2080.0793674
28 Apr 2022 16:54:00.202    28 Apr 2022 16:54:09.535      9.3328740913    Earth           Penumbra    19            2078.0521222
28 Apr 2022 16:54:09.535    28 Apr 2022 17:28:28.902      2059.3673927    Earth           Umbra       19            2078.0521222
28 Apr 2022 17:28:28.902    28 Apr 2022 17:28:38.254      9.3518553302    Earth           Penumbra    19            2078.0521222
28 Apr 2022 18:27:41.051    28 Apr 2022 18:27:50.412      9.3609165866    Earth           Penumbra    20            2075.9904531
28 Apr 2022 18:27:50.412    28 Apr 2022 19:02:07.661      2057.2485442    Earth           Umbra       20            2075.9904531
28 Apr 2022 19:02:07.661    28 Apr 2022 19:02:17.042      9.3809922924    Earth           Penumbra    20            2075.9904531
28 Apr 2022 20:01:21.934    28 Apr 2022 20:01:31.324      9.3894032179    Earth           Penumbra    21            2073.9075805
28 Apr 2022 20:01:31.324    28 Apr 2022 20:35:46.431      2055.1074062    Earth           Umbra       21            2073.9075805
28 Apr 2022 20:35:46.431    28 Apr 2022 20:35:55.842      9.4107710989    Earth           Penumbra    21            2073.9075805
28 Apr 2022 21:35:02.807    28 Apr 2022 21:35:12.226      9.4185147202    Earth           Penumbra    22            2071.8061696
28 Apr 2022 21:35:12.226    28 Apr 2022 22:09:25.172      2052.9463497    Earth           Umbra       22            2071.8061696
28 Apr 2022 22:09:25.172    28 Apr 2022 22:09:34.613      9.4413052197    Earth           Penumbra    22            2071.8061696
28 Apr 2022 23:08:43.633    28 Apr 2022 23:08:53.082      9.4484142261    Earth           Penumbra    23            2069.6817042
28 Apr 2022 23:08:53.082    28 Apr 2022 23:43:03.842      2050.7607220    Earth           Umbra       23            2069.6817042
28 Apr 2022 23:43:03.842    28 Apr 2022 23:43:13.315      9.4725679373    Earth           Penumbra    23            2069.6817042
29 Apr 2022 00:42:24.443    29 Apr 2022 00:42:33.922      9.4791086507    Earth           Penumbra    24            2067.5256978
29 Apr 2022 00:42:33.922    29 Apr 2022 01:16:42.464      2048.5421277    Earth           Umbra       24            2067.5256978
29 Apr 2022 01:16:42.464    29 Apr 2022 01:16:51.968      9.5044614980    Earth           Penumbra    24            2067.5256978
29 Apr 2022 02:16:05.334    29 Apr 2022 02:16:14.845      9.5105411019    Earth           Penumbra    25            2065.3262451
29 Apr 2022 02:16:14.845    29 Apr 2022 02:50:21.123      2046.2787448    Earth           Umbra       25            2065.3262451
29 Apr 2022 02:50:21.123    29 Apr 2022 02:50:30.660      9.5369591843    Earth           Penumbra    25            2065.3262451
29 Apr 2022 03:49:46.369    29 Apr 2022 03:49:55.912      9.5427137800    Earth           Penumbra    26            2063.0795661
29 Apr 2022 03:49:55.912    29 Apr 2022 04:23:59.879      2043.9667348    Earth           Umbra       26            2063.0795661
29 Apr 2022 04:23:59.879    29 Apr 2022 04:24:09.449      9.5701175742    Earth           Penumbra    26            2063.0795661
29 Apr 2022 05:23:27.485    29 Apr 2022 05:23:37.060      9.5755481045    Earth           Penumbra    27            2060.7977555
29 Apr 2022 05:23:37.060    29 Apr 2022 05:57:38.679      2041.6182415    Earth           Umbra       27            2060.7977555
29 Apr 2022 05:57:38.679    29 Apr 2022 05:57:48.283      9.6039658994    Earth           Penumbra    27            2060.7977555
29 Apr 2022 06:57:08.557    29 Apr 2022 06:57:18.166      9.6087885322    Earth           Penumbra    28            2058.4916846
29 Apr 2022 06:57:18.166    29 Apr 2022 07:31:17.410      2039.2444915    Earth           Umbra       28            2058.4916846
29 Apr 2022 07:31:17.410    29 Apr 2022 07:31:27.049      9.6384045202    Earth           Penumbra    28            2058.4916846
29 Apr 2022 08:30:49.556    29 Apr 2022 08:30:59.198      9.6422012080    Earth           Penumbra    29            2056.1537912
29 Apr 2022 08:30:59.198    29 Apr 2022 09:04:56.036      2036.8383916    Earth           Umbra       29            2056.1537912
29 Apr 2022 09:04:56.036    29 Apr 2022 09:05:05.709      9.6731983242    Earth           Penumbra    29            2056.1537912
29 Apr 2022 10:04:30.564    29 Apr 2022 10:04:40.240      9.6758068772    Earth           Penumbra    30            2053.7714933
29 Apr 2022 10:04:40.240    29 Apr 2022 10:38:34.627      2034.3875327    Earth           Umbra       30            2053.7714933
29 Apr 2022 10:38:34.627    29 Apr 2022 10:38:44.335      9.7081536893    Earth           Penumbra    30            2053.7714933
29 Apr 2022 11:38:11.655    29 Apr 2022 11:38:21.365      9.7098126775    Earth           Penumbra    31            2051.3455955
29 Apr 2022 11:38:21.365    29 Apr 2022 12:12:13.257      2031.8924459    Earth           Umbra       31            2051.3455955
29 Apr 2022 12:12:13.257    29 Apr 2022 12:12:23.000      9.7433369374    Earth           Penumbra    31            2051.3455955
29 Apr 2022 13:11:52.815    29 Apr 2022 13:12:02.559      9.7444006009    Earth           Penumbra    32            2048.8797233
29 Apr 2022 13:12:02.559    29 Apr 2022 13:45:51.915      2029.3562694    Earth           Umbra       32            2048.8797233
29 Apr 2022 13:45:51.915    29 Apr 2022 13:46:01.694      9.7790532745    Earth           Penumbra    32            2048.8797233
29 Apr 2022 14:45:34.000    29 Apr 2022 14:45:43.780      9.7796649439    Earth           Penumbra    33            2046.3655629
29 Apr 2022 14:45:43.780    29 Apr 2022 15:19:30.550      2026.7703708    Earth           Umbra       33            2046.3655629
29 Apr 2022 15:19:30.550    29 Apr 2022 15:19:40.366      9.8155271262    Earth           Penumbra    33            2046.3655629
29 Apr 2022 16:19:15.208    29 Apr 2022 16:19:25.024      9.8156132502    Earth           Penumbra    34            2043.7964562
29 Apr 2022 16:19:25.024    29 Apr 2022 16:53:09.152      2024.1281033    Earth           Umbra       34            2043.7964562
29 Apr 2022 16:53:09.152    29 Apr 2022 16:53:19.004      9.8527396331    Earth           Penumbra    34            2043.7964562
29 Apr 2022 17:52:56.460    29 Apr 2022 17:53:06.312      9.8521691398    Earth           Penumbra    35            2041.1836347
29 Apr 2022 17:53:06.312    29 Apr 2022 18:26:47.753      2021.4408496    Earth           Umbra       35            2041.1836347
29 Apr 2022 18:26:47.753    29 Apr 2022 18:26:57.644      9.8906159867    Earth           Penumbra    35            2041.1836347
29 Apr 2022 19:26:37.754    29 Apr 2022 19:26:47.644      9.8893033806    Earth           Penumbra    36            2038.5436068
29 Apr 2022 19:26:47.644    29 Apr 2022 20:00:26.369      2018.7250542    Earth           Umbra       36            2038.5436068
29 Apr 2022 20:00:26.369    29 Apr 2022 20:00:36.298      9.9292492261    Earth           Penumbra    36            2038.5436068
29 Apr 2022 21:00:19.052    29 Apr 2022 21:00:28.979      9.9271665327    Earth           Penumbra    37            2035.8798369
29 Apr 2022 21:00:28.979    29 Apr 2022 21:34:04.963      2015.9838710    Earth           Umbra       37            2035.8798369
29 Apr 2022 21:34:04.963    29 Apr 2022 21:34:14.932      9.9687993410    Earth           Penumbra    37            2035.8798369
29 Apr 2022 22:34:00.315    29 Apr 2022 22:34:10.280      9.9659585045    Earth           Penumbra    38            2033.1857023
29 Apr 2022 22:34:10.280    29 Apr 2022 23:07:43.491      2013.2104731    Earth           Umbra       38            2033.1857023
29 Apr 2022 23:07:43.491    29 Apr 2022 23:07:53.500      10.009270732    Earth           Penumbra    38            2033.1857023
30 Apr 2022 00:07:41.564    30 Apr 2022 00:07:51.570      10.005723615    Earth           Penumbra    39            2030.4520676
30 Apr 2022 00:07:51.570    30 Apr 2022 00:41:21.966      2010.3958082    Earth           Umbra       39            2030.4520676
30 Apr 2022 00:41:21.966    30 Apr 2022 00:41:32.016      10.050535784    Earth           Penumbra    39            2030.4520676
30 Apr 2022 01:41:22.897    30 Apr 2022 01:41:32.943      10.046386742    Earth           Penumbra    40            2027.6668964
30 Apr 2022 01:41:32.943    30 Apr 2022 02:15:00.471      2007.5279850    Earth           Umbra       40            2027.6668964
30 Apr 2022 02:15:00.471    30 Apr 2022 02:15:10.563      10.092524718    Earth           Penumbra    40            2027.6668964
30 Apr 2022 03:15:04.385    30 Apr 2022 03:15:14.473      10.087928711    Earth           Penumbra    41            2024.8237679
30 Apr 2022 03:15:14.473    30 Apr 2022 03:48:39.073      2004.6005378    Earth           Umbra       41            2024.8237679
30 Apr 2022 03:48:39.073    30 Apr 2022 03:48:49.209      10.135301342    Earth           Penumbra    41            2024.8237679
30 Apr 2022 04:48:45.978    30 Apr 2022 04:48:56.108      10.130314634    Earth           Penumbra    42            2021.9337759
30 Apr 2022 04:48:56.108    30 Apr 2022 05:22:17.732      2001.6245139    Earth           Umbra       42            2021.9337759
30 Apr 2022 05:22:17.732    30 Apr 2022 05:22:27.911      10.178947379    Earth           Penumbra    42            2021.9337759
30 Apr 2022 06:22:27.545    30 Apr 2022 06:22:37.718      10.173314740    Earth           Penumbra    43            2019.0127726
30 Apr 2022 06:22:37.718    30 Apr 2022 06:55:56.334      1998.6160604    Earth           Umbra       43            2019.0127726
30 Apr 2022 06:55:56.334    30 Apr 2022 06:56:06.558      10.223397450    Earth           Penumbra    43            2019.0127726
30 Apr 2022 07:56:09.036    30 Apr 2022 07:56:19.253      10.216640483    Earth           Penumbra    44            2016.0585330
30 Apr 2022 07:56:19.253    30 Apr 2022 08:29:34.827      1995.5734994    Earth           Umbra       44            2016.0585330
30 Apr 2022 08:29:34.827    30 Apr 2022 08:29:45.095      10.268393182    Earth           Penumbra    44            2016.0585330
30 Apr 2022 09:29:50.530    30 Apr 2022 09:30:00.790      10.260230571    Earth           Penumbra    45            2013.0575378
30 Apr 2022 09:30:00.790    30 Apr 2022 10:03:13.274      1992.4836474    Earth           Umbra       45            2013.0575378
30 Apr 2022 10:03:13.274    30 Apr 2022 10:03:23.588      10.313659860    Earth           Penumbra    45            2013.0575378
30 Apr 2022 11:03:32.112    30 Apr 2022 11:03:42.416      10.304277996    Earth           Penumbra    46            2010.0069933
30 Apr 2022 11:03:42.416    30 Apr 2022 11:36:51.759      1989.3435049    Earth           Umbra       46            2010.0069933
30 Apr 2022 11:36:51.759    30 Apr 2022 11:37:02.119      10.359210370    Earth           Penumbra    46            2010.0069933
30 Apr 2022 12:37:13.778    30 Apr 2022 12:37:24.127      10.349010956    Earth           Penumbra    47            2006.9094668
30 Apr 2022 12:37:24.127    30 Apr 2022 13:10:30.282      1986.1550673    Earth           Umbra       47            2006.9094668
30 Apr 2022 13:10:30.282    30 Apr 2022 13:10:40.687      10.405388579    Earth           Penumbra    47            2006.9094668
30 Apr 2022 14:10:55.485    30 Apr 2022 14:11:05.879      10.394576238    Earth           Penumbra    48            2003.7552884
30 Apr 2022 14:11:05.879    30 Apr 2022 14:44:08.788      1982.9081860    Earth           Umbra       48            2003.7552884
30 Apr 2022 14:44:08.788    30 Apr 2022 14:44:19.240      10.452526098    Earth           Penumbra    48            2003.7552884
30 Apr 2022 15:44:37.223    30 Apr 2022 15:44:47.664      10.441040166    Earth           Penumbra    49            2000.5340680
30 Apr 2022 15:44:47.664    30 Apr 2022 16:17:47.257      1979.5923769    Earth           Umbra       49            2000.5340680
30 Apr 2022 16:17:47.257    30 Apr 2022 16:17:57.757      10.500650899    Earth           Penumbra    49            2000.5340680
30 Apr 2022 17:18:19.014    30 Apr 2022 17:18:29.502      10.488362191    Earth           Penumbra    50            1997.2561977
30 Apr 2022 17:18:29.502    30 Apr 2022 17:51:25.720      1976.2181895    Earth           Umbra       50            1997.2561977
30 Apr 2022 17:51:25.720    30 Apr 2022 17:51:36.270      10.549646057    Earth           Penumbra    50            1997.2561977
30 Apr 2022 18:52:00.857    30 Apr 2022 18:52:11.393      10.536484164    Earth           Penumbra    51            1993.9420287
30 Apr 2022 18:52:11.393    30 Apr 2022 19:25:04.199      1972.8059742    Earth           Umbra       51            1993.9420287
30 Apr 2022 19:25:04.199    30 Apr 2022 19:25:14.799      10.599570349    Earth           Penumbra    51            1993.9420287
30 Apr 2022 20:25:42.719    30 Apr 2022 20:25:53.304      10.585507925    Earth           Penumbra    52            1990.5970204
30 Apr 2022 20:25:53.304    30 Apr 2022 20:58:42.665      1969.3608825    Earth           Umbra       52            1990.5970204
30 Apr 2022 20:58:42.665    30 Apr 2022 20:58:53.316      10.650629969    Earth           Penumbra    52            1990.5970204
30 Apr 2022 21:59:24.561    30 Apr 2022 21:59:35.196      10.635656642    Earth           Penumbra    53            1987.2121945
30 Apr 2022 21:59:35.196    30 Apr 2022 22:32:21.070      1965.8736501    Earth           Umbra       53            1987.2121945
30 Apr 2022 22:32:21.070    30 Apr 2022 22:32:31.773      10.702887783    Earth           Penumbra    53            1987.2121945
30 Apr 2022 23:33:06.397    30 Apr 2022 23:33:17.084      10.687023355    Earth           Penumbra    54            1983.7769323
30 Apr 2022 23:33:17.084    01 May 2022 00:05:59.418      1962.3337210    Earth           Umbra       54            1983.7769323
01 May 2022 00:05:59.418    01 May 2022 00:06:10.174      10.756187886    Earth           Penumbra    54            1983.7769323
01 May 2022 01:06:48.319    01 May 2022 01:06:59.059      10.739522567    Earth           Penumbra    55            1980.2795658
01 May 2022 01:06:59.059    01 May 2022 01:39:37.788      1958.7296459    Earth           Umbra       55            1980.2795658
01 May 2022 01:39:37.788    01 May 2022 01:39:48.599      10.810397321    Earth           Penumbra    55            1980.2795658
01 May 2022 02:40:30.411    01 May 2022 02:40:41.204      10.793111846    Earth           Penumbra    56            1976.7115464
01 May 2022 02:40:41.204    01 May 2022 03:13:16.257      1955.0528594    Earth           Umbra       56            1976.7115464
01 May 2022 03:13:16.257    01 May 2022 03:13:27.122      10.865575180    Earth           Penumbra    56            1976.7115464
01 May 2022 04:14:12.634    01 May 2022 04:14:23.482      10.847790248    Earth           Penumbra    57            1973.0815879
01 May 2022 04:14:23.482    01 May 2022 04:46:54.794      1951.3119294    Earth           Umbra       57            1973.0815879
01 May 2022 04:46:54.794    01 May 2022 04:47:05.715      10.921868251    Earth           Penumbra    57            1973.0815879
01 May 2022 05:47:54.854    01 May 2022 05:48:05.758      10.903378925    Earth           Penumbra    58            1969.4092679
01 May 2022 05:48:05.758    01 May 2022 06:20:33.284      1947.5266172    Earth           Umbra       58            1969.4092679
01 May 2022 06:20:33.284    01 May 2022 06:20:44.264      10.979271820    Earth           Penumbra    58            1969.4092679
01 May 2022 07:21:37.002    01 May 2022 07:21:47.961      10.959535895    Earth           Penumbra    59            1965.6990788
01 May 2022 07:21:47.961    01 May 2022 07:54:11.663      1943.7020377    Earth           Umbra       59            1965.6990788
01 May 2022 07:54:11.663    01 May 2022 07:54:22.701      11.037505197    Earth           Penumbra    59            1965.6990788
01 May 2022 08:55:19.144    01 May 2022 08:55:30.161      11.016099283    Earth           Penumbra    60            1961.9388821
01 May 2022 08:55:30.161    01 May 2022 09:27:49.987      1939.8265832    Earth           Umbra       60            1961.9388821
01 May 2022 09:27:49.987    01 May 2022 09:28:01.083      11.096199683    Earth           Penumbra    60            1961.9388821
01 May 2022 10:29:01.379    01 May 2022 10:29:12.452      11.073225620    Earth           Penumbra    61            1958.1227042
01 May 2022 10:29:12.452    01 May 2022 11:01:28.346      1935.8941984    Earth           Umbra       61            1958.1227042
01 May 2022 11:01:28.346    01 May 2022 11:01:39.502      11.155280157    Earth           Penumbra    61            1958.1227042
01 May 2022 12:02:43.716    01 May 2022 12:02:54.847      11.131191824    Earth           Penumbra    62            1954.2511611
01 May 2022 12:02:54.847    01 May 2022 12:35:06.752      1931.9048420    Earth           Umbra       62            1954.2511611
01 May 2022 12:35:06.752    01 May 2022 12:35:17.967      11.215127259    Earth           Penumbra    62            1954.2511611
01 May 2022 13:36:26.113    01 May 2022 13:36:37.303      11.190213205    Earth           Penumbra    63            1950.3124622
01 May 2022 13:36:37.303    01 May 2022 14:08:45.149      1927.8460409    Earth           Umbra       63            1950.3124622
01 May 2022 14:08:45.149    01 May 2022 14:08:56.425      11.276208074    Earth           Penumbra    63            1950.3124622
01 May 2022 15:10:08.554    01 May 2022 15:10:19.805      11.250425549    Earth           Penumbra    64            1946.2912873
01 May 2022 15:10:19.805    01 May 2022 15:42:23.507      1923.7022213    Earth           Umbra       64            1946.2912873
01 May 2022 15:42:23.507    01 May 2022 15:42:34.845      11.338640470    Earth           Penumbra    64            1946.2912873
01 May 2022 16:43:51.059    01 May 2022 16:44:02.370      11.311850545    Earth           Penumbra    65            1942.1957689
01 May 2022 16:44:02.370    01 May 2022 17:16:01.852      1919.4816510    Earth           Umbra       65            1942.1957689
01 May 2022 17:16:01.852    01 May 2022 17:16:13.254      11.402267287    Earth           Penumbra    65            1942.1957689
01 May 2022 18:17:33.630    01 May 2022 18:17:45.004      11.374428158    Earth           Penumbra    66            1938.0503692
01 May 2022 18:17:45.004    01 May 2022 18:49:40.213      1915.2088490    Earth           Umbra       66            1938.0503692
01 May 2022 18:49:40.213    01 May 2022 18:49:51.680      11.467091984    Earth           Penumbra    66            1938.0503692
01 May 2022 19:51:16.238    01 May 2022 19:51:27.676      11.438201764    Earth           Penumbra    67            1933.8640872
01 May 2022 19:51:27.676    01 May 2022 20:23:18.569      1910.8925166    Earth           Umbra       67            1933.8640872
01 May 2022 20:23:18.569    01 May 2022 20:23:30.102      11.533368845    Earth           Penumbra    67            1933.8640872
01 May 2022 21:24:58.845    01 May 2022 21:25:10.348      11.503395473    Earth           Penumbra    68            1929.6257295
01 May 2022 21:25:10.348    01 May 2022 21:56:56.869      1906.5210947    Earth           Umbra       68            1929.6257295
01 May 2022 21:56:56.869    01 May 2022 21:57:08.471      11.601239315    Earth           Penumbra    68            1929.6257295
01 May 2022 22:58:41.459    01 May 2022 22:58:53.029      11.570152931    Earth           Penumbra    69            1925.3221570
01 May 2022 22:58:53.029    01 May 2022 23:30:35.110      1902.0814663    Earth           Umbra       69            1925.3221570
01 May 2022 23:30:35.110    01 May 2022 23:30:46.781      11.670537747    Earth           Penumbra    69            1925.3221570
02 May 2022 00:32:24.165    02 May 2022 00:32:35.803      11.638396815    Earth           Penumbra    70            1920.9424203
02 May 2022 00:32:35.803    02 May 2022 01:04:13.366      1897.5629822    Earth           Umbra       70            1920.9424203
02 May 2022 01:04:13.366    02 May 2022 01:04:25.107      11.741041287    Earth           Penumbra    70            1920.9424203
02 May 2022 02:06:07.056    02 May 2022 02:06:18.764      11.708044459    Earth           Penumbra    71            1916.4767991
02 May 2022 02:06:18.764    02 May 2022 02:37:51.720      1892.9559736    Earth           Umbra       71            1916.4767991
02 May 2022 02:37:51.720    02 May 2022 02:38:03.533      11.812781054    Earth           Penumbra    71            1916.4767991
02 May 2022 03:39:50.110    02 May 2022 03:40:01.889      11.779138609    Earth           Penumbra    72            1911.9303916
02 May 2022 03:40:01.889    02 May 2022 04:11:30.154      1888.2652650    Earth           Umbra       72            1911.9303916
02 May 2022 04:11:30.154    02 May 2022 04:11:42.040      11.885988072    Earth           Penumbra    72            1911.9303916
02 May 2022 05:13:33.191    02 May 2022 05:13:45.042      11.851575540    Earth           Penumbra    73            1907.3243854
02 May 2022 05:13:45.042    02 May 2022 05:45:08.554      1883.5120542    Earth           Umbra       73            1907.3243854
02 May 2022 05:45:08.554    02 May 2022 05:45:20.515      11.960755696    Earth           Penumbra    73            1907.3243854
02 May 2022 06:47:16.207    02 May 2022 06:47:28.132      11.924977123    Earth           Penumbra    74            1902.6707881
02 May 2022 06:47:28.132    02 May 2022 07:18:46.841      1878.7090115    Earth           Umbra       74            1902.6707881
02 May 2022 07:18:46.841    02 May 2022 07:18:58.878      12.036799465    Earth           Penumbra    74            1902.6707881
02 May 2022 08:20:59.213    02 May 2022 08:21:11.212      11.999043182    Earth           Penumbra    75            1897.9618595
02 May 2022 08:21:11.212    02 May 2022 08:52:25.061      1873.8491957    Earth           Umbra       75            1897.9618595
02 May 2022 08:52:25.061    02 May 2022 08:52:37.175      12.113620550    Earth           Penumbra    75            1897.9618595
02 May 2022 09:54:42.315    02 May 2022 09:54:54.389      12.073862669    Earth           Penumbra    76            1893.1899201
02 May 2022 09:54:54.389    02 May 2022 10:26:03.314      1868.9250413    Earth           Umbra       76            1893.1899201
02 May 2022 10:26:03.314    02 May 2022 10:26:15.505      12.191016215    Earth           Penumbra    76            1893.1899201
02 May 2022 11:28:25.539    02 May 2022 11:28:37.689      12.149767822    Earth           Penumbra    77            1888.3528767
02 May 2022 11:28:37.689    02 May 2022 11:59:41.623      1863.9337198    Earth           Umbra       77            1888.3528767
02 May 2022 11:59:41.623    02 May 2022 11:59:53.892      12.269389105    Earth           Penumbra    77            1888.3528767
02 May 2022 13:02:08.846    02 May 2022 13:02:21.074      12.227067305    Earth           Penumbra    78            1883.4356219
02 May 2022 13:02:21.074    02 May 2022 13:33:19.933      1858.8591647    Earth           Umbra       78            1883.4356219
02 May 2022 13:33:19.933    02 May 2022 13:33:32.282      12.349389866    Earth           Penumbra    78            1883.4356219
02 May 2022 14:35:52.217    02 May 2022 14:36:04.522      12.305984914    Earth           Penumbra    79            1878.4163022
02 May 2022 14:36:04.522    02 May 2022 15:06:58.202      1853.6790301    Earth           Umbra       79            1878.4163022
02 May 2022 15:06:58.202    02 May 2022 15:07:10.633      12.431287242    Earth           Penumbra    79            1878.4163022
02 May 2022 16:09:35.666    02 May 2022 16:09:48.053      12.386633176    Earth           Penumbra    80            1873.2987955
02 May 2022 16:09:48.053    02 May 2022 16:40:36.450      1848.3972611    Earth           Umbra       80            1873.2987955
02 May 2022 16:40:36.450    02 May 2022 16:40:48.965      12.514901126    Earth           Penumbra    80            1873.2987955
02 May 2022 17:43:19.202    02 May 2022 17:43:31.671      12.468986004    Earth           Penumbra    81            1868.1114496
02 May 2022 17:43:31.671    02 May 2022 18:14:14.713      1843.0423132    Earth           Umbra       81            1868.1114496
02 May 2022 18:14:14.713    02 May 2022 18:14:27.313      12.600150425    Earth           Penumbra    81            1868.1114496
02 May 2022 19:17:02.797    02 May 2022 19:17:15.350      12.553044024    Earth           Penumbra    82            1862.8686358
02 May 2022 19:17:15.350    02 May 2022 19:47:52.978      1837.6282656    Earth           Umbra       82            1862.8686358
02 May 2022 19:47:52.978    02 May 2022 19:48:05.665      12.687326199    Earth           Penumbra    82            1862.8686358
02 May 2022 20:50:46.414    02 May 2022 20:50:59.053      12.638998346    Earth           Penumbra    83            1857.5577099
02 May 2022 20:50:59.053    02 May 2022 21:21:31.195      1832.1420215    Earth           Umbra       83            1857.5577099
02 May 2022 21:21:31.195    02 May 2022 21:21:43.971      12.776689965    Earth           Penumbra    83            1857.5577099
02 May 2022 22:24:30.056    02 May 2022 22:24:42.783      12.727031903    Earth           Penumbra    84            1852.1619523
02 May 2022 22:24:42.783    02 May 2022 22:55:09.350      1826.5668314    Earth           Umbra       84            1852.1619523
02 May 2022 22:55:09.350    02 May 2022 22:55:22.218      12.868088961    Earth           Penumbra    84            1852.1619523
02 May 2022 23:58:13.803    02 May 2022 23:58:26.621      12.817083404    Earth           Penumbra    85            1846.6712763
02 May 2022 23:58:26.621    03 May 2022 00:28:47.514      1820.8930133    Earth           Umbra       85            1846.6712763
03 May 2022 00:28:47.514    03 May 2022 00:29:00.475      12.961179635    Earth           Penumbra    85            1846.6712763
03 May 2022 01:31:57.754    03 May 2022 01:32:10.663      12.909043464    Earth           Penumbra    86            1841.0762846
03 May 2022 01:32:10.663    03 May 2022 02:02:25.775      1815.1113137    Earth           Umbra       86            1841.0762846
03 May 2022 02:02:25.775    03 May 2022 02:02:38.831      13.055927411    Earth           Penumbra    86            1841.0762846
03 May 2022 03:05:41.904    03 May 2022 03:05:54.907      13.002996950    Earth           Penumbra    87            1835.3775052
03 May 2022 03:05:54.907    03 May 2022 03:36:04.129      1809.2218437    Earth           Umbra       87            1835.3775052
03 May 2022 03:36:04.129    03 May 2022 03:36:17.281      13.152664527    Earth           Penumbra    87            1835.3775052
03 May 2022 04:39:26.118    03 May 2022 04:39:39.217      13.098959264    Earth           Penumbra    88            1829.5945745
03 May 2022 04:39:39.217    03 May 2022 05:09:42.461      1803.2439636    Earth           Umbra       88            1829.5945745
03 May 2022 05:09:42.461    03 May 2022 05:09:55.713      13.251651556    Earth           Penumbra    88            1829.5945745
03 May 2022 06:13:10.284    03 May 2022 06:13:23.481      13.196543790    Earth           Penumbra    89            1823.7467128
03 May 2022 06:13:23.481    03 May 2022 06:43:20.679      1797.1975348    Earth           Umbra       89            1823.7467128
03 May 2022 06:43:20.679    03 May 2022 06:43:34.031      13.352634211    Earth           Penumbra    89            1823.7467128
03 May 2022 07:46:54.439    03 May 2022 07:47:07.734      13.295265846    Earth           Penumbra    90            1817.8343363
03 May 2022 07:47:07.734    03 May 2022 08:16:58.818      1791.0841250    Earth           Umbra       90            1817.8343363
03 May 2022 08:16:58.818    03 May 2022 08:17:12.273      13.454945502    Earth           Penumbra    90            1817.8343363
03 May 2022 09:20:38.693    03 May 2022 09:20:52.088      13.395084254    Earth           Penumbra    91            1811.8511750
03 May 2022 09:20:52.088    03 May 2022 09:50:36.986      1784.8979149    Earth           Umbra       91            1811.8511750
03 May 2022 09:50:36.986    03 May 2022 09:50:50.544      13.558175869    Earth           Penumbra    91            1811.8511750
03 May 2022 10:54:23.092    03 May 2022 10:54:36.589      13.496398204    Earth           Penumbra    92            1805.7922163
03 May 2022 10:54:36.589    03 May 2022 11:24:15.222      1778.6330930    Earth           Umbra       92            1805.7922163
03 May 2022 11:24:15.222    03 May 2022 11:24:28.885      13.662725128    Earth           Penumbra    92            1805.7922163
03 May 2022 12:28:07.602    03 May 2022 12:28:21.202      13.599666290    Earth           Penumbra    93            1799.6372337
03 May 2022 12:28:21.202    03 May 2022 12:57:53.470      1772.2680708    Earth           Umbra       93            1799.6372337
03 May 2022 12:57:53.470    03 May 2022 12:58:07.240      13.769496640    Earth           Penumbra    93            1799.6372337
03 May 2022 14:01:52.200    03 May 2022 14:02:05.905      13.705223578    Earth           Penumbra    94            1793.3555731
03 May 2022 14:02:05.905    03 May 2022 14:31:31.677      1765.7713335    Earth           Umbra       94            1793.3555731
03 May 2022 14:31:31.677    03 May 2022 14:31:45.556      13.879015949    Earth           Penumbra    94            1793.3555731
03 May 2022 15:35:36.901    03 May 2022 15:35:50.714      13.813303923    Earth           Penumbra    95            1786.9441787
03 May 2022 15:35:50.714    03 May 2022 16:05:09.854      1759.1397568    Earth           Umbra       95            1786.9441787
03 May 2022 16:05:09.854    03 May 2022 16:05:23.845      13.991118036    Earth           Penumbra    95            1786.9441787
03 May 2022 17:09:21.714    03 May 2022 17:09:35.638      13.923976477    Earth           Penumbra    96            1780.4343031
03 May 2022 17:09:35.638    03 May 2022 17:38:48.043      1752.4047302    Earth           Umbra       96            1780.4343031
03 May 2022 17:38:48.043    03 May 2022 17:39:02.148      14.105596393    Earth           Penumbra    96            1780.4343031
03 May 2022 18:43:06.615    03 May 2022 18:43:20.652      14.037241868    Earth           Penumbra    97            1773.8475976
03 May 2022 18:43:20.652    03 May 2022 19:12:26.240      1745.5875961    Earth           Umbra       97            1773.8475976
03 May 2022 19:12:26.240    03 May 2022 19:12:40.463      14.222759684    Earth           Penumbra    97            1773.8475976
03 May 2022 20:16:51.569    03 May 2022 20:17:05.722      14.153231482    Earth           Penumbra    98            1767.1716076
03 May 2022 20:17:05.722    03 May 2022 20:46:04.397      1738.6753310    Earth           Umbra       98            1767.1716076
03 May 2022 20:46:04.397    03 May 2022 20:46:18.740      14.343045128    Earth           Penumbra    98            1767.1716076
03 May 2022 21:50:36.575    03 May 2022 21:50:50.847      14.272127312    Earth           Penumbra    99            1760.3853674
03 May 2022 21:50:50.847    03 May 2022 22:19:42.494      1731.6468823    Earth           Umbra       99            1760.3853674
03 May 2022 22:19:42.494    03 May 2022 22:19:56.960      14.466357802    Earth           Penumbra    99            1760.3853674
03 May 2022 23:24:21.703    03 May 2022 23:24:36.097      14.393882209    Earth           Penumbra    100           1753.4797445
03 May 2022 23:24:36.097    03 May 2022 23:53:20.591      1724.4936663    Earth           Umbra       100           1753.4797445
03 May 2022 23:53:20.591    03 May 2022 23:53:35.183      14.592196047    Earth           Penumbra    100           1753.4797445
04 May 2022 00:58:07.059    04 May 2022 00:58:21.578      14.518370759    Earth           Penumbra    101           1746.4477635
04 May 2022 00:58:21.578    04 May 2022 01:26:58.787      1717.2090033    Earth           Umbra       101           1746.4477635
04 May 2022 01:26:58.787    04 May 2022 01:27:13.507      14.720389503    Earth           Penumbra    101           1746.4477635
04 May 2022 02:31:52.655    04 May 2022 02:32:07.301      14.645754208    Earth           Penumbra    102           1739.2849330
04 May 2022 02:32:07.301    04 May 2022 03:00:37.088      1709.7877814    Earth           Umbra       102           1739.2849330
04 May 2022 03:00:37.088    04 May 2022 03:00:51.940      14.851397392    Earth           Penumbra    102           1739.2849330
04 May 2022 04:05:38.364    04 May 2022 04:05:53.140      14.776241896    Earth           Penumbra    103           1732.0048132
04 May 2022 04:05:53.140    04 May 2022 04:34:15.383      1702.2428085    Earth           Umbra       103           1732.0048132
04 May 2022 04:34:15.383    04 May 2022 04:34:30.368      14.985762862    Earth           Penumbra    103           1732.0048132
04 May 2022 05:39:24.052    04 May 2022 05:39:38.962      14.909487753    Earth           Penumbra    104           1724.6316612
04 May 2022 05:39:38.962    04 May 2022 06:07:53.561      1694.5988324    Earth           Umbra       104           1724.6316612
04 May 2022 06:07:53.561    04 May 2022 06:08:08.684      15.123341011    Earth           Penumbra    104           1724.6316612
04 May 2022 07:13:09.733    04 May 2022 07:13:24.778      15.044764755    Earth           Penumbra    105           1717.1784509
04 May 2022 07:13:24.778    04 May 2022 07:41:31.648      1686.8704432    Earth           Umbra       105           1717.1784509
04 May 2022 07:41:31.648    04 May 2022 07:41:46.911      15.263242938    Earth           Penumbra    105           1717.1784509
04 May 2022 08:46:55.519    04 May 2022 08:47:10.701      15.181776811    Earth           Penumbra    106           1709.6460954
04 May 2022 08:47:10.701    04 May 2022 09:15:09.760      1679.0596025    Earth           Umbra       106           1709.6460954
04 May 2022 09:15:09.760    04 May 2022 09:15:25.165      15.404716157    Earth           Penumbra    106           1709.6460954
04 May 2022 10:20:41.473    04 May 2022 10:20:56.794      15.320995089    Earth           Penumbra    107           1702.0277841
04 May 2022 10:20:56.794    04 May 2022 10:48:47.953      1671.1586932    Earth           Umbra       107           1702.0277841
04 May 2022 10:48:47.953    04 May 2022 10:49:03.501      15.548095736    Earth           Penumbra    107           1702.0277841
04 May 2022 11:54:27.572    04 May 2022 11:54:43.035      15.463146928    Earth           Penumbra    108           1694.2955293
04 May 2022 11:54:43.035    04 May 2022 12:22:26.172      1663.1377321    Earth           Umbra       108           1694.2955293
04 May 2022 12:22:26.172    04 May 2022 12:22:41.867      15.694650274    Earth           Penumbra    108           1694.2955293
04 May 2022 13:28:13.791    04 May 2022 13:28:29.399      15.608763532    Earth           Penumbra    109           1686.4064766
04 May 2022 13:28:29.399    04 May 2022 13:56:04.352      1654.9523608    Earth           Umbra       109           1686.4064766
04 May 2022 13:56:04.352    04 May 2022 13:56:20.197      15.845352283    Earth           Penumbra    109           1686.4064766
04 May 2022 15:02:00.145    04 May 2022 15:02:15.903      15.758212656    Earth           Penumbra    110           1678.3471943
04 May 2022 15:02:15.903    04 May 2022 15:29:42.492      1646.5888368    Earth           Umbra       110           1678.3471943
04 May 2022 15:29:42.492    04 May 2022 15:29:58.492      16.000144870    Earth           Penumbra    110           1678.3471943
04 May 2022 16:35:46.647    04 May 2022 16:36:02.558      15.911734756    Earth           Penumbra    111           1670.1499479
04 May 2022 16:36:02.558    04 May 2022 17:03:20.638      1638.0795702    Earth           Umbra       111           1670.1499479
04 May 2022 17:03:20.638    04 May 2022 17:03:36.797      16.158642992    Earth           Penumbra    111           1670.1499479
04 May 2022 18:09:33.275    04 May 2022 18:09:49.345      16.069430101    Earth           Penumbra    112           1661.8452367
04 May 2022 18:09:49.345    04 May 2022 18:36:58.800      1629.4546802    Earth           Umbra       112           1661.8452367
04 May 2022 18:36:58.800    04 May 2022 18:37:15.121      16.321126395    Earth           Penumbra    112           1661.8452367
04 May 2022 19:43:19.996    04 May 2022 19:43:36.228      16.231397388    Earth           Penumbra    113           1653.4234290
04 May 2022 19:43:36.228    04 May 2022 20:10:36.932      1620.7037441    Earth           Umbra       113           1653.4234290
04 May 2022 20:10:36.932    04 May 2022 20:10:53.420      16.488287528    Earth           Penumbra    113           1653.4234290
04 May 2022 21:17:06.804    04 May 2022 21:17:23.202      16.397732170    Earth           Penumbra    114           1644.8598137
04 May 2022 21:17:23.202    04 May 2022 21:44:15.004      1611.8018936    Earth           Umbra       114           1644.8598137
04 May 2022 21:44:15.004    04 May 2022 21:44:31.664      16.660187999    Earth           Penumbra    114           1644.8598137
04 May 2022 22:50:53.761    04 May 2022 22:51:10.330      16.568339523    Earth           Penumbra    115           1636.1469115
04 May 2022 22:51:10.330    04 May 2022 23:17:53.072      1602.7424558    Earth           Umbra       115           1636.1469115
04 May 2022 23:17:53.072    04 May 2022 23:18:09.908      16.836116184    Earth           Penumbra    115           1636.1469115
05 May 2022 00:24:40.973    05 May 2022 00:24:57.716      16.743090574    Earth           Penumbra    116           1627.2832315
05 May 2022 00:24:57.716    05 May 2022 00:51:31.241      1593.5245017    Earth           Umbra       116           1627.2832315
05 May 2022 00:51:31.241    05 May 2022 00:51:48.257      17.015639262    Earth           Penumbra    116           1627.2832315
05 May 2022 01:58:28.471    05 May 2022 01:58:45.394      16.922315361    Earth           Penumbra    117           1618.2595117
05 May 2022 01:58:45.394    05 May 2022 02:25:09.531      1584.1378280    Earth           Umbra       117           1618.2595117
05 May 2022 02:25:09.531    05 May 2022 02:25:26.731      17.199368274    Earth           Penumbra    117           1618.2595117
05 May 2022 03:32:16.142    05 May 2022 03:32:33.248      17.106582492    Earth           Penumbra    118           1609.0768285
05 May 2022 03:32:33.248    05 May 2022 03:58:47.830      1574.5818999    Earth           Umbra       118           1609.0768285
05 May 2022 03:58:47.830    05 May 2022 03:59:05.219      17.388346139    Earth           Penumbra    118           1609.0768285
05 May 2022 05:06:03.836    05 May 2022 05:06:21.132      17.295732291    Earth           Penumbra    119           1599.7591449
05 May 2022 05:06:21.132    05 May 2022 05:32:26.012      1564.8806842    Earth           Umbra       119           1599.7591449
05 May 2022 05:32:26.012    05 May 2022 05:32:43.595      17.582728446    Earth           Penumbra    119           1599.7591449
05 May 2022 06:39:51.535    05 May 2022 06:40:09.023      17.488668405    Earth           Penumbra    120           1590.3366943
05 May 2022 06:40:09.023    05 May 2022 07:06:04.090      1555.0666913    Earth           Umbra       120           1590.3366943
05 May 2022 07:06:04.090    05 May 2022 07:06:21.871      17.781334603    Earth           Penumbra    120           1590.3366943
05 May 2022 08:13:39.343    05 May 2022 08:13:57.028      17.684596858    Earth           Penumbra    121           1580.8277631
05 May 2022 08:13:57.028    05 May 2022 08:39:42.188      1545.1603570    Earth           Umbra       121           1580.8277631
05 May 2022 08:39:42.188    05 May 2022 08:40:00.171      17.982809257    Earth           Penumbra    121           1580.8277631
05 May 2022 09:47:27.342    05 May 2022 09:47:45.226      17.884013650    Earth           Penumbra    122           1571.2279871
05 May 2022 09:47:45.226    05 May 2022 10:13:20.382      1535.1566966    Earth           Umbra       122           1571.2279871
05 May 2022 10:13:20.382    05 May 2022 10:13:38.570      18.187276879    Earth           Penumbra    122           1571.2279871
05 May 2022 11:21:15.523    05 May 2022 11:21:33.612      18.088181096    Earth           Penumbra    123           1561.4978231
05 May 2022 11:21:33.612    05 May 2022 11:46:58.625      1525.0130912    Earth           Umbra       123           1561.4978231
05 May 2022 11:46:58.625    05 May 2022 11:47:17.021      18.396550789    Earth           Penumbra    123           1561.4978231
05 May 2022 12:55:03.867    05 May 2022 12:55:22.165      18.298091821    Earth           Penumbra    124           1551.5765190
05 May 2022 12:55:22.165    05 May 2022 13:20:36.831      1514.6659898    Earth           Umbra       124           1551.5765190
05 May 2022 13:20:36.831    05 May 2022 13:20:55.443      18.612437393    Earth           Penumbra    124           1551.5765190
05 May 2022 14:28:52.386    05 May 2022 14:29:10.900      18.514261313    Earth           Penumbra    125           1541.4360731
05 May 2022 14:29:10.900    05 May 2022 14:54:14.986      1504.0866007    Earth           Umbra       125           1541.4360731
05 May 2022 14:54:14.986    05 May 2022 14:54:33.822      18.835211091    Earth           Penumbra    125           1541.4360731
05 May 2022 16:02:41.097    05 May 2022 16:02:59.834      18.737115164    Earth           Penumbra    126           1531.1074890
05 May 2022 16:02:59.834    05 May 2022 16:27:53.141      1493.3061378    Earth           Umbra       126           1531.1074890
05 May 2022 16:27:53.141    05 May 2022 16:28:12.205      19.064236013    Earth           Penumbra    126           1531.1074890
05 May 2022 17:36:29.986    05 May 2022 17:36:48.953      18.967050989    Earth           Penumbra    127           1520.6309563
05 May 2022 17:36:48.953    05 May 2022 18:01:31.318      1482.3642401    Earth           Umbra       127           1520.6309563
05 May 2022 18:01:31.318    05 May 2022 18:01:50.617      19.299665233    Earth           Penumbra    127           1520.6309563
05 May 2022 19:10:19.018    05 May 2022 19:10:38.222      19.204318989    Earth           Penumbra    128           1510.0028767
05 May 2022 19:10:38.222    05 May 2022 19:35:09.478      1471.2559839    Earth           Umbra       128           1510.0028767
05 May 2022 19:35:09.478    05 May 2022 19:35:29.020      19.542573730    Earth           Penumbra    128           1510.0028767
05 May 2022 20:44:08.179    05 May 2022 20:44:27.628      19.448857557    Earth           Penumbra    129           1499.1975204
05 May 2022 20:44:27.628    05 May 2022 21:08:47.583      1459.9552833    Earth           Umbra       129           1499.1975204
05 May 2022 21:08:47.583    05 May 2022 21:09:07.377      19.793379551    Earth           Penumbra    129           1499.1975204
05 May 2022 22:17:57.522    05 May 2022 22:18:17.222      19.700281962    Earth           Penumbra    130           1488.2122451
05 May 2022 22:18:17.222    05 May 2022 22:42:25.683      1448.4608605    Earth           Umbra       130           1488.2122451
05 May 2022 22:42:25.683    05 May 2022 22:42:45.734      20.051102643    Earth           Penumbra    130           1488.2122451
05 May 2022 23:51:47.147    05 May 2022 23:52:07.106      19.958386954    Earth           Penumbra    131           1477.0564648
05 May 2022 23:52:07.106    06 May 2022 00:16:03.889      1436.7832819    Earth           Umbra       131           1477.0564648
06 May 2022 00:16:03.889    06 May 2022 00:16:24.204      20.314795955    Earth           Penumbra    131           1477.0564648
06 May 2022 01:25:37.105    06 May 2022 01:25:57.329      20.223876613    Earth           Penumbra    132           1465.7174912
06 May 2022 01:25:57.329    06 May 2022 01:49:42.238      1424.9083875    Earth           Umbra       132           1465.7174912
06 May 2022 01:49:42.238    06 May 2022 01:50:02.823      20.585227059    Earth           Penumbra    132           1465.7174912
06 May 2022 02:59:27.305    06 May 2022 02:59:47.803      20.498151553    Earth           Penumbra    133           1454.1745792
06 May 2022 02:59:47.803    06 May 2022 03:23:20.615      1412.8120427    Earth           Umbra       133           1454.1745792
06 May 2022 03:23:20.615    06 May 2022 03:23:41.480      20.864384982    Earth           Penumbra    133           1454.1745792
06 May 2022 04:33:17.588    06 May 2022 04:33:38.370      20.781562873    Earth           Penumbra    134           1442.4405363
06 May 2022 04:33:38.370    06 May 2022 04:56:58.876      1400.5057787    Earth           Umbra       134           1442.4405363
06 May 2022 04:56:58.876    06 May 2022 04:57:20.029      21.153194772    Earth           Penumbra    134           1442.4405363
06 May 2022 06:07:07.899    06 May 2022 06:07:28.972      21.072516963    Earth           Penumbra    135           1430.5670981
06 May 2022 06:07:28.972    06 May 2022 06:30:37.016      1388.0444370    Earth           Umbra       135           1430.5670981
06 May 2022 06:30:37.016    06 May 2022 06:30:58.466      21.450144227    Earth           Penumbra    135           1430.5670981
06 May 2022 07:40:58.319    06 May 2022 07:41:19.688      21.369119093    Earth           Penumbra    136           1418.6076252
06 May 2022 07:41:19.688    06 May 2022 08:04:15.174      1375.4857883    Earth           Umbra       136           1418.6076252
06 May 2022 08:04:15.174    06 May 2022 08:04:36.927      21.752717835    Earth           Penumbra    136           1418.6076252
06 May 2022 09:14:48.941    06 May 2022 09:15:10.612      21.671618207    Earth           Penumbra    137           1406.5717335
06 May 2022 09:15:10.612    06 May 2022 09:37:53.452      1362.8396866    Earth           Umbra       137           1406.5717335
06 May 2022 09:37:53.452    06 May 2022 09:38:15.513      22.060428711    Earth           Penumbra    137           1406.5717335
06 May 2022 10:48:39.781    06 May 2022 10:49:01.763      21.982355055    Earth           Penumbra    138           1394.4035766
06 May 2022 10:49:01.763    06 May 2022 11:11:31.809      1350.0452657    Earth           Umbra       138           1394.4035766
06 May 2022 11:11:31.809    06 May 2022 11:11:54.185      22.375955817    Earth           Penumbra    138           1394.4035766
06 May 2022 12:22:30.828    06 May 2022 12:22:53.132      22.303591808    Earth           Penumbra    139           1382.0135535
06 May 2022 12:22:53.132    06 May 2022 12:45:10.139      1337.0071754    Earth           Umbra       139           1382.0135535
06 May 2022 12:45:10.139    06 May 2022 12:45:32.842      22.702786233    Earth           Penumbra    139           1382.0135535
06 May 2022 13:56:22.096    06 May 2022 13:56:44.732      22.636242514    Earth           Penumbra    140           1369.3535990
06 May 2022 13:56:44.732    06 May 2022 14:18:48.407      1323.6752317    Earth           Umbra       140           1369.3535990
06 May 2022 14:18:48.407    06 May 2022 14:19:11.449      23.042124754    Earth           Penumbra    140           1369.3535990
06 May 2022 15:30:13.605    06 May 2022 15:30:36.585      22.980694415    Earth           Penumbra    141           1356.4534263
06 May 2022 15:30:36.585    06 May 2022 15:52:26.665      1310.0797161    Earth           Umbra       141           1356.4534263
06 May 2022 15:52:26.665    06 May 2022 15:52:50.058      23.393015843    Earth           Penumbra    141           1356.4534263
06 May 2022 17:04:05.346    06 May 2022 17:04:28.684      23.337807180    Earth           Penumbra    142           1343.3644112
06 May 2022 17:04:28.684    06 May 2022 17:26:04.956      1296.2713816    Earth           Umbra       142           1343.3644112
06 May 2022 17:26:04.956    06 May 2022 17:26:28.711      23.755222501    Earth           Penumbra    142           1343.3644112
06 May 2022 18:37:57.288    06 May 2022 18:38:20.997      23.708541691    Earth           Penumbra    143           1330.0915993
06 May 2022 18:38:20.997    06 May 2022 18:59:43.249      1282.2526504    Earth           Umbra       143           1330.0915993
06 May 2022 18:59:43.249    06 May 2022 19:00:07.380      24.130407174    Earth           Penumbra    143           1330.0915993
06 May 2022 20:11:49.407    06 May 2022 20:12:13.499      24.092874373    Earth           Penumbra    144           1316.6133962
06 May 2022 20:12:13.499    06 May 2022 20:33:21.500      1268.0007176    Earth           Umbra       144           1316.6133962
06 May 2022 20:33:21.500    06 May 2022 20:33:46.020      24.519804202    Earth           Penumbra    144           1316.6133962
06 May 2022 21:45:41.731    06 May 2022 21:46:06.220      24.489613320    Earth           Penumbra    145           1302.9414916
06 May 2022 21:46:06.220    06 May 2022 22:06:59.750      1253.5297635    Earth           Umbra       145           1302.9414916
06 May 2022 22:06:59.750    06 May 2022 22:07:24.672      24.922114809    Earth           Penumbra    145           1302.9414916
06 May 2022 23:19:34.348    06 May 2022 23:19:59.246      24.897880631    Earth           Penumbra    146           1289.1086341
06 May 2022 23:19:59.246    06 May 2022 23:40:38.121      1238.8754607    Earth           Umbra       146           1289.1086341
06 May 2022 23:40:38.121    06 May 2022 23:41:03.456      25.335292763    Earth           Penumbra    146           1289.1086341
07 May 2022 00:53:27.325    07 May 2022 00:53:52.644      25.319061521    Earth           Penumbra    147           1275.1032512
07 May 2022 00:53:52.644    07 May 2022 01:14:16.669      1224.0240504    Earth           Umbra       147           1275.1032512
07 May 2022 01:14:16.669    07 May 2022 01:14:42.429      25.760139269    Earth           Penumbra    147           1275.1032512
07 May 2022 02:27:20.608    07 May 2022 02:27:46.365      25.756616984    Earth           Penumbra    148           1260.8686510
07 May 2022 02:27:46.365    07 May 2022 02:47:55.276      1208.9114381    Earth           Umbra       148           1260.8686510
07 May 2022 02:47:55.276    07 May 2022 02:48:21.477      26.200595917    Earth           Penumbra    148           1260.8686510
07 May 2022 04:01:14.045    07 May 2022 04:01:40.258      26.212633797    Earth           Penumbra    149           1246.3855044
07 May 2022 04:01:40.258    07 May 2022 04:21:33.771      1193.5132011    Earth           Umbra       149           1246.3855044
07 May 2022 04:21:33.771    07 May 2022 04:22:00.431      26.659669506    Earth           Penumbra    149           1246.3855044
07 May 2022 05:35:07.537    07 May 2022 05:35:34.222      26.684901968    Earth           Penumbra    150           1231.7283940
07 May 2022 05:35:34.222    07 May 2022 05:55:12.130      1177.9078473    Earth           Umbra       150           1231.7283940
07 May 2022 05:55:12.130    07 May 2022 05:55:39.265      27.135644783    Earth           Penumbra    150           1231.7283940
07 May 2022 07:09:01.115    07 May 2022 07:09:28.284      27.168885525    Earth           Penumbra    151           1217.0163444
07 May 2022 07:09:28.284    07 May 2022 07:28:50.508      1162.2239389    Earth           Umbra       151           1217.0163444
07 May 2022 07:28:50.508    07 May 2022 07:29:18.131      27.623519953    Earth           Penumbra    151           1217.0163444
07 May 2022 08:42:54.866    07 May 2022 08:43:22.529      27.663317753    Earth           Penumbra    152           1202.3017064
07 May 2022 08:43:22.529    07 May 2022 09:02:29.047      1146.5174787    Earth           Umbra       152           1202.3017064
07 May 2022 09:02:29.047    07 May 2022 09:02:57.168      28.120909946    Earth           Penumbra    152           1202.3017064
07 May 2022 10:16:48.839    07 May 2022 10:17:17.012      28.172544145    Earth           Penumbra    153           1187.5101445
07 May 2022 10:17:17.012    07 May 2022 10:36:07.717      1130.7057512    Earth           Umbra       153           1187.5101445
07 May 2022 10:36:07.717    07 May 2022 10:36:36.349      28.631849075    Earth           Penumbra    153           1187.5101445
07 May 2022 11:50:43.049    07 May 2022 11:51:11.751      28.702526120    Earth           Penumbra    154           1172.5010791
07 May 2022 11:51:11.751    07 May 2022 12:09:46.386      1114.6349218    Earth           Umbra       154           1172.5010791
07 May 2022 12:09:46.386    07 May 2022 12:10:15.550      29.163631168    Earth           Penumbra    154           1172.5010791
07 May 2022 13:24:37.512    07 May 2022 13:25:06.768      29.255973129    Earth           Penumbra    155           1157.1952330
07 May 2022 13:25:06.768    07 May 2022 13:43:24.987      1098.2190948    Earth           Umbra       155           1157.1952330
07 May 2022 13:43:24.987    07 May 2022 13:43:54.707      29.720165126    Earth           Penumbra    155           1157.1952330
07 May 2022 14:58:32.243    07 May 2022 14:59:02.075      29.832595680    Earth           Penumbra    156           1141.6292235
07 May 2022 14:59:02.075    07 May 2022 15:17:03.572      1081.4964445    Earth           Umbra       156           1141.6292235
