GMAT/Constellation/Eclipses/eclipse4.txt

Spacecraft: HSEYE4

Start Time (UTC)            Stop Time (UTC)               Duration (s)    Occ Body        Type        Event Number  Total Duration (s)
27 Apr 2022 12:22:25.726    27 Apr 2022 12:22:35.286      9.5601623878    Earth           Penumbra    1             2064.0663765
27 Apr 2022 12:22:35.286    27 Apr 2022 12:56:40.278      2044.9914775    Earth           Umbra       1             2064.0663765
27 Apr 2022 12:56:40.278    27 Apr 2022 12:56:49.792      9.5147366636    Earth           Penumbra    1             2064.0663765
27 Apr 2022 13:55:53.693    27 Apr 2022 13:56:03.223      9.5294654486    Earth           Penumbra    2             2066.1184148
27 Apr 2022 13:56:03.223    27 Apr 2022 14:30:10.327      2047.1036853    Earth           Umbra       2             2066.1184148
27 Apr 2022 14:30:10.327    27 Apr 2022 14:30:19.812      9.4852640061    Earth           Penumbra    2             2066.1184148
27 Apr 2022 15:29:21.607    27 Apr 2022 15:29:31.106      9.4990231097    Earth           Penumbra    3             2068.1262051
27 Apr 2022 15:29:31.106    27 Apr 2022 16:03:40.277      2049.1711077    Earth           Umbra       3             2068.1262051
27 Apr 2022 16:03:40.277    27 Apr 2022 16:03:49.733      9.4560742378    Earth           Penumbra    3             2068.1262051
27 Apr 2022 17:02:49.499    27 Apr 2022 17:02:58.968      9.4689787016    Earth           Penumbra    4             2070.0936739
27 Apr 2022 17:02:58.968    27 Apr 2022 17:37:10.166      2051.1973449    Earth           Umbra       4             2070.0936739
27 Apr 2022 17:37:10.166    27 Apr 2022 17:37:19.593      9.4273502938    Earth           Penumbra    4             2070.0936739
27 Apr 2022 18:36:17.420    27 Apr 2022 18:36:26.859      9.4393460546    Earth           Penumbra    5             2072.0371669
27 Apr 2022 18:36:26.859    27 Apr 2022 19:10:40.058      2053.1987724    Earth           Umbra       5             2072.0371669
27 Apr 2022 19:10:40.058    27 Apr 2022 19:10:49.457      9.3990484835    Earth           Penumbra    5             2072.0371669
27 Apr 2022 20:09:45.391    27 Apr 2022 20:09:54.801      9.4100582181    Earth           Penumbra    6             2073.9696600
27 Apr 2022 20:09:54.801    27 Apr 2022 20:44:09.990      2055.1885423    Earth           Umbra       6             2073.9696600
27 Apr 2022 20:44:09.990    27 Apr 2022 20:44:19.361      9.3710594228    Earth           Penumbra    6             2073.9696600
27 Apr 2022 21:43:13.385    27 Apr 2022 21:43:22.766      9.3811711413    Earth           Penumbra    7             2075.8811962
27 Apr 2022 21:43:22.766    27 Apr 2022 22:17:39.923      2057.1565527    Earth           Umbra       7             2075.8811962
27 Apr 2022 22:17:39.923    27 Apr 2022 22:17:49.266      9.3434723793    Earth           Penumbra    7             2075.8811962
27 Apr 2022 23:16:41.359    27 Apr 2022 23:16:50.712      9.3529306236    Earth           Penumbra    8             2077.7523375
27 Apr 2022 23:16:50.712    27 Apr 2022 23:51:09.795      2059.0828825    Earth           Umbra       8             2077.7523375
27 Apr 2022 23:51:09.795    27 Apr 2022 23:51:19.112      9.3165243510    Earth           Penumbra    8             2077.7523375
28 Apr 2022 00:50:09.292    28 Apr 2022 00:50:18.618      9.3255126849    Earth           Penumbra    9             2079.5850345
28 Apr 2022 00:50:18.618    28 Apr 2022 01:24:39.587      2060.9691754    Earth           Umbra       9             2079.5850345
28 Apr 2022 01:24:39.587    28 Apr 2022 01:24:48.877      9.2903464101    Earth           Penumbra    9             2079.5850345
28 Apr 2022 02:23:37.180    28 Apr 2022 02:23:46.479      9.2987903394    Earth           Penumbra    10            2081.4001112
28 Apr 2022 02:23:46.479    28 Apr 2022 02:58:09.316      2062.8364338    Earth           Umbra       10            2081.4001112
28 Apr 2022 02:58:09.316    28 Apr 2022 02:58:18.581      9.2648870079    Earth           Penumbra    10            2081.4001112
28 Apr 2022 03:57:05.029    28 Apr 2022 03:57:14.301      9.2724954709    Earth           Penumbra    11            2083.2060971
28 Apr 2022 03:57:14.301    28 Apr 2022 04:31:38.995      2064.6936139    Earth           Umbra       11            2083.2060971
28 Apr 2022 04:31:38.995    28 Apr 2022 04:31:48.235      9.2399877263    Earth           Penumbra    11            2083.2060971
28 Apr 2022 05:30:32.867    28 Apr 2022 05:30:42.113      9.2465636437    Earth           Penumbra    12            2075.7762937
28 Apr 2022 05:30:42.113    28 Apr 2022 06:05:08.643      2066.5297300    Earth           Umbra       12            2075.7762937
28 Apr 2022 07:04:00.744    28 Apr 2022 07:04:09.965      9.2211513896    Earth           Penumbra    13            2077.5573203
28 Apr 2022 07:04:09.965    28 Apr 2022 07:38:38.301      2068.3361689    Earth           Umbra       13            2077.5573203
28 Apr 2022 08:37:37.881    28 Apr 2022 09:12:07.997      2070.1163160    Earth           Umbra       14            2079.2839548
28 Apr 2022 09:12:07.997    28 Apr 2022 09:12:17.165      9.1676388052    Earth           Penumbra    14            2079.2839548
28 Apr 2022 10:10:56.662    28 Apr 2022 10:11:05.834      9.1719629243    Earth           Penumbra    15            2090.1885059
28 Apr 2022 10:11:05.834    28 Apr 2022 10:45:37.706      2071.8722956    Earth           Umbra       15            2090.1885059
28 Apr 2022 10:45:37.706    28 Apr 2022 10:45:46.850      9.1442473233    Earth           Penumbra    15            2090.1885059
28 Apr 2022 11:44:24.628    28 Apr 2022 11:44:33.776      9.1477677226    Earth           Penumbra    16            2091.8670628
28 Apr 2022 11:44:33.776    28 Apr 2022 12:19:07.374      2073.5982415    Earth           Umbra       16            2091.8670628
28 Apr 2022 12:19:07.374    28 Apr 2022 12:19:16.495      9.1210535495    Earth           Penumbra    16            2091.8670628
28 Apr 2022 13:17:52.547    28 Apr 2022 13:18:01.670      9.1236643028    Earth           Penumbra    17            2093.5089418
28 Apr 2022 13:18:01.670    28 Apr 2022 13:52:36.958      2075.2873360    Earth           Umbra       17            2093.5089418
28 Apr 2022 13:52:36.958    28 Apr 2022 13:52:46.056      9.0979414992    Earth           Penumbra    17            2093.5089418
28 Apr 2022 14:51:20.413    28 Apr 2022 14:51:29.512      9.0997438179    Earth           Penumbra    18            2095.1110045
28 Apr 2022 14:51:29.512    28 Apr 2022 15:26:06.449      2076.9362222    Earth           Umbra       18            2095.1110045
28 Apr 2022 15:26:06.449    28 Apr 2022 15:26:15.524      9.0750384727    Earth           Penumbra    18            2095.1110045
28 Apr 2022 16:24:57.330    28 Apr 2022 16:59:35.878      2078.5472538    Earth           Umbra       19            2087.5998047
28 Apr 2022 16:59:35.878    28 Apr 2022 16:59:44.930      9.0525509790    Earth           Penumbra    19            2087.5998047
28 Apr 2022 17:58:16.122    28 Apr 2022 17:58:25.175      9.0528923320    Earth           Penumbra    20            2098.2158113
28 Apr 2022 17:58:25.175    28 Apr 2022 18:33:05.308      2080.1324443    Earth           Umbra       20            2098.2158113
28 Apr 2022 18:33:05.308    28 Apr 2022 18:33:14.338      9.0304746176    Earth           Penumbra    20            2098.2158113
28 Apr 2022 19:31:44.044    28 Apr 2022 19:31:53.074      9.0299415286    Earth           Penumbra    21            2099.7436316
28 Apr 2022 19:31:53.074    28 Apr 2022 20:06:34.779      2081.7050268    Earth           Umbra       21            2099.7436316
28 Apr 2022 20:06:34.779    28 Apr 2022 20:06:43.788      9.0086632292    Earth           Penumbra    21            2099.7436316
28 Apr 2022 21:05:11.997    28 Apr 2022 21:05:21.004      9.0073050465    Earth           Penumbra    22            2101.2561831
28 Apr 2022 21:05:21.004    28 Apr 2022 21:40:04.266      2083.2617524    Earth           Umbra       22            2101.2561831
28 Apr 2022 21:40:04.266    28 Apr 2022 21:40:13.253      8.9871256147    Earth           Penumbra    22            2101.2561831
28 Apr 2022 22:38:39.934    28 Apr 2022 22:38:48.919      8.9851724217    Earth           Penumbra    23            2102.7381562
28 Apr 2022 22:38:48.919    28 Apr 2022 23:13:33.706      2084.7869019    Earth           Umbra       23            2102.7381562
28 Apr 2022 23:13:33.706    28 Apr 2022 23:13:42.672      8.9660817990    Earth           Penumbra    23            2102.7381562
29 Apr 2022 00:12:07.835    29 Apr 2022 00:12:16.799      8.9637379046    Earth           Penumbra    24            2104.1875747
29 Apr 2022 00:12:16.799    29 Apr 2022 00:47:03.077      2086.2781289    Earth           Umbra       24            2104.1875747
29 Apr 2022 00:47:03.077    29 Apr 2022 00:47:12.023      8.9457078022    Earth           Penumbra    24            2104.1875747
29 Apr 2022 01:45:35.697    29 Apr 2022 01:45:44.640      8.9429521468    Earth           Penumbra    25            2105.6208226
29 Apr 2022 01:45:44.640    29 Apr 2022 02:20:32.392      2087.7518813    Earth           Umbra       25            2105.6208226
29 Apr 2022 02:20:32.392    29 Apr 2022 02:20:41.318      8.9259891654    Earth           Penumbra    25            2105.6208226
29 Apr 2022 03:19:03.523    29 Apr 2022 03:19:12.445      8.9225860080    Earth           Penumbra    26            2107.0476750
29 Apr 2022 03:19:12.445    29 Apr 2022 03:54:01.664      2089.2182979    Earth           Umbra       26            2107.0476750
29 Apr 2022 03:54:01.664    29 Apr 2022 03:54:10.571      8.9067910449    Earth           Penumbra    26            2107.0476750
29 Apr 2022 04:52:31.335    29 Apr 2022 04:52:40.238      8.9025288471    Earth           Penumbra    27            2108.4589908
29 Apr 2022 04:52:40.238    29 Apr 2022 05:27:30.906      2090.6684916    Earth           Umbra       27            2108.4589908
29 Apr 2022 05:27:30.906    29 Apr 2022 05:27:39.794      8.8879704243    Earth           Penumbra    27            2108.4589908
29 Apr 2022 06:25:59.182    29 Apr 2022 06:26:08.065      8.8828922482    Earth           Penumbra    28            2109.8447329
29 Apr 2022 06:26:08.065    29 Apr 2022 07:01:00.157      2092.0923894    Earth           Umbra       28            2109.8447329
29 Apr 2022 07:01:00.157    29 Apr 2022 07:01:09.027      8.8694512378    Earth           Penumbra    28            2109.8447329
29 Apr 2022 07:59:27.093    29 Apr 2022 07:59:35.957      8.8637686218    Earth           Penumbra    29            2111.2069545
29 Apr 2022 07:59:35.957    29 Apr 2022 08:34:29.449      2093.4919461    Earth           Umbra       29            2111.2069545
29 Apr 2022 08:34:29.449    29 Apr 2022 08:34:38.300      8.8512397720    Earth           Penumbra    29            2111.2069545
29 Apr 2022 09:32:55.050    29 Apr 2022 09:33:03.895      8.8450353825    Earth           Penumbra    30            2103.7153027
29 Apr 2022 09:33:03.895    29 Apr 2022 10:07:58.765      2094.8702673    Earth           Umbra       30            2103.7153027
29 Apr 2022 11:06:23.003    29 Apr 2022 11:06:31.830      8.8264624472    Earth           Penumbra    31            2105.0484242
29 Apr 2022 11:06:31.830    29 Apr 2022 11:41:28.052      2096.2219617    Earth           Umbra       31            2105.0484242
29 Apr 2022 12:39:50.915    29 Apr 2022 12:39:59.722      8.8079495472    Earth           Penumbra    32            2115.1455609
29 Apr 2022 12:39:59.722    29 Apr 2022 13:14:57.262      2097.5397201    Earth           Umbra       32            2115.1455609
29 Apr 2022 13:14:57.262    29 Apr 2022 13:15:06.060      8.7978912634    Earth           Penumbra    32            2115.1455609
29 Apr 2022 14:13:27.563    29 Apr 2022 14:48:26.384      2098.8209811    Earth           Umbra       33            2107.6013301
29 Apr 2022 14:48:26.384    29 Apr 2022 14:48:35.164      8.7803489878    Earth           Penumbra    33            2107.6013301
29 Apr 2022 15:46:46.604    29 Apr 2022 15:46:55.376      8.7714414345    Earth           Penumbra    34            2117.6025363
29 Apr 2022 15:46:55.376    29 Apr 2022 16:21:55.443      2100.0679229    Earth           Umbra       34            2117.6025363
29 Apr 2022 16:21:55.443    29 Apr 2022 16:22:04.207      8.7631719536    Earth           Penumbra    34            2117.6025363
29 Apr 2022 17:20:14.459    29 Apr 2022 17:20:23.212      8.7536197272    Earth           Penumbra    35            2118.7890146
29 Apr 2022 17:20:23.212    29 Apr 2022 17:55:24.501      2101.2889907    Earth           Umbra       35            2118.7890146
29 Apr 2022 17:55:24.501    29 Apr 2022 17:55:33.248      8.7464041659    Earth           Penumbra    35            2118.7890146
29 Apr 2022 18:53:42.370    29 Apr 2022 18:53:51.106      8.7360592210    Earth           Penumbra    36            2119.9616813
29 Apr 2022 18:53:51.106    29 Apr 2022 19:28:53.602      2102.4957396    Earth           Umbra       36            2119.9616813
29 Apr 2022 19:28:53.602    29 Apr 2022 19:29:02.332      8.7298824918    Earth           Penumbra    36            2119.9616813
29 Apr 2022 20:27:10.319    29 Apr 2022 20:27:19.037      8.7187542580    Earth           Penumbra    37            2121.1220184
29 Apr 2022 20:27:19.037    29 Apr 2022 21:02:22.727      2103.6897188    Earth           Umbra       37            2121.1220184
29 Apr 2022 21:02:22.727    29 Apr 2022 21:02:31.441      8.7135453243    Earth           Penumbra    37            2121.1220184
29 Apr 2022 22:00:46.960    29 Apr 2022 22:35:51.820      2104.8601664    Earth           Umbra       38            2113.5577389
29 Apr 2022 22:35:51.820    29 Apr 2022 22:36:00.518      8.6975724553    Earth           Penumbra    38            2113.5577389
29 Apr 2022 23:34:06.165    29 Apr 2022 23:34:14.850      8.6855301750    Earth           Penumbra    39            2123.3704396
29 Apr 2022 23:34:14.850    30 Apr 2022 00:09:20.853      2106.0027281    Earth           Umbra       39            2123.3704396
30 Apr 2022 00:09:20.853    30 Apr 2022 00:09:29.535      8.6821813951    Earth           Penumbra    39            2123.3704396
30 Apr 2022 01:07:34.037    30 Apr 2022 01:07:42.707      8.6698194500    Earth           Penumbra    40            2124.4666260
30 Apr 2022 01:07:42.707    30 Apr 2022 01:42:49.837      2107.1294036    Earth           Umbra       40            2124.4666260
30 Apr 2022 01:42:49.837    30 Apr 2022 01:42:58.504      8.6674029473    Earth           Penumbra    40            2124.4666260
30 Apr 2022 02:41:01.878    30 Apr 2022 02:41:10.532      8.6545258295    Earth           Penumbra    41            2116.9051543
30 Apr 2022 02:41:10.532    30 Apr 2022 03:16:18.783      2108.2506285    Earth           Umbra       41            2116.9051543
30 Apr 2022 04:14:29.702    30 Apr 2022 04:14:38.342      8.6395106977    Earth           Penumbra    42            2126.6384889
30 Apr 2022 04:14:38.342    30 Apr 2022 04:49:47.701      2109.3598088    Earth           Umbra       42            2126.6384889
30 Apr 2022 04:49:47.701    30 Apr 2022 04:49:56.341      8.6391693447    Earth           Penumbra    42            2126.6384889
30 Apr 2022 05:47:57.556    30 Apr 2022 05:48:06.180      8.6248397478    Earth           Penumbra    43            2127.6961596
30 Apr 2022 05:48:06.180    30 Apr 2022 06:23:16.626      2110.4458304    Earth           Umbra       43            2127.6961596
30 Apr 2022 06:23:16.626    30 Apr 2022 06:23:25.252      8.6254894501    Earth           Penumbra    43            2127.6961596
30 Apr 2022 07:21:25.474    30 Apr 2022 07:21:34.085      8.6106088478    Earth           Penumbra    44            2128.7313597
30 Apr 2022 07:21:34.085    30 Apr 2022 07:56:45.594      2111.5086848    Earth           Umbra       44            2128.7313597
30 Apr 2022 07:56:45.594    30 Apr 2022 07:56:54.206      8.6120660417    Earth           Penumbra    44            2128.7313597
30 Apr 2022 08:54:53.446    30 Apr 2022 08:55:02.043      8.5967391031    Earth           Penumbra    45            2129.7478722
30 Apr 2022 08:55:02.043    30 Apr 2022 09:30:14.595      2112.5522383    Earth           Umbra       45            2129.7478722
30 Apr 2022 09:30:14.595    30 Apr 2022 09:30:23.194      8.5988947190    Earth           Penumbra    45            2129.7478722
30 Apr 2022 10:28:21.423    30 Apr 2022 10:28:30.006      8.5830183467    Earth           Penumbra    46            2130.7411378
30 Apr 2022 10:28:30.006    30 Apr 2022 11:03:43.579      2113.5722436    Earth           Umbra       46            2130.7411378
30 Apr 2022 11:03:43.579    30 Apr 2022 11:03:52.164      8.5858758423    Earth           Penumbra    46            2130.7411378
30 Apr 2022 12:01:57.932    30 Apr 2022 12:37:12.493      2114.5609770    Earth           Umbra       47            2123.1338666
30 Apr 2022 12:37:12.493    30 Apr 2022 12:37:21.066      8.5728896549    Earth           Penumbra    47            2123.1338666
30 Apr 2022 13:35:17.251    30 Apr 2022 13:35:25.806      8.5557292798    Earth           Penumbra    48            2132.6318569
30 Apr 2022 13:35:25.806    30 Apr 2022 14:10:41.323      2115.5161289    Earth           Umbra       48            2132.6318569
30 Apr 2022 14:10:41.323    30 Apr 2022 14:10:49.883      8.5599987069    Earth           Penumbra    48            2132.6318569
30 Apr 2022 15:08:45.108    30 Apr 2022 15:08:53.650      8.5423398181    Earth           Penumbra    49            2133.5301021
30 Apr 2022 15:08:53.650    30 Apr 2022 15:44:10.090      2116.4403358    Earth           Umbra       49            2133.5301021
30 Apr 2022 15:44:10.090    30 Apr 2022 15:44:18.638      8.5474264808    Earth           Penumbra    49            2133.5301021
30 Apr 2022 16:42:12.985    30 Apr 2022 16:42:21.514      8.5292153293    Earth           Penumbra    50            2125.8687539
30 Apr 2022 16:42:21.514    30 Apr 2022 17:17:38.853      2117.3395386    Earth           Umbra       50            2125.8687539
30 Apr 2022 18:15:40.920    30 Apr 2022 18:15:49.436      8.5163228097    Earth           Penumbra    51            2135.2622907
30 Apr 2022 18:15:49.436    30 Apr 2022 18:51:07.659      2118.2226163    Earth           Umbra       51            2135.2622907
30 Apr 2022 18:51:07.659    30 Apr 2022 18:51:16.182      8.5233516642    Earth           Penumbra    51            2135.2622907
30 Apr 2022 19:49:17.403    30 Apr 2022 20:24:36.496      2119.0938334    Earth           Umbra       52            2127.6053974
30 Apr 2022 20:24:36.496    30 Apr 2022 20:24:45.008      8.5115639842    Earth           Penumbra    52            2127.6053974
30 Apr 2022 21:22:36.875    30 Apr 2022 21:22:45.367      8.4912861697    Earth           Penumbra    53            2136.9387731
30 Apr 2022 21:22:45.367    30 Apr 2022 21:58:05.314      2119.9474564    Earth           Umbra       53            2136.9387731
30 Apr 2022 21:58:05.314    30 Apr 2022 21:58:13.814      8.5000305902    Earth           Penumbra    53            2136.9387731
30 Apr 2022 22:56:04.822    30 Apr 2022 22:56:13.302      8.4794252529    Earth           Penumbra    54            2137.7473435
30 Apr 2022 22:56:13.302    30 Apr 2022 23:31:34.081      2120.7789256    Earth           Umbra       54            2137.7473435
30 Apr 2022 23:31:34.081    30 Apr 2022 23:31:42.570      8.4889925667    Earth           Penumbra    54            2137.7473435
01 May 2022 00:29:32.739    01 May 2022 00:29:41.207      8.4681279142    Earth           Penumbra    55            2138.5429320
01 May 2022 00:29:41.207    01 May 2022 01:05:02.803      2121.5962681    Earth           Umbra       55            2138.5429320
01 May 2022 01:05:02.803    01 May 2022 01:05:11.282      8.4785360377    Earth           Penumbra    55            2138.5429320
01 May 2022 02:03:00.628    01 May 2022 02:03:09.085      8.4572514519    Earth           Penumbra    56            2139.3351419
01 May 2022 02:03:09.085    01 May 2022 02:38:31.494      2122.4093382    Earth           Umbra       56            2139.3351419
01 May 2022 02:38:31.494    01 May 2022 02:38:39.963      8.4685522481    Earth           Penumbra    56            2139.3351419
01 May 2022 03:36:36.946    01 May 2022 04:12:00.160      2123.2138281    Earth           Umbra       57            2131.6727178
01 May 2022 04:12:00.160    01 May 2022 04:12:08.619      8.4588896949    Earth           Penumbra    57            2131.6727178
01 May 2022 05:09:56.395    01 May 2022 05:10:04.831      8.4363195347    Earth           Penumbra    58            2132.4345224
01 May 2022 05:10:04.831    01 May 2022 05:45:28.829      2123.9982029    Earth           Umbra       58            2132.4345224
01 May 2022 06:43:24.355    01 May 2022 06:43:32.781      8.4263778641    Earth           Penumbra    59            2141.6267877
01 May 2022 06:43:32.781    01 May 2022 07:18:57.541      2124.7601610    Earth           Umbra       59            2141.6267877
01 May 2022 07:18:57.541    01 May 2022 07:19:05.982      8.4402488661    Earth           Penumbra    59            2141.6267877
01 May 2022 08:16:52.375    01 May 2022 08:17:00.792      8.4167700028    Earth           Penumbra    60            2142.3518608
01 May 2022 08:17:00.792    01 May 2022 08:52:26.296      2125.5038318    Earth           Umbra       60            2142.3518608
01 May 2022 08:52:26.296    01 May 2022 08:52:34.727      8.4312589606    Earth           Penumbra    60            2142.3518608
01 May 2022 09:50:20.409    01 May 2022 09:50:28.817      8.4073039005    Earth           Penumbra    61            2143.0563024
01 May 2022 09:50:28.817    01 May 2022 10:25:55.043      2126.2265905    Earth           Umbra       61            2143.0563024
01 May 2022 10:25:55.043    01 May 2022 10:26:03.466      8.4224079852    Earth           Penumbra    61            2143.0563024
01 May 2022 11:23:56.809    01 May 2022 11:59:23.730      2126.9206228    Earth           Umbra       62            2135.3341999
01 May 2022 11:59:23.730    01 May 2022 11:59:32.143      8.4135771263    Earth           Penumbra    62            2135.3341999
01 May 2022 12:57:16.362    01 May 2022 12:57:24.751      8.3884581341    Earth           Penumbra    63            2144.3766301
01 May 2022 12:57:24.751    01 May 2022 13:32:52.334      2127.5833741    Earth           Umbra       63            2144.3766301
01 May 2022 13:32:52.334    01 May 2022 13:33:00.739      8.4047978162    Earth           Penumbra    63            2144.3766301
01 May 2022 14:30:44.280    01 May 2022 14:30:52.659      8.3792384597    Earth           Penumbra    64            2144.9936929
01 May 2022 14:30:52.659    01 May 2022 15:06:20.877      2128.2181647    Earth           Umbra       64            2144.9936929
01 May 2022 15:06:20.877    01 May 2022 15:06:29.273      8.3962897654    Earth           Penumbra    64            2144.9936929
01 May 2022 16:04:12.212    01 May 2022 16:04:20.583      8.3702529548    Earth           Penumbra    65            2137.1998117
01 May 2022 16:04:20.583    01 May 2022 16:39:49.412      2128.8295587    Earth           Umbra       65            2137.1998117
01 May 2022 17:37:40.204    01 May 2022 17:37:48.565      8.3614761592    Earth           Penumbra    66            2146.1652567
01 May 2022 17:37:48.565    01 May 2022 18:13:17.989      2129.4234218    Earth           Umbra       66            2146.1652567
01 May 2022 18:13:17.989    01 May 2022 18:13:26.369      8.3803587011    Earth           Penumbra    66            2146.1652567
01 May 2022 19:11:16.599    01 May 2022 19:46:46.604      2130.0048192    Earth           Umbra       67            2138.3774412
01 May 2022 19:46:46.604    01 May 2022 19:46:54.976      8.3726219949    Earth           Penumbra    67            2138.3774412
01 May 2022 20:44:36.292    01 May 2022 20:44:44.637      8.3445477532    Earth           Penumbra    68            2147.2821074
01 May 2022 20:44:44.637    01 May 2022 21:20:15.209      2130.5725153    Earth           Umbra       68            2147.2821074
01 May 2022 21:20:15.209    01 May 2022 21:20:23.574      8.3650443354    Earth           Penumbra    68            2147.2821074
01 May 2022 22:18:04.312    01 May 2022 22:18:12.648      8.3366350271    Earth           Penumbra    69            2147.8177736
01 May 2022 22:18:12.648    01 May 2022 22:53:43.772      2131.1232604    Earth           Umbra       69            2147.8177736
01 May 2022 22:53:43.772    01 May 2022 22:53:52.129      8.3578781225    Earth           Penumbra    69            2147.8177736
01 May 2022 23:51:32.305    01 May 2022 23:51:40.634      8.3292450174    Earth           Penumbra    70            2148.3424269
01 May 2022 23:51:40.634    02 May 2022 00:27:12.296      2131.6619183    Earth           Umbra       70            2148.3424269
02 May 2022 00:27:12.296    02 May 2022 00:27:20.647      8.3512635436    Earth           Penumbra    70            2148.3424269
02 May 2022 01:25:00.274    02 May 2022 01:25:08.597      8.3222846850    Earth           Penumbra    71            2148.8643977
02 May 2022 01:25:08.597    02 May 2022 02:00:40.794      2132.1969929    Earth           Umbra       71            2148.8643977
02 May 2022 02:00:40.794    02 May 2022 02:00:49.139      8.3451201324    Earth           Penumbra    71            2148.8643977
02 May 2022 02:58:36.543    02 May 2022 03:34:09.269      2132.7262174    Earth           Umbra       72            2132.7262174
02 May 2022 04:31:56.198    02 May 2022 04:32:04.507      8.3091438515    Earth           Penumbra    73            2149.8811186
02 May 2022 04:32:04.507    02 May 2022 05:07:37.745      2133.2383220    Earth           Umbra       73            2149.8811186
02 May 2022 05:07:37.745    02 May 2022 05:07:46.079      8.3336527459    Earth           Penumbra    73            2149.8811186
02 May 2022 06:05:24.231    02 May 2022 06:05:32.534      8.3030192996    Earth           Penumbra    74            2150.3598989
02 May 2022 06:05:32.534    02 May 2022 06:41:06.263      2133.7286709    Earth           Umbra       74            2150.3598989
02 May 2022 06:41:06.263    02 May 2022 06:41:14.591      8.3282086998    Earth           Penumbra    74            2150.3598989
02 May 2022 07:38:52.331    02 May 2022 07:39:00.629      8.2972106407    Earth           Penumbra    75            2150.8211643
02 May 2022 07:39:00.629    02 May 2022 08:14:34.830      2134.2009922    Earth           Umbra       75            2150.8211643
02 May 2022 08:14:34.830    02 May 2022 08:14:43.153      8.3229614189    Earth           Penumbra    75            2150.8211643
02 May 2022 09:12:20.455    02 May 2022 09:12:28.746      8.2915449981    Earth           Penumbra    76            2151.2638884
02 May 2022 09:12:28.746    02 May 2022 09:48:03.401      2134.6544941    Earth           Umbra       76            2151.2638884
02 May 2022 09:48:03.401    02 May 2022 09:48:11.719      8.3178492961    Earth           Penumbra    76            2151.2638884
02 May 2022 10:45:56.837    02 May 2022 11:21:31.919      2135.0817776    Earth           Umbra       77            2143.3945267
02 May 2022 11:21:31.919    02 May 2022 11:21:40.232      8.3127491176    Earth           Penumbra    77            2143.3945267
02 May 2022 12:19:16.599    02 May 2022 12:19:24.879      8.2802423160    Earth           Penumbra    78            2152.0675931
02 May 2022 12:19:24.879    02 May 2022 12:55:00.359      2135.4796870    Earth           Umbra       78            2152.0675931
02 May 2022 12:55:00.359    02 May 2022 12:55:08.666      8.3076637122    Earth           Penumbra    78            2152.0675931
02 May 2022 13:52:44.609    02 May 2022 13:52:52.884      8.2747514360    Earth           Penumbra    79            2144.1268901
02 May 2022 13:52:52.884    02 May 2022 14:28:28.736      2135.8521387    Earth           Umbra       79            2144.1268901
02 May 2022 15:26:12.630    02 May 2022 15:26:20.900      8.2694730372    Earth           Penumbra    80            2152.7711310
02 May 2022 15:26:20.900    02 May 2022 16:01:57.103      2136.2033218    Earth           Umbra       80            2152.7711310
02 May 2022 16:01:57.103    02 May 2022 16:02:05.401      8.2983362256    Earth           Penumbra    80            2152.7711310
02 May 2022 16:59:40.709    02 May 2022 16:59:48.974      8.2643854315    Earth           Penumbra    81            2153.0948748
02 May 2022 16:59:48.974    02 May 2022 17:35:25.510      2136.5363113    Earth           Umbra       81            2153.0948748
02 May 2022 17:35:25.510    02 May 2022 17:35:33.804      8.2941780682    Earth           Penumbra    81            2153.0948748
02 May 2022 18:33:17.105    02 May 2022 19:08:53.960      2136.8553582    Earth           Umbra       82            2145.1454614
02 May 2022 19:08:53.960    02 May 2022 19:09:02.251      8.2901032059    Earth           Penumbra    82            2145.1454614
02 May 2022 20:06:36.993    02 May 2022 20:06:45.248      8.2547379658    Earth           Penumbra    83            2153.7035701
02 May 2022 20:06:45.248    02 May 2022 20:42:22.411      2137.1627249    Earth           Umbra       83            2153.7035701
02 May 2022 20:42:22.411    02 May 2022 20:42:30.697      8.2861072384    Earth           Penumbra    83            2153.7035701
02 May 2022 21:40:05.117    02 May 2022 21:40:13.368      8.2503811573    Earth           Penumbra    84            2153.9904138
02 May 2022 21:40:13.368    02 May 2022 22:15:50.825      2137.4575961    Earth           Umbra       84            2153.9904138
02 May 2022 22:15:50.825    02 May 2022 22:15:59.108      8.2824365934    Earth           Penumbra    84            2153.9904138
02 May 2022 23:13:33.218    02 May 2022 23:13:41.464      8.2465058891    Earth           Penumbra    85            2145.9892559
02 May 2022 23:13:41.464    02 May 2022 23:49:19.207      2137.7427500    Earth           Umbra       85            2145.9892559
03 May 2022 00:47:01.300    03 May 2022 00:47:09.543      8.2430675277    Earth           Penumbra    86            2154.5444719
03 May 2022 00:47:09.543    03 May 2022 01:22:47.567      2138.0247855    Earth           Umbra       86            2154.5444719
03 May 2022 01:22:47.567    03 May 2022 01:22:55.844      8.2766188192    Earth           Penumbra    86            2154.5444719
03 May 2022 02:20:37.605    03 May 2022 02:56:15.908      2138.3029785    Earth           Umbra       87            2146.5772333
03 May 2022 02:56:15.908    03 May 2022 02:56:24.182      8.2742548082    Earth           Penumbra    87            2146.5772333
03 May 2022 03:53:57.444    03 May 2022 03:54:05.681      8.2369659212    Earth           Penumbra    88            2155.0760138
03 May 2022 03:54:05.681    03 May 2022 04:29:44.248      2138.5669782    Earth           Umbra       88            2155.0760138
03 May 2022 04:29:44.248    03 May 2022 04:29:52.520      8.2720696460    Earth           Penumbra    88            2155.0760138
03 May 2022 05:27:25.583    03 May 2022 05:27:33.817      8.2342970185    Earth           Penumbra    89            2155.3143958
03 May 2022 05:27:33.817    03 May 2022 06:03:12.627      2138.8100571    Earth           Umbra       89            2155.3143958
03 May 2022 06:03:12.627    03 May 2022 06:03:20.897      8.2700416446    Earth           Penumbra    89            2155.3143958
03 May 2022 07:00:53.794    03 May 2022 07:01:02.026      8.2319223206    Earth           Penumbra    90            2155.5349805
03 May 2022 07:01:02.026    03 May 2022 07:36:41.060      2139.0348673    Earth           Umbra       90            2155.5349805
03 May 2022 07:36:41.060    03 May 2022 07:36:49.329      8.2681909204    Earth           Penumbra    90            2155.5349805
03 May 2022 08:34:22.037    03 May 2022 08:34:30.267      8.2296997542    Earth           Penumbra    91            2147.4720509
03 May 2022 08:34:30.267    03 May 2022 09:10:09.509      2139.2423511    Earth           Umbra       91            2147.4720509
03 May 2022 10:07:50.261    03 May 2022 10:07:58.488      8.2274702727    Earth           Penumbra    92            2155.9183407
03 May 2022 10:07:58.488    03 May 2022 10:43:37.914      2139.4260993    Earth           Umbra       92            2155.9183407
03 May 2022 10:43:37.914    03 May 2022 10:43:46.179      8.2647711039    Earth           Penumbra    92            2155.9183407
03 May 2022 11:41:26.661    03 May 2022 12:17:06.243      2139.5822306    Earth           Umbra       93            2147.8452805
03 May 2022 12:17:06.243    03 May 2022 12:17:14.506      8.2630498800    Earth           Penumbra    93            2147.8452805
03 May 2022 13:14:46.572    03 May 2022 13:14:54.795      8.2231266657    Earth           Penumbra    94            2156.1995499
03 May 2022 13:14:54.795    03 May 2022 13:50:34.510      2139.7149248    Earth           Umbra       94            2156.1995499
03 May 2022 13:50:34.510    03 May 2022 13:50:42.771      8.2614983898    Earth           Penumbra    94            2156.1995499
03 May 2022 14:48:14.713    03 May 2022 14:48:22.934      8.2212149631    Earth           Penumbra    95            2156.3103394
03 May 2022 14:48:22.934    03 May 2022 15:24:02.763      2139.8287890    Earth           Umbra       95            2156.3103394
03 May 2022 15:24:02.763    03 May 2022 15:24:11.024      8.2603354007    Earth           Penumbra    95            2156.3103394
03 May 2022 16:21:42.911    03 May 2022 16:21:51.130      8.2194799092    Earth           Penumbra    96            2156.4037252
03 May 2022 16:21:51.130    03 May 2022 16:57:31.055      2139.9247303    Earth           Umbra       96            2156.4037252
03 May 2022 16:57:31.055    03 May 2022 16:57:39.315      8.2595150219    Earth           Penumbra    96            2156.4037252
03 May 2022 17:55:11.172    03 May 2022 17:55:19.390      8.2178822136    Earth           Penumbra    97            2148.2228829
03 May 2022 17:55:19.390    03 May 2022 18:30:59.395      2140.0050007    Earth           Umbra       97            2148.2228829
03 May 2022 19:28:47.668    03 May 2022 20:04:27.742      2140.0740137    Earth           Umbra       98            2148.3320920
03 May 2022 20:04:27.742    03 May 2022 20:04:36.000      8.2580782590    Earth           Penumbra    98            2148.3320920
03 May 2022 21:02:07.712    03 May 2022 21:02:15.927      8.2153446972    Earth           Penumbra    99            2156.6069915
03 May 2022 21:02:15.927    03 May 2022 21:37:56.061      2140.1340431    Earth           Umbra       99            2156.6069915
03 May 2022 21:37:56.061    03 May 2022 21:38:04.318      8.2576036337    Earth           Penumbra    99            2156.6069915
03 May 2022 22:35:35.950    03 May 2022 22:35:44.165      8.2146701636    Earth           Penumbra    100           2156.6593257
03 May 2022 22:35:44.165    03 May 2022 23:11:24.352      2140.1870402    Earth           Umbra       100           2156.6593257
03 May 2022 23:11:24.352    03 May 2022 23:11:32.609      8.2576152636    Earth           Penumbra    100           2156.6593257
04 May 2022 00:09:04.174    04 May 2022 00:09:12.388      8.2144397660    Earth           Penumbra    101           2156.7099880
04 May 2022 00:09:12.388    04 May 2022 00:44:52.626      2140.2374288    Earth           Umbra       101           2156.7099880
04 May 2022 00:44:52.626    04 May 2022 00:45:00.884      8.2581194350    Earth           Penumbra    101           2156.7099880
04 May 2022 01:42:32.384    04 May 2022 01:42:40.599      8.2145086024    Earth           Penumbra    102           2156.7588037
04 May 2022 01:42:40.599    04 May 2022 02:18:20.884      2140.2853559    Earth           Umbra       102           2156.7588037
04 May 2022 02:18:20.884    04 May 2022 02:18:29.143      8.2589391852    Earth           Penumbra    102           2156.7588037
04 May 2022 03:16:00.603    04 May 2022 03:16:08.818      8.2147764042    Earth           Penumbra    103           2148.5366439
04 May 2022 03:16:08.818    04 May 2022 03:51:49.140      2140.3218674    Earth           Umbra       103           2148.5366439
04 May 2022 04:49:37.094    04 May 2022 05:25:17.433      2140.3386604    Earth           Umbra       104           2148.5996782
04 May 2022 05:25:17.433    04 May 2022 05:25:25.694      8.2610177924    Earth           Penumbra    104           2148.5996782
04 May 2022 06:22:57.231    04 May 2022 06:23:05.447      8.2160380902    Earth           Penumbra    105           2156.8150622
04 May 2022 06:23:05.447    04 May 2022 06:58:45.784      2140.3367480    Earth           Umbra       105           2156.8150622
04 May 2022 06:58:45.784    04 May 2022 06:58:54.046      8.2622760208    Earth           Penumbra    105           2156.8150622
04 May 2022 07:56:25.625    04 May 2022 07:56:33.842      8.2169647096    Earth           Penumbra    106           2156.7990623
04 May 2022 07:56:33.842    04 May 2022 08:32:14.160      2140.3184256    Earth           Umbra       106           2156.7990623
04 May 2022 08:32:14.160    04 May 2022 08:32:22.424      8.2636719220    Earth           Penumbra    106           2156.7990623
04 May 2022 09:29:54.006    04 May 2022 09:30:02.224      8.2178844139    Earth           Penumbra    107           2156.7617627
04 May 2022 09:30:02.224    04 May 2022 10:05:42.503      2140.2787919    Earth           Umbra       107           2156.7617627
04 May 2022 10:05:42.503    04 May 2022 10:05:50.768      8.2650863682    Earth           Penumbra    107           2156.7617627
04 May 2022 11:03:22.341    04 May 2022 11:03:30.559      8.2187723718    Earth           Penumbra    108           2156.6985787
04 May 2022 11:03:30.559    04 May 2022 11:39:10.773      2140.2133502    Earth           Umbra       108           2156.6985787
04 May 2022 11:39:10.773    04 May 2022 11:39:19.039      8.2664561807    Earth           Penumbra    108           2156.6985787
04 May 2022 12:36:50.634    04 May 2022 12:36:58.853      8.2197527401    Earth           Penumbra    109           2148.3458747
04 May 2022 12:36:58.853    04 May 2022 13:12:38.980      2140.1261219    Earth           Umbra       109           2148.3458747
04 May 2022 14:10:27.148    04 May 2022 14:46:07.170      2140.0226197    Earth           Umbra       110           2148.2924155
04 May 2022 14:46:07.170    04 May 2022 14:46:15.440      8.2697958453    Earth           Penumbra    110           2148.2924155
04 May 2022 15:43:47.274    04 May 2022 15:43:55.496      8.2222676254    Earth           Penumbra    111           2156.3967664
04 May 2022 15:43:55.496    04 May 2022 16:19:35.398      2139.9024716    Earth           Umbra       111           2156.3967664
04 May 2022 16:19:35.398    04 May 2022 16:19:43.670      8.2720272127    Earth           Penumbra    111           2156.3967664
04 May 2022 17:17:15.688    04 May 2022 17:17:23.912      8.2237298484    Earth           Penumbra    112           2156.2633499
04 May 2022 17:17:23.912    04 May 2022 17:53:03.677      2139.7652354    Earth           Umbra       112           2156.2633499
04 May 2022 17:53:03.677    04 May 2022 17:53:11.952      8.2743846229    Earth           Penumbra    112           2156.2633499
04 May 2022 18:50:44.130    04 May 2022 18:50:52.356      8.2253325731    Earth           Penumbra    113           2156.1179885
04 May 2022 18:50:52.356    04 May 2022 19:26:31.972      2139.6159479    Earth           Umbra       113           2156.1179885
04 May 2022 19:26:31.972    04 May 2022 19:26:40.248      8.2767080865    Earth           Penumbra    113           2156.1179885
04 May 2022 20:24:12.557    04 May 2022 20:24:20.784      8.2271946128    Earth           Penumbra    114           2155.9664752
04 May 2022 20:24:20.784    04 May 2022 21:00:00.244      2139.4601045    Earth           Umbra       114           2155.9664752
04 May 2022 21:00:00.244    04 May 2022 21:00:08.523      8.2791761379    Earth           Penumbra    114           2155.9664752
04 May 2022 21:57:40.963    04 May 2022 21:57:49.192      8.2294605556    Earth           Penumbra    115           2147.5295893
04 May 2022 21:57:49.192    04 May 2022 22:33:28.493      2139.3001287    Earth           Umbra       115           2147.5295893
04 May 2022 23:31:17.591    05 May 2022 00:06:56.730      2139.1383843    Earth           Umbra       116           2147.4238805
05 May 2022 00:06:56.730    05 May 2022 00:07:05.015      8.2854961976    Earth           Penumbra    116           2147.4238805
05 May 2022 01:04:37.745    05 May 2022 01:04:45.980      8.2352022640    Earth           Penumbra    117           2155.4995389
05 May 2022 01:04:45.980    05 May 2022 01:40:24.955      2138.9750878    Earth           Umbra       117           2155.4995389
05 May 2022 01:40:24.955    05 May 2022 01:40:33.244      8.2892488805    Earth           Penumbra    117           2155.4995389
05 May 2022 02:38:06.136    05 May 2022 02:38:14.374      8.2384322304    Earth           Penumbra    118           2155.3344963
05 May 2022 02:38:14.374    05 May 2022 03:13:53.177      2138.8029198    Earth           Umbra       118           2155.3344963
05 May 2022 03:13:53.177    05 May 2022 03:14:01.470      8.2931442652    Earth           Penumbra    118           2155.3344963
05 May 2022 04:11:34.578    05 May 2022 04:11:42.820      8.2418460748    Earth           Penumbra    119           2155.1516879
05 May 2022 04:11:42.820    05 May 2022 04:47:21.433      2138.6127202    Earth           Umbra       119           2155.1516879
05 May 2022 04:47:21.433    05 May 2022 04:47:29.730      8.2971216878    Earth           Penumbra    119           2155.1516879
05 May 2022 05:45:03.101    05 May 2022 05:45:11.346      8.2454959746    Earth           Penumbra    120           2154.9502403
05 May 2022 05:45:11.346    05 May 2022 06:20:49.750      2138.4035126    Earth           Umbra       120           2154.9502403
05 May 2022 06:20:49.750    05 May 2022 06:20:58.051      8.3012317540    Earth           Penumbra    120           2154.9502403
05 May 2022 07:18:31.675    05 May 2022 07:18:39.924      8.2493156078    Earth           Penumbra    121           2146.4276625
05 May 2022 07:18:39.924    05 May 2022 07:54:18.103      2138.1783469    Earth           Umbra       121           2146.4276625
05 May 2022 08:52:00.244    05 May 2022 08:52:08.497      8.2531349268    Earth           Penumbra    122           2154.4970782
05 May 2022 08:52:08.497    05 May 2022 09:27:46.431      2137.9341808    Earth           Umbra       122           2154.4970782
05 May 2022 09:27:46.431    05 May 2022 09:27:54.741      8.3097624360    Earth           Penumbra    122           2154.4970782
05 May 2022 10:25:37.025    05 May 2022 11:01:14.691      2137.6662369    Earth           Umbra       123           2145.9802172
05 May 2022 11:01:14.691    05 May 2022 11:01:23.005      8.3139803144    Earth           Penumbra    123           2145.9802172
05 May 2022 11:58:57.249    05 May 2022 11:59:05.509      8.2607151009    Earth           Penumbra    124           2153.9569364
05 May 2022 11:59:05.509    05 May 2022 12:34:42.887      2137.3779668    Earth           Umbra       124           2153.9569364
05 May 2022 12:34:42.887    05 May 2022 12:34:51.206      8.3182544564    Earth           Penumbra    124           2153.9569364
05 May 2022 13:32:25.724    05 May 2022 13:32:33.989      8.2647148403    Earth           Penumbra    125           2153.6635419
05 May 2022 13:32:33.989    05 May 2022 14:08:11.065      2137.0759653    Earth           Umbra       125           2153.6635419
05 May 2022 14:08:11.065    05 May 2022 14:08:19.388      8.3228617790    Earth           Penumbra    125           2153.6635419
05 May 2022 15:05:54.249    05 May 2022 15:06:02.518      8.2688890281    Earth           Penumbra    126           2145.0284590
05 May 2022 15:06:02.518    05 May 2022 15:41:39.278      2136.7595700    Earth           Umbra       126           2145.0284590
05 May 2022 16:39:22.846    05 May 2022 16:39:31.119      8.2731688279    Earth           Penumbra    127           2153.0317085
05 May 2022 16:39:31.119    05 May 2022 17:15:07.545      2136.4254716    Earth           Umbra       127           2153.0317085
05 May 2022 17:15:07.545    05 May 2022 17:15:15.878      8.3330681082    Earth           Penumbra    127           2153.0317085
05 May 2022 18:12:51.479    05 May 2022 18:12:59.757      8.2775542396    Earth           Penumbra    128           2152.6935424
05 May 2022 18:12:59.757    05 May 2022 18:48:35.835      2136.0777957    Earth           Umbra       128           2152.6935424
05 May 2022 18:48:35.835    05 May 2022 18:48:44.173      8.3381924895    Earth           Penumbra    128           2152.6935424
05 May 2022 19:46:20.101    05 May 2022 19:46:28.383      8.2821527612    Earth           Penumbra    129           2152.3503635
05 May 2022 19:46:28.383    05 May 2022 20:22:04.108      2135.7248436    Earth           Umbra       129           2152.3503635
05 May 2022 20:22:04.108    05 May 2022 20:22:12.451      8.3433671622    Earth           Penumbra    129           2152.3503635
05 May 2022 21:19:56.991    05 May 2022 21:55:32.362      2135.3707256    Earth           Umbra       130           2143.7196384
05 May 2022 21:55:32.362    05 May 2022 21:55:40.711      8.3489127341    Earth           Penumbra    130           2143.7196384
05 May 2022 22:53:17.300    05 May 2022 22:53:25.593      8.2925112220    Earth           Penumbra    131           2151.6637263
05 May 2022 22:53:25.593    05 May 2022 23:29:00.609      2135.0162365    Earth           Umbra       131           2151.6637263
05 May 2022 23:29:00.609    05 May 2022 23:29:08.964      8.3549785079    Earth           Penumbra    131           2151.6637263
06 May 2022 00:26:45.891    06 May 2022 00:26:54.189      8.2982658176    Earth           Penumbra    132           2142.9591667
06 May 2022 00:26:54.189    06 May 2022 01:02:28.850      2134.6609009    Earth           Umbra       132           2142.9591667
06 May 2022 02:00:14.484    06 May 2022 02:00:22.788      8.3042209502    Earth           Penumbra    133           2150.9711540
06 May 2022 02:00:22.788    06 May 2022 02:35:57.087      2134.2989429    Earth           Umbra       133           2150.9711540
06 May 2022 02:35:57.087    06 May 2022 02:36:05.455      8.3679901552    Earth           Penumbra    133           2150.9711540
06 May 2022 03:33:43.122    06 May 2022 03:33:51.433      8.3103216137    Earth           Penumbra    134           2150.6060666
06 May 2022 03:33:51.433    06 May 2022 04:09:25.354      2133.9211434    Earth           Umbra       134           2150.6060666
06 May 2022 04:09:25.354    06 May 2022 04:09:33.728      8.3746015909    Earth           Penumbra    134           2150.6060666
06 May 2022 05:07:11.843    06 May 2022 05:07:20.159      8.3166136988    Earth           Penumbra    135           2150.2224282
06 May 2022 05:07:20.159    06 May 2022 05:42:53.684      2133.5245101    Earth           Umbra       135           2150.2224282
06 May 2022 05:42:53.684    06 May 2022 05:43:02.065      8.3813044941    Earth           Penumbra    135           2150.2224282
06 May 2022 06:40:40.624    06 May 2022 06:40:48.947      8.3230764605    Earth           Penumbra    136           2149.8233407
06 May 2022 06:40:48.947    06 May 2022 07:16:22.059      2133.1121182    Earth           Umbra       136           2149.8233407
06 May 2022 07:16:22.059    06 May 2022 07:16:30.447      8.3881460130    Earth           Penumbra    136           2149.8233407
06 May 2022 08:14:17.738    06 May 2022 08:49:50.421      2132.6828863    Earth           Umbra       137           2141.0779229
06 May 2022 08:49:50.421    06 May 2022 08:49:58.816      8.3950365661    Earth           Penumbra    137           2141.0779229
06 May 2022 09:47:46.488    06 May 2022 10:23:18.720      2132.2322469    Earth           Umbra       138           2132.2322469
06 May 2022 11:21:06.848    06 May 2022 11:21:15.191      8.3423509612    Earth           Penumbra    139           2148.5137880
06 May 2022 11:21:15.191    06 May 2022 11:56:46.953      2131.7627765    Earth           Umbra       139           2148.5137880
06 May 2022 11:56:46.953    06 May 2022 11:56:55.362      8.4086605115    Earth           Penumbra    139           2148.5137880
06 May 2022 12:54:35.534    06 May 2022 12:54:43.883      8.3489259356    Earth           Penumbra    140           2148.0467206
06 May 2022 12:54:43.883    06 May 2022 13:30:15.165      2131.2820408    Earth           Umbra       140           2148.0467206
06 May 2022 13:30:15.165    06 May 2022 13:30:23.581      8.4157538018    Earth           Penumbra    140           2148.0467206
06 May 2022 14:28:04.265    06 May 2022 14:28:12.621      8.3556810161    Earth           Penumbra    141           2147.5690115
06 May 2022 14:28:12.621    06 May 2022 15:03:43.411      2130.7900502    Earth           Umbra       141           2147.5690115
06 May 2022 15:03:43.411    06 May 2022 15:03:51.834      8.4232802270    Earth           Penumbra    141           2147.5690115
06 May 2022 16:01:33.071    06 May 2022 16:01:41.433      8.3625335363    Earth           Penumbra    142           2147.0744982
06 May 2022 16:01:41.433    06 May 2022 16:37:11.714      2130.2809361    Earth           Umbra       142           2147.0744982
06 May 2022 16:37:11.714    06 May 2022 16:37:20.145      8.4310285631    Earth           Penumbra    142           2147.0744982
06 May 2022 17:35:01.921    06 May 2022 17:35:10.290      8.3694564644    Earth           Penumbra    143           2146.5647117
06 May 2022 17:35:10.290    06 May 2022 18:10:40.047      2129.7565528    Earth           Umbra       143           2146.5647117
06 May 2022 18:10:40.047    06 May 2022 18:10:48.485      8.4387024050    Earth           Penumbra    143           2146.5647117
06 May 2022 19:08:30.765    06 May 2022 19:08:39.141      8.3765431540    Earth           Penumbra    144           2137.6036298
06 May 2022 19:08:39.141    06 May 2022 19:44:08.368      2129.2270866    Earth           Umbra       144           2137.6036298
06 May 2022 20:42:07.974    06 May 2022 21:17:36.674      2128.6992807    Earth           Umbra       145           2137.1535269
06 May 2022 21:17:36.674    06 May 2022 21:17:45.128      8.4542462253    Earth           Penumbra    145           2137.1535269
06 May 2022 22:15:36.804    06 May 2022 22:51:04.977      2128.1732397    Earth           Umbra       146           2136.6359163
06 May 2022 22:51:04.977    06 May 2022 22:51:13.440      8.4626766387    Earth           Penumbra    146           2136.6359163
06 May 2022 23:48:57.233    06 May 2022 23:49:05.633      8.3999858703    Earth           Penumbra    147           2144.5187030
06 May 2022 23:49:05.633    07 May 2022 00:24:33.280      2127.6471952    Earth           Umbra       147           2144.5187030
07 May 2022 00:24:33.280    07 May 2022 00:24:41.752      8.4715219564    Earth           Penumbra    147           2144.5187030
07 May 2022 01:22:26.055    07 May 2022 01:22:34.464      8.4084147122    Earth           Penumbra    148           2144.0054093
07 May 2022 01:22:34.464    07 May 2022 01:58:01.580      2127.1164862    Earth           Umbra       148           2144.0054093
07 May 2022 01:58:01.580    07 May 2022 01:58:10.061      8.4805084043    Earth           Penumbra    148           2144.0054093
07 May 2022 02:55:54.917    07 May 2022 02:56:03.334      8.4169510519    Earth           Penumbra    149           2143.4790153
07 May 2022 02:56:03.334    07 May 2022 03:31:29.906      2126.5725832    Earth           Umbra       149           2143.4790153
07 May 2022 03:31:29.906    07 May 2022 03:31:38.396      8.4894810221    Earth           Penumbra    149           2143.4790153
07 May 2022 04:29:23.860    07 May 2022 04:29:32.285      8.4256247501    Earth           Penumbra    150           2134.4364132
07 May 2022 04:29:32.285    07 May 2022 05:04:58.296      2126.0107885    Earth           Umbra       150           2134.4364132
07 May 2022 06:02:52.873    07 May 2022 06:03:01.307      8.4344534087    Earth           Penumbra    151           2142.3755766
07 May 2022 06:03:01.307    07 May 2022 06:38:26.740      2125.4335033    Earth           Umbra       151           2142.3755766
07 May 2022 06:38:26.740    07 May 2022 06:38:35.248      8.5076198797    Earth           Penumbra    151           2142.3755766
07 May 2022 07:36:21.898    07 May 2022 07:36:30.341      8.4433150711    Earth           Penumbra    152           2141.8015450
07 May 2022 07:36:30.341    07 May 2022 08:11:55.182      2124.8414090    Earth           Umbra       152           2141.8015450
07 May 2022 08:11:55.182    07 May 2022 08:12:03.699      8.5168210091    Earth           Penumbra    152           2141.8015450
07 May 2022 09:09:50.884    07 May 2022 09:09:59.336      8.4520720644    Earth           Penumbra    153           2141.2086733
07 May 2022 09:09:59.336    07 May 2022 09:45:23.567      2124.2306608    Earth           Umbra       153           2141.2086733
07 May 2022 09:45:23.567    07 May 2022 09:45:32.093      8.5259404150    Earth           Penumbra    153           2141.2086733
07 May 2022 10:43:19.822    07 May 2022 10:43:28.282      8.4607925965    Earth           Penumbra    154           2140.5986526
07 May 2022 10:43:28.282    07 May 2022 11:18:51.885      2123.6028646    Earth           Umbra       154           2140.5986526
07 May 2022 11:18:51.885    07 May 2022 11:19:00.420      8.5349953850    Earth           Penumbra    154           2140.5986526
07 May 2022 12:16:57.212    07 May 2022 12:52:20.178      2122.9662337    Earth           Umbra       155           2131.5104984
07 May 2022 12:52:20.178    07 May 2022 12:52:28.723      8.5442647221    Earth           Penumbra    155           2131.5104984
07 May 2022 13:50:17.703    07 May 2022 13:50:26.182      8.4786991705    Earth           Penumbra    156           2130.8009179
07 May 2022 13:50:26.182    07 May 2022 14:25:48.504      2122.3222187    Earth           Umbra       156           2130.8009179
07 May 2022 15:23:46.740    07 May 2022 15:23:55.227      8.4878449794    Earth           Penumbra    157           2138.7149457
07 May 2022 15:23:55.227    07 May 2022 15:59:16.891      2121.6631447    Earth           Umbra       157           2138.7149457
07 May 2022 15:59:16.891    07 May 2022 15:59:25.455      8.5639560129    Earth           Penumbra    157           2138.7149457
07 May 2022 16:57:15.828    07 May 2022 16:57:24.325      8.4970253636    Earth           Penumbra    158           2138.0584632
07 May 2022 16:57:24.325    07 May 2022 17:32:45.313      2120.9875634    Earth           Umbra       158           2138.0584632
07 May 2022 17:32:45.313    07 May 2022 17:32:53.886      8.5738744237    Earth           Penumbra    158           2138.0584632
07 May 2022 18:30:44.916    07 May 2022 18:30:53.423      8.5063116741    Earth           Penumbra    159           2137.3961739
07 May 2022 18:30:53.423    07 May 2022 19:06:13.729      2120.3062071    Earth           Umbra       159           2137.3961739
07 May 2022 19:06:13.729    07 May 2022 19:06:22.313      8.5836551618    Earth           Penumbra    159           2137.3961739
07 May 2022 20:04:13.987    07 May 2022 20:04:22.502      8.5158626433    Earth           Penumbra    160           2136.7384523
07 May 2022 20:04:22.502    07 May 2022 20:39:42.131      2119.6289765    Earth           Umbra       160           2136.7384523
07 May 2022 20:39:42.131    07 May 2022 20:39:50.725      8.5936131771    Earth           Penumbra    160           2136.7384523
07 May 2022 21:37:43.055    07 May 2022 21:37:51.581      8.5258150008    Earth           Penumbra    161           2136.0863367
07 May 2022 21:37:51.581    07 May 2022 22:13:10.537      2118.9564595    Earth           Umbra       161           2136.0863367
07 May 2022 22:13:10.537    07 May 2022 22:13:19.141      8.6040621623    Earth           Penumbra    161           2136.0863367
07 May 2022 23:11:12.127    07 May 2022 23:11:20.663      8.5361678037    Earth           Penumbra    162           2126.8214862
07 May 2022 23:11:20.663    07 May 2022 23:46:38.949      2118.2853184    Earth           Umbra       162           2126.8214862
08 May 2022 00:44:41.201    08 May 2022 00:44:49.748      8.5467620054    Earth           Penumbra    163           2134.7841026
08 May 2022 00:44:49.748    08 May 2022 01:20:07.359      2117.6113090    Earth           Umbra       163           2134.7841026
08 May 2022 01:20:07.359    08 May 2022 01:20:15.985      8.6260316544    Earth           Penumbra    163           2134.7841026
08 May 2022 02:18:10.307    08 May 2022 02:18:18.865      8.5574335302    Earth           Penumbra    164           2134.1215607
08 May 2022 02:18:18.865    08 May 2022 02:53:35.792      2116.9270939    Earth           Umbra       164           2134.1215607
08 May 2022 02:53:35.792    08 May 2022 02:53:44.429      8.6370332167    Earth           Penumbra    164           2134.1215607
08 May 2022 03:51:39.492    08 May 2022 03:51:48.060      8.5681754630    Earth           Penumbra    165           2133.4430697
08 May 2022 03:51:48.060    08 May 2022 04:27:04.287      2116.2269054    Earth           Umbra       165           2133.4430697
08 May 2022 04:27:04.287    08 May 2022 04:27:12.935      8.6479888880    Earth           Penumbra    165           2133.4430697
08 May 2022 05:25:17.333    08 May 2022 06:00:32.845      2115.5119475    Earth           Umbra       166           2124.1709825
08 May 2022 06:00:32.845    08 May 2022 06:00:41.504      8.6590350838    Earth           Penumbra    166           2124.1709825
08 May 2022 06:58:46.628    08 May 2022 07:34:01.412      2114.7841904    Earth           Umbra       167           2123.4543559
08 May 2022 07:34:01.412    08 May 2022 07:34:10.082      8.6701655178    Earth           Penumbra    167           2123.4543559
08 May 2022 08:32:07.287    08 May 2022 08:32:15.888      8.6007356993    Earth           Penumbra    168           2131.3228903
08 May 2022 08:32:15.888    08 May 2022 09:07:29.929      2114.0409344    Earth           Umbra       168           2131.3228903
08 May 2022 09:07:29.929    08 May 2022 09:07:38.610      8.6812202004    Earth           Penumbra    168           2131.3228903
08 May 2022 10:05:36.485    08 May 2022 10:05:45.096      8.6114317412    Earth           Penumbra    169           2121.8943497
08 May 2022 10:05:45.096    08 May 2022 10:40:58.379      2113.2829180    Earth           Umbra       169           2121.8943497
08 May 2022 11:39:05.659    08 May 2022 11:39:14.281      8.6222157930    Earth           Penumbra    170           2129.8439898
08 May 2022 11:39:14.281    08 May 2022 12:14:26.800      2112.5185686    Earth           Umbra       170           2129.8439898
08 May 2022 12:14:26.800    08 May 2022 12:14:35.503      8.7032054085    Earth           Penumbra    170           2129.8439898
08 May 2022 13:12:34.866    08 May 2022 13:12:43.500      8.6331950384    Earth           Penumbra    171           2129.0991559
08 May 2022 13:12:43.500    08 May 2022 13:47:55.251      2111.7512840    Earth           Umbra       171           2129.0991559
08 May 2022 13:47:55.251    08 May 2022 13:48:03.966      8.7146768812    Earth           Penumbra    171           2129.0991559
08 May 2022 14:46:04.149    08 May 2022 14:46:12.794      8.6442820961    Earth           Penumbra    172           2128.3433869
08 May 2022 14:46:12.794    08 May 2022 15:21:23.766      2110.9726210    Earth           Umbra       172           2128.3433869
