GMAT/Constellation/Eclipses/eclipse18.txt

Spacecraft: HSEYE18

Start Time (UTC)            Stop Time (UTC)               Duration (s)    Occ Body        Type        Event Number  Total Duration (s)
27 Apr 2022 11:59:28.000    27 Apr 2022 12:27:15.641      1667.6407255    Earth           Umbra       1             1677.1632542
27 Apr 2022 12:27:15.641    27 Apr 2022 12:27:25.163      9.5225286903    Earth           Penumbra    1             1677.1632542
27 Apr 2022 13:26:14.807    27 Apr 2022 13:26:24.245      9.4376553199    Earth           Penumbra    2             2079.0245882
27 Apr 2022 13:26:24.245    27 Apr 2022 14:00:44.292      2060.0470630    Earth           Umbra       2             2079.0245882
27 Apr 2022 14:00:44.292    27 Apr 2022 14:00:53.832      9.5398698002    Earth           Penumbra    2             2079.0245882
27 Apr 2022 14:59:44.644    27 Apr 2022 14:59:54.099      9.4546550768    Earth           Penumbra    3             2077.9136994
27 Apr 2022 14:59:54.099    27 Apr 2022 15:34:13.001      2058.9017828    Earth           Umbra       3             2077.9136994
27 Apr 2022 15:34:13.001    27 Apr 2022 15:34:22.558      9.5572615159    Earth           Penumbra    3             2077.9136994
27 Apr 2022 16:33:14.498    27 Apr 2022 16:33:23.969      9.4715199899    Earth           Penumbra    4             2076.7961144
27 Apr 2022 16:33:23.969    27 Apr 2022 17:07:41.720      2057.7503237    Earth           Umbra       4             2076.7961144
27 Apr 2022 17:07:41.720    27 Apr 2022 17:07:51.294      9.5742707024    Earth           Penumbra    4             2076.7961144
27 Apr 2022 18:06:44.331    27 Apr 2022 18:06:53.819      9.4883757876    Earth           Penumbra    5             2075.6903978
27 Apr 2022 18:06:53.819    27 Apr 2022 18:41:10.430      2056.6110527    Earth           Umbra       5             2075.6903978
27 Apr 2022 18:41:10.430    27 Apr 2022 18:41:20.021      9.5909693395    Earth           Penumbra    5             2075.6903978
27 Apr 2022 19:40:14.158    27 Apr 2022 19:40:23.664      9.5054541249    Earth           Penumbra    6             2074.6041403
27 Apr 2022 19:40:23.664    27 Apr 2022 20:14:39.155      2055.4908362    Earth           Umbra       6             2074.6041403
27 Apr 2022 20:14:39.155    27 Apr 2022 20:14:48.762      9.6078499686    Earth           Penumbra    6             2074.6041403
27 Apr 2022 21:13:44.003    27 Apr 2022 21:13:53.526      9.5229039900    Earth           Penumbra    7             2073.5297672
27 Apr 2022 21:13:53.526    27 Apr 2022 21:48:07.907      2054.3816350    Earth           Umbra       7             2073.5297672
27 Apr 2022 21:48:07.907    27 Apr 2022 21:48:17.533      9.6252281684    Earth           Penumbra    7             2073.5297672
27 Apr 2022 22:47:13.858    27 Apr 2022 22:47:23.399      9.5406574896    Earth           Penumbra    8             2072.4596255
27 Apr 2022 22:47:23.399    27 Apr 2022 23:21:36.675      2053.2760706    Earth           Umbra       8             2072.4596255
27 Apr 2022 23:21:36.675    27 Apr 2022 23:21:46.318      9.6428974299    Earth           Penumbra    8             2072.4596255
28 Apr 2022 00:20:43.728    28 Apr 2022 00:20:53.287      9.5584292198    Earth           Penumbra    9             2071.3911438
28 Apr 2022 00:20:53.287    28 Apr 2022 00:55:05.459      2052.1723421    Earth           Umbra       9             2071.3911438
28 Apr 2022 00:55:05.459    28 Apr 2022 00:55:15.119      9.6603724407    Earth           Penumbra    9             2071.3911438
28 Apr 2022 01:54:13.655    28 Apr 2022 01:54:23.231      9.5759890974    Earth           Penumbra    10            2070.3209722
28 Apr 2022 01:54:23.231    28 Apr 2022 02:28:34.299      2051.0675723    Earth           Umbra       10            2070.3209722
28 Apr 2022 02:28:34.299    28 Apr 2022 02:28:43.976      9.6774108591    Earth           Penumbra    10            2070.3209722
28 Apr 2022 03:27:43.669    28 Apr 2022 03:27:53.262      9.5933820703    Earth           Penumbra    11            2069.2460202
28 Apr 2022 03:27:53.262    28 Apr 2022 04:02:03.221      2049.9584425    Earth           Umbra       11            2069.2460202
28 Apr 2022 04:02:03.221    28 Apr 2022 04:02:12.915      9.6941956202    Earth           Penumbra    11            2069.2460202
28 Apr 2022 05:01:13.733    28 Apr 2022 05:01:23.344      9.6107304096    Earth           Penumbra    12            2068.1673101
28 Apr 2022 05:01:23.344    28 Apr 2022 05:35:32.189      2048.8455849    Earth           Umbra       12            2068.1673101
28 Apr 2022 05:35:32.189    28 Apr 2022 05:35:41.900      9.7109948401    Earth           Penumbra    12            2068.1673101
28 Apr 2022 06:34:43.776    28 Apr 2022 06:34:53.404      9.6279369900    Earth           Penumbra    13            2067.0863973
28 Apr 2022 06:34:53.404    28 Apr 2022 07:09:01.135      2047.7307052    Earth           Umbra       13            2067.0863973
28 Apr 2022 07:09:01.135    28 Apr 2022 07:09:10.862      9.7277550842    Earth           Penumbra    13            2067.0863973
28 Apr 2022 08:08:13.755    28 Apr 2022 08:08:23.400      9.6448267344    Earth           Penumbra    14            2066.0048071
28 Apr 2022 08:08:23.400    28 Apr 2022 08:42:30.016      2046.6157696    Earth           Umbra       14            2066.0048071
28 Apr 2022 08:42:30.016    28 Apr 2022 08:42:39.760      9.7442107508    Earth           Penumbra    14            2066.0048071
28 Apr 2022 09:41:43.685    28 Apr 2022 09:41:53.347      9.6614804235    Earth           Penumbra    15            2064.9298887
28 Apr 2022 09:41:53.347    28 Apr 2022 10:15:58.855      2045.5080332    Earth           Umbra       15            2064.9298887
28 Apr 2022 10:15:58.855    28 Apr 2022 10:16:08.615      9.7603750415    Earth           Penumbra    15            2064.9298887
28 Apr 2022 11:15:13.624    28 Apr 2022 11:15:23.302      9.6781796892    Earth           Penumbra    16            2063.8693181
28 Apr 2022 11:15:23.302    28 Apr 2022 11:49:27.717      2044.4144831    Earth           Umbra       16            2063.8693181
28 Apr 2022 11:49:27.717    28 Apr 2022 11:49:37.493      9.7766553168    Earth           Penumbra    16            2063.8693181
28 Apr 2022 12:48:43.629    28 Apr 2022 12:48:53.324      9.6950185136    Earth           Penumbra    17            2062.8167850
28 Apr 2022 12:48:53.324    28 Apr 2022 13:22:56.652      2043.3284421    Earth           Umbra       17            2062.8167850
28 Apr 2022 13:22:56.652    28 Apr 2022 13:23:06.446      9.7933244077    Earth           Penumbra    17            2062.8167850
28 Apr 2022 14:22:13.706    28 Apr 2022 14:22:23.418      9.7117913305    Earth           Penumbra    18            2061.7576433
28 Apr 2022 14:22:23.418    28 Apr 2022 14:56:25.654      2042.2357629    Earth           Umbra       18            2061.7576433
28 Apr 2022 14:56:25.654    28 Apr 2022 14:56:35.464      9.8100890522    Earth           Penumbra    18            2061.7576433
28 Apr 2022 15:55:43.804    28 Apr 2022 15:55:53.533      9.7283249488    Earth           Penumbra    19            2060.6923786
28 Apr 2022 15:55:53.533    28 Apr 2022 16:29:54.670      2041.1376243    Earth           Umbra       19            2060.6923786
28 Apr 2022 16:29:54.670    28 Apr 2022 16:30:04.497      9.8264293629    Earth           Penumbra    19            2060.6923786
28 Apr 2022 17:29:13.879    28 Apr 2022 17:29:23.624      9.7447020351    Earth           Penumbra    20            2059.6393725
28 Apr 2022 17:29:23.624    28 Apr 2022 18:03:23.676      2040.0524059    Earth           Umbra       20            2059.6393725
28 Apr 2022 18:03:23.676    28 Apr 2022 18:03:33.519      9.8422645591    Earth           Penumbra    20            2059.6393725
28 Apr 2022 19:02:43.942    28 Apr 2022 19:02:53.704      9.7611734178    Earth           Penumbra    21            2058.6110312
28 Apr 2022 19:02:53.704    28 Apr 2022 19:36:52.695      2038.9917904    Earth           Umbra       21            2058.6110312
28 Apr 2022 19:36:52.695    28 Apr 2022 19:37:02.553      9.8580673803    Earth           Penumbra    21            2058.6110312
28 Apr 2022 20:36:14.021    28 Apr 2022 20:36:23.799      9.7779465490    Earth           Penumbra    22            2057.6017855
28 Apr 2022 20:36:23.799    28 Apr 2022 21:10:21.749      2037.9495554    Earth           Umbra       22            2057.6017855
28 Apr 2022 21:10:21.749    28 Apr 2022 21:10:31.623      9.8742835340    Earth           Penumbra    22            2057.6017855
28 Apr 2022 22:09:44.113    28 Apr 2022 22:09:53.908      9.7950006835    Earth           Penumbra    23            2056.6017585
28 Apr 2022 22:09:53.908    28 Apr 2022 22:43:50.824      2036.9159354    Earth           Umbra       23            2056.6017585
28 Apr 2022 22:43:50.824    28 Apr 2022 22:44:00.715      9.8908224958    Earth           Penumbra    23            2056.6017585
28 Apr 2022 23:43:14.214    28 Apr 2022 23:43:24.026      9.8120475886    Earth           Penumbra    24            2055.6075707
28 Apr 2022 23:43:24.026    29 Apr 2022 00:17:19.914      2035.8883597    Earth           Umbra       24            2055.6075707
29 Apr 2022 00:17:19.914    29 Apr 2022 00:17:29.821      9.9071634351    Earth           Penumbra    24            2055.6075707
29 Apr 2022 01:16:44.357    29 Apr 2022 01:16:54.186      9.8287811154    Earth           Penumbra    25            2054.6175420
29 Apr 2022 01:16:54.186    29 Apr 2022 01:50:49.052      2034.8658409    Earth           Umbra       25            2054.6175420
29 Apr 2022 01:50:49.052    29 Apr 2022 01:50:58.975      9.9229200510    Earth           Penumbra    25            2054.6175420
29 Apr 2022 02:50:14.580    29 Apr 2022 02:50:24.425      9.8451827187    Earth           Penumbra    26            2053.6289287
29 Apr 2022 02:50:24.425    29 Apr 2022 03:24:18.271      2033.8455317    Earth           Umbra       26            2053.6289287
29 Apr 2022 03:24:18.271    29 Apr 2022 03:24:28.209      9.9382143002    Earth           Penumbra    26            2053.6289287
29 Apr 2022 04:23:44.859    29 Apr 2022 04:23:54.720      9.8614309332    Earth           Penumbra    27            2052.6417176
29 Apr 2022 04:23:54.720    29 Apr 2022 04:57:47.547      2032.8268853    Earth           Umbra       27            2052.6417176
29 Apr 2022 04:57:47.547    29 Apr 2022 04:57:57.501      9.9534013658    Earth           Penumbra    27            2052.6417176
29 Apr 2022 05:57:15.123    29 Apr 2022 05:57:25.000      9.8775185295    Earth           Penumbra    28            2051.6575180
29 Apr 2022 05:57:25.000    29 Apr 2022 06:31:16.812      2031.8114424    Earth           Umbra       28            2051.6575180
29 Apr 2022 06:31:16.812    29 Apr 2022 06:31:26.780      9.9685569992    Earth           Penumbra    28            2051.6575180
29 Apr 2022 07:30:45.318    29 Apr 2022 07:30:55.211      9.8932364839    Earth           Penumbra    29            2050.6779785
29 Apr 2022 07:30:55.211    29 Apr 2022 08:04:46.013      2030.8013415    Earth           Umbra       29            2050.6779785
29 Apr 2022 08:04:46.013    29 Apr 2022 08:04:55.996      9.9834005116    Earth           Penumbra    29            2050.6779785
29 Apr 2022 09:04:15.451    29 Apr 2022 09:04:25.359      9.9085781956    Earth           Penumbra    30            2049.7098872
29 Apr 2022 09:04:25.359    29 Apr 2022 09:38:15.163      2029.8034909    Earth           Umbra       30            2049.7098872
29 Apr 2022 09:38:15.163    29 Apr 2022 09:38:25.161      9.9978181184    Earth           Penumbra    30            2049.7098872
29 Apr 2022 10:37:45.577    29 Apr 2022 10:37:55.501      9.9238397554    Earth           Penumbra    31            2048.7625082
29 Apr 2022 10:37:55.501    29 Apr 2022 11:11:44.327      2028.8265084    Earth           Umbra       31            2048.7625082
29 Apr 2022 11:11:44.327    29 Apr 2022 11:11:54.339      10.012159974    Earth           Penumbra    31            2048.7625082
29 Apr 2022 12:11:15.760    29 Apr 2022 12:11:25.699      9.9392088130    Earth           Penumbra    32            2047.8326619
29 Apr 2022 12:11:25.699    29 Apr 2022 12:45:13.566      2027.8666429    Earth           Umbra       32            2047.8326619
29 Apr 2022 12:45:13.566    29 Apr 2022 12:45:23.593      10.026810179    Earth           Penumbra    32            2047.8326619
29 Apr 2022 13:44:46.015    29 Apr 2022 13:44:55.970      9.9545137491    Earth           Penumbra    33            2046.9043735
29 Apr 2022 13:44:55.970    29 Apr 2022 14:18:42.878      2026.9082573    Earth           Umbra       33            2046.9043735
29 Apr 2022 14:18:42.878    29 Apr 2022 14:18:52.919      10.041602456    Earth           Penumbra    33            2046.9043735
29 Apr 2022 15:18:16.294    29 Apr 2022 15:18:26.263      9.9694911623    Earth           Penumbra    34            2045.9720460
29 Apr 2022 15:18:26.263    29 Apr 2022 15:52:12.210      2025.9465977    Earth           Umbra       34            2045.9720460
29 Apr 2022 15:52:12.210    29 Apr 2022 15:52:22.266      10.055957199    Earth           Penumbra    34            2045.9720460
29 Apr 2022 16:51:46.546    29 Apr 2022 16:51:56.530      9.9841448246    Earth           Penumbra    35            2045.0515832
29 Apr 2022 16:51:56.530    29 Apr 2022 17:25:41.528      2024.9978035    Earth           Umbra       35            2045.0515832
29 Apr 2022 17:25:41.528    29 Apr 2022 17:25:51.598      10.069634893    Earth           Penumbra    35            2045.0515832
29 Apr 2022 18:25:16.777    29 Apr 2022 18:25:26.776      9.9987371941    Earth           Penumbra    36            2044.1597378
29 Apr 2022 18:25:26.776    29 Apr 2022 18:59:10.854      2024.0779684    Earth           Umbra       36            2044.1597378
29 Apr 2022 18:59:10.854    29 Apr 2022 18:59:20.937      10.083032213    Earth           Penumbra    36            2044.1597378
29 Apr 2022 19:58:47.020    29 Apr 2022 19:58:57.033      10.013529786    Earth           Penumbra    37            2043.2948188
29 Apr 2022 19:58:57.033    29 Apr 2022 20:32:40.218      2023.1845936    Earth           Umbra       37            2043.2948188
29 Apr 2022 20:32:40.218    29 Apr 2022 20:32:50.315      10.096695449    Earth           Penumbra    37            2043.2948188
29 Apr 2022 21:32:17.277    29 Apr 2022 21:32:27.305      10.028557177    Earth           Penumbra    38            2042.4456293
29 Apr 2022 21:32:27.305    29 Apr 2022 22:06:09.612      2022.3063850    Earth           Umbra       38            2042.4456293
29 Apr 2022 22:06:09.612    29 Apr 2022 22:06:19.722      10.110687150    Earth           Penumbra    38            2042.4456293
29 Apr 2022 23:05:47.536    29 Apr 2022 23:05:57.580      10.043545591    Earth           Penumbra    39            2041.6067647
29 Apr 2022 23:05:57.580    29 Apr 2022 23:39:39.018      2021.4387134    Earth           Umbra       39            2041.6067647
29 Apr 2022 23:39:39.018    29 Apr 2022 23:39:49.143      10.124505660    Earth           Penumbra    39            2041.6067647
30 Apr 2022 00:39:17.823    30 Apr 2022 00:39:27.881      10.058129474    Earth           Penumbra    40            2040.7774108
30 Apr 2022 00:39:27.881    30 Apr 2022 01:13:08.462      2020.5816424    Earth           Umbra       40            2040.7774108
30 Apr 2022 01:13:08.462    30 Apr 2022 01:13:18.600      10.137638950    Earth           Penumbra    40            2040.7774108
30 Apr 2022 02:12:48.177    30 Apr 2022 02:12:58.249      10.072215786    Earth           Penumbra    41            2039.9558087
30 Apr 2022 02:12:58.249    30 Apr 2022 02:46:37.983      2019.7335128    Earth           Umbra       41            2039.9558087
30 Apr 2022 02:46:37.983    30 Apr 2022 02:46:48.133      10.150080104    Earth           Penumbra    41            2039.9558087
30 Apr 2022 03:46:18.589    30 Apr 2022 03:46:28.675      10.086007579    Earth           Penumbra    42            2039.1413363
30 Apr 2022 03:46:28.675    30 Apr 2022 04:20:07.568      2018.8930894    Earth           Umbra       42            2039.1413363
30 Apr 2022 04:20:07.568    30 Apr 2022 04:20:17.730      10.162239312    Earth           Penumbra    42            2039.1413363
30 Apr 2022 05:19:48.992    30 Apr 2022 05:19:59.091      10.099596006    Earth           Penumbra    43            2038.3352623
30 Apr 2022 05:19:59.091    30 Apr 2022 05:53:37.153      2018.0613130    Earth           Umbra       43            2038.3352623
30 Apr 2022 05:53:37.153    30 Apr 2022 05:53:47.327      10.174353258    Earth           Penumbra    43            2038.3352623
30 Apr 2022 06:53:19.322    30 Apr 2022 06:53:29.435      10.112788389    Earth           Penumbra    44            2037.5391152
30 Apr 2022 06:53:29.435    30 Apr 2022 07:27:06.675      2017.2401359    Earth           Umbra       44            2037.5391152
30 Apr 2022 07:27:06.675    30 Apr 2022 07:27:16.861      10.186190915    Earth           Penumbra    44            2037.5391152
30 Apr 2022 08:26:49.575    30 Apr 2022 08:26:59.701      10.125481000    Earth           Penumbra    45            2036.7588155
30 Apr 2022 08:26:59.701    30 Apr 2022 09:00:36.137      2016.4358296    Earth           Umbra       45            2036.7588155
30 Apr 2022 09:00:36.137    30 Apr 2022 09:00:46.334      10.197504913    Earth           Penumbra    45            2036.7588155
30 Apr 2022 10:00:19.804    30 Apr 2022 10:00:29.942      10.137936613    Earth           Penumbra    46            2036.0046222
30 Apr 2022 10:00:29.942    30 Apr 2022 10:34:05.600      2015.6581445    Earth           Umbra       46            2036.0046222
30 Apr 2022 10:34:05.600    30 Apr 2022 10:34:15.809      10.208541050    Earth           Penumbra    46            2036.0046222
30 Apr 2022 11:33:50.078    30 Apr 2022 11:34:00.228      10.150443774    Earth           Penumbra    47            2035.2769751
30 Apr 2022 11:34:00.228    30 Apr 2022 12:07:35.135      2014.9067715    Earth           Umbra       47            2035.2769751
30 Apr 2022 12:07:35.135    30 Apr 2022 12:07:45.355      10.219759808    Earth           Penumbra    47            2035.2769751
30 Apr 2022 13:07:20.421    30 Apr 2022 13:07:30.584      10.162901273    Earth           Penumbra    48            2034.5602812
30 Apr 2022 13:07:30.584    30 Apr 2022 13:41:04.750      2014.1662345    Earth           Umbra       48            2034.5602812
30 Apr 2022 13:41:04.750    30 Apr 2022 13:41:14.981      10.231145471    Earth           Penumbra    48            2034.5602812
30 Apr 2022 14:40:50.789    30 Apr 2022 14:41:00.964      10.174973099    Earth           Penumbra    49            2033.8430665
30 Apr 2022 14:41:00.964    30 Apr 2022 15:14:34.390      2013.4259621    Earth           Umbra       49            2033.8430665
30 Apr 2022 15:14:34.390    30 Apr 2022 15:14:44.632      10.242131318    Earth           Penumbra    49            2033.8430665
30 Apr 2022 16:14:21.127    30 Apr 2022 16:14:31.313      10.186559614    Earth           Penumbra    50            2033.1364777
30 Apr 2022 16:14:31.313    30 Apr 2022 16:48:04.011      2012.6976015    Earth           Umbra       50            2033.1364777
30 Apr 2022 16:48:04.011    30 Apr 2022 16:48:14.263      10.252316587    Earth           Penumbra    50            2033.1364777
30 Apr 2022 17:47:51.432    30 Apr 2022 17:48:01.630      10.197910701    Earth           Penumbra    51            2032.4601323
30 Apr 2022 17:48:01.630    30 Apr 2022 18:21:33.630      2012.0002534    Earth           Umbra       51            2032.4601323
30 Apr 2022 18:21:33.630    30 Apr 2022 18:21:43.892      10.261968139    Earth           Penumbra    51            2032.4601323
30 Apr 2022 19:21:21.741    30 Apr 2022 19:21:31.951      10.209342570    Earth           Penumbra    52            2031.8177012
30 Apr 2022 19:21:31.951    30 Apr 2022 19:55:03.287      2011.3366651    Earth           Umbra       52            2031.8177012
30 Apr 2022 19:55:03.287    30 Apr 2022 19:55:13.559      10.271693557    Earth           Penumbra    52            2031.8177012
30 Apr 2022 20:54:52.064    30 Apr 2022 20:55:02.285      10.220951401    Earth           Penumbra    53            2031.1983995
30 Apr 2022 20:55:02.285    30 Apr 2022 21:28:32.981      2010.6957368    Earth           Umbra       53            2031.1983995
30 Apr 2022 21:28:32.981    30 Apr 2022 21:28:43.262      10.281711293    Earth           Penumbra    53            2031.1983995
30 Apr 2022 22:28:22.384    30 Apr 2022 22:28:32.617      10.232480394    Earth           Penumbra    54            2030.5941814
30 Apr 2022 22:28:32.617    30 Apr 2022 23:02:02.687      2010.0700889    Earth           Umbra       54            2030.5941814
30 Apr 2022 23:02:02.687    30 Apr 2022 23:02:12.978      10.291612102    Earth           Penumbra    54            2030.5941814
01 May 2022 00:01:52.716    01 May 2022 00:02:02.959      10.243537277    Earth           Penumbra    55            2030.0036875
01 May 2022 00:02:02.959    01 May 2022 00:35:32.419      2009.4593619    Earth           Umbra       55            2030.0036875
01 May 2022 00:35:32.419    01 May 2022 00:35:42.719      10.300788400    Earth           Penumbra    55            2030.0036875
01 May 2022 01:35:23.099    01 May 2022 01:35:33.353      10.253951058    Earth           Penumbra    56            2029.4261085
01 May 2022 01:35:33.353    01 May 2022 02:09:02.216      2008.8630738    Earth           Umbra       56            2029.4261085
01 May 2022 02:09:02.216    01 May 2022 02:09:12.525      10.309083655    Earth           Penumbra    56            2029.4261085
01 May 2022 03:08:53.537    01 May 2022 03:09:03.801      10.263919132    Earth           Penumbra    57            2028.8608317
01 May 2022 03:09:03.801    01 May 2022 03:42:32.081      2008.2800234    Earth           Umbra       57            2028.8608317
01 May 2022 03:42:32.081    01 May 2022 03:42:42.398      10.316889198    Earth           Penumbra    57            2028.8608317
01 May 2022 04:42:23.971    01 May 2022 04:42:34.244      10.273627890    Earth           Penumbra    58            2028.3088947
01 May 2022 04:42:34.244    01 May 2022 05:16:01.955      2007.7106663    Earth           Umbra       58            2028.3088947
01 May 2022 05:16:01.955    01 May 2022 05:16:12.280      10.324600444    Earth           Penumbra    58            2028.3088947
01 May 2022 06:15:54.331    01 May 2022 06:16:04.614      10.282939032    Earth           Penumbra    59            2027.7715136
01 May 2022 06:16:04.614    01 May 2022 06:49:31.770      2007.1564760    Earth           Umbra       59            2027.7715136
01 May 2022 06:49:31.770    01 May 2022 06:49:42.102      10.332098580    Earth           Penumbra    59            2027.7715136
01 May 2022 07:49:24.599    01 May 2022 07:49:34.891      10.291669623    Earth           Penumbra    60            2027.2533146
01 May 2022 07:49:34.891    01 May 2022 08:23:01.514      2006.6225851    Earth           Umbra       60            2027.2533146
01 May 2022 08:23:01.514    01 May 2022 08:23:11.853      10.339059855    Earth           Penumbra    60            2027.2533146
01 May 2022 09:22:54.823    01 May 2022 09:23:05.123      10.300016426    Earth           Penumbra    61            2026.7646901
01 May 2022 09:23:05.123    01 May 2022 09:56:31.242      2006.1191014    Earth           Umbra       61            2026.7646901
01 May 2022 09:56:31.242    01 May 2022 09:56:41.588      10.345572280    Earth           Penumbra    61            2026.7646901
01 May 2022 10:56:25.076    01 May 2022 10:56:35.385      10.308332113    Earth           Penumbra    62            2026.3097727
01 May 2022 10:56:35.385    01 May 2022 11:30:01.034      2005.6493308    Earth           Umbra       62            2026.3097727
01 May 2022 11:30:01.034    01 May 2022 11:30:11.386      10.352109850    Earth           Penumbra    62            2026.3097727
01 May 2022 12:29:55.395    01 May 2022 12:30:05.712      10.316618567    Earth           Penumbra    63            2025.8751251
01 May 2022 12:30:05.712    01 May 2022 13:03:30.911      2005.1996884    Earth           Umbra       63            2025.8751251
01 May 2022 13:03:30.911    01 May 2022 13:03:41.270      10.358818097    Earth           Penumbra    63            2025.8751251
01 May 2022 14:03:25.740    01 May 2022 14:03:36.065      10.324510233    Earth           Penumbra    64            2025.4444476
01 May 2022 14:03:36.065    01 May 2022 14:37:00.820      2004.7547313    Earth           Umbra       64            2025.4444476
01 May 2022 14:37:00.820    01 May 2022 14:37:11.185      10.365206050    Earth           Penumbra    64            2025.4444476
01 May 2022 15:36:56.051    01 May 2022 15:37:06.383      10.331795574    Earth           Penumbra    65            2025.0222700
01 May 2022 15:37:06.383    01 May 2022 16:10:30.702      2004.3197278    Earth           Umbra       65            2025.0222700
01 May 2022 16:10:30.702    01 May 2022 16:10:41.073      10.370746593    Earth           Penumbra    65            2025.0222700
01 May 2022 17:10:26.317    01 May 2022 17:10:36.655      10.338670411    Earth           Penumbra    66            2024.6287519
01 May 2022 17:10:36.655    01 May 2022 17:44:00.570      2003.9145336    Earth           Umbra       66            2024.6287519
01 May 2022 17:44:00.570    01 May 2022 17:44:10.945      10.375547851    Earth           Penumbra    66            2024.6287519
01 May 2022 18:43:56.576    01 May 2022 18:44:06.921      10.345511616    Earth           Penumbra    67            2024.2735081
01 May 2022 18:44:06.921    01 May 2022 19:17:30.469      2003.5477891    Earth           Umbra       67            2024.2735081
01 May 2022 19:17:30.469    01 May 2022 19:17:40.849      10.380207351    Earth           Penumbra    67            2024.2735081
01 May 2022 20:17:26.846    01 May 2022 20:17:37.198      10.352462518    Earth           Penumbra    68            2023.9483860
01 May 2022 20:17:37.198    01 May 2022 20:51:00.409      2003.2108303    Earth           Umbra       68            2023.9483860
01 May 2022 20:51:00.409    01 May 2022 20:51:10.794      10.385093163    Earth           Penumbra    68            2023.9483860
01 May 2022 21:50:57.110    01 May 2022 21:51:07.469      10.359314096    Earth           Penumbra    69            2023.6430762
01 May 2022 21:51:07.469    01 May 2022 22:24:30.363      2002.8938382    Earth           Umbra       69            2023.6430762
01 May 2022 22:24:30.363    01 May 2022 22:24:40.753      10.389923968    Earth           Penumbra    69            2023.6430762
01 May 2022 23:24:27.369    01 May 2022 23:24:37.735      10.365648929    Earth           Penumbra    70            2023.3542055
01 May 2022 23:24:37.735    01 May 2022 23:58:00.329      2002.5944779    Earth           Umbra       70            2023.3542055
01 May 2022 23:58:00.329    01 May 2022 23:58:10.724      10.394078668    Earth           Penumbra    70            2023.3542055
02 May 2022 00:57:57.662    02 May 2022 00:58:08.034      10.371242592    Earth           Penumbra    71            2023.0810567
02 May 2022 00:58:08.034    02 May 2022 01:31:30.346      2002.3125677    Earth           Umbra       71            2023.0810567
02 May 2022 01:31:30.346    02 May 2022 01:31:40.743      10.397246398    Earth           Penumbra    71            2023.0810567
02 May 2022 02:31:28.004    02 May 2022 02:31:38.380      10.376261990    Earth           Penumbra    72            2022.8233940
02 May 2022 02:31:38.380    02 May 2022 03:05:00.427      2002.0473993    Earth           Umbra       72            2022.8233940
02 May 2022 03:05:00.427    02 May 2022 03:05:10.827      10.399732681    Earth           Penumbra    72            2022.8233940
02 May 2022 04:04:58.346    02 May 2022 04:05:08.727      10.380963923    Earth           Penumbra    73            2022.5825525
02 May 2022 04:05:08.727    02 May 2022 04:38:30.526      2001.7995491    Earth           Umbra       73            2022.5825525
02 May 2022 04:38:30.526    02 May 2022 04:38:40.928      10.402039485    Earth           Penumbra    73            2022.5825525
02 May 2022 05:38:28.614    02 May 2022 05:38:39.000      10.385292757    Earth           Penumbra    74            2022.3596860
02 May 2022 05:38:39.000    02 May 2022 06:12:00.570      2001.5701727    Earth           Umbra       74            2022.3596860
02 May 2022 06:12:00.570    02 May 2022 06:12:10.974      10.404220561    Earth           Penumbra    74            2022.3596860
02 May 2022 07:11:58.779    02 May 2022 07:12:09.168      10.389030038    Earth           Penumbra    75            2022.1577547
02 May 2022 07:12:09.168    02 May 2022 07:45:30.531      2001.3627866    Earth           Umbra       75            2022.1577547
02 May 2022 07:45:30.531    02 May 2022 07:45:40.937      10.405938013    Earth           Penumbra    75            2022.1577547
02 May 2022 08:45:28.878    02 May 2022 08:45:39.271      10.392268805    Earth           Penumbra    76            2021.9861412
02 May 2022 08:45:39.271    02 May 2022 09:19:00.457      2001.1867579    Earth           Umbra       76            2021.9861412
02 May 2022 09:19:00.457    02 May 2022 09:19:10.864      10.407114518    Earth           Penumbra    76            2021.9861412
02 May 2022 10:18:58.990    02 May 2022 10:19:09.385      10.395396617    Earth           Penumbra    77            2021.8521919
02 May 2022 10:19:09.385    02 May 2022 10:52:30.434      2001.0486334    Earth           Umbra       77            2021.8521919
02 May 2022 10:52:30.434    02 May 2022 10:52:40.842      10.408161837    Earth           Penumbra    77            2021.8521919
02 May 2022 11:52:29.161    02 May 2022 11:52:39.559      10.398520972    Earth           Penumbra    78            2021.7462524
02 May 2022 11:52:39.559    02 May 2022 12:26:00.497      2000.9383717    Earth           Umbra       78            2021.7462524
02 May 2022 12:26:00.497    02 May 2022 12:26:10.907      10.409359715    Earth           Penumbra    78            2021.7462524
02 May 2022 13:25:59.360    02 May 2022 13:26:09.761      10.401300516    Earth           Penumbra    79            2021.6490299
02 May 2022 13:26:09.761    02 May 2022 13:59:30.599      2000.8373790    Earth           Umbra       79            2021.6490299
02 May 2022 13:59:30.599    02 May 2022 13:59:41.009      10.410350456    Earth           Penumbra    79            2021.6490299
02 May 2022 14:59:29.522    02 May 2022 14:59:39.925      10.403411184    Earth           Penumbra    80            2021.5574028
02 May 2022 14:59:39.925    02 May 2022 15:33:00.669      2000.7434443    Earth           Umbra       80            2021.5574028
02 May 2022 15:33:00.669    02 May 2022 15:33:11.079      10.410547222    Earth           Penumbra    80            2021.5574028
02 May 2022 16:32:59.627    02 May 2022 16:33:10.032      10.404977133    Earth           Penumbra    81            2021.4892877
02 May 2022 16:33:10.032    02 May 2022 17:06:30.706      2000.6744307    Earth           Umbra       81            2021.4892877
02 May 2022 17:06:30.706    02 May 2022 17:06:41.116      10.409879917    Earth           Penumbra    81            2021.4892877
02 May 2022 18:06:29.712    02 May 2022 18:06:40.119      10.406400065    Earth           Penumbra    82            2021.4596573
02 May 2022 18:06:40.119    02 May 2022 18:40:00.763      2000.6443806    Earth           Umbra       82            2021.4596573
02 May 2022 18:40:00.763    02 May 2022 18:40:11.172      10.408876603    Earth           Penumbra    82            2021.4596573
02 May 2022 19:39:59.806    02 May 2022 19:40:10.213      10.407899693    Earth           Penumbra    83            2021.4650803
02 May 2022 19:40:10.213    02 May 2022 20:13:30.863      2000.6491781    Earth           Umbra       83            2021.4650803
02 May 2022 20:13:30.863    02 May 2022 20:13:41.271      10.408002476    Earth           Penumbra    83            2021.4650803
02 May 2022 21:13:29.890    02 May 2022 21:13:40.299      10.409294965    Earth           Penumbra    84            2021.4943804
02 May 2022 21:13:40.299    02 May 2022 21:47:00.977      2000.6779451    Earth           Umbra       84            2021.4943804
02 May 2022 21:47:00.977    02 May 2022 21:47:11.385      10.407140292    Earth           Penumbra    84            2021.4943804
02 May 2022 22:46:59.957    02 May 2022 22:47:10.368      10.410175379    Earth           Penumbra    85            2021.5413306
02 May 2022 22:47:10.368    02 May 2022 23:20:31.093      2000.7254300    Earth           Umbra       85            2021.5413306
02 May 2022 23:20:31.093    02 May 2022 23:20:41.499      10.405725217    Earth           Penumbra    85            2021.5413306
03 May 2022 00:20:30.039    03 May 2022 00:20:40.450      10.410272190    Earth           Penumbra    86            2021.6039566
03 May 2022 00:20:40.450    03 May 2022 00:54:01.240      2000.7903515    Earth           Umbra       86            2021.6039566
03 May 2022 00:54:01.240    03 May 2022 00:54:11.643      10.403332917    Earth           Penumbra    86            2021.6039566
03 May 2022 01:54:00.160    03 May 2022 01:54:10.570      10.409713641    Earth           Penumbra    87            2021.6821148
03 May 2022 01:54:10.570    03 May 2022 02:27:31.442      2000.8722690    Earth           Umbra       87            2021.6821148
03 May 2022 02:27:31.442    03 May 2022 02:27:41.842      10.400132183    Earth           Penumbra    87            2021.6821148
03 May 2022 03:27:30.285    03 May 2022 03:27:40.694      10.408803995    Earth           Penumbra    88            2021.7780265
03 May 2022 03:27:40.694    03 May 2022 04:01:01.667      2000.9725667    Earth           Umbra       88            2021.7780265
03 May 2022 04:01:01.667    03 May 2022 04:01:12.063      10.396655789    Earth           Penumbra    88            2021.7780265
03 May 2022 05:01:00.341    03 May 2022 05:01:10.749      10.407573113    Earth           Penumbra    89            2021.8935541
03 May 2022 05:01:10.749    03 May 2022 05:34:31.842      2001.0928471    Earth           Umbra       89            2021.8935541
03 May 2022 05:34:31.842    03 May 2022 05:34:42.235      10.393133818    Earth           Penumbra    89            2021.8935541
03 May 2022 06:34:30.285    03 May 2022 06:34:40.690      10.405804741    Earth           Penumbra    90            2022.0300993
03 May 2022 06:34:40.690    03 May 2022 07:08:01.925      2001.2349933    Earth           Umbra       90            2022.0300993
03 May 2022 07:08:01.925    03 May 2022 07:08:12.315      10.389301297    Earth           Penumbra    90            2022.0300993
03 May 2022 08:08:00.143    03 May 2022 08:08:10.546      10.403500765    Earth           Penumbra    91            2022.1948053
03 May 2022 08:08:10.546    03 May 2022 08:41:31.953      2001.4063616    Earth           Umbra       91            2022.1948053
03 May 2022 08:41:31.953    03 May 2022 08:41:42.337      10.384942917    Earth           Penumbra    91            2022.1948053
03 May 2022 09:41:29.995    03 May 2022 09:41:40.396      10.401015740    Earth           Penumbra    92            2022.3970702
03 May 2022 09:41:40.396    03 May 2022 10:15:02.011      2001.6157141    Earth           Umbra       92            2022.3970702
03 May 2022 10:15:02.011    03 May 2022 10:15:12.392      10.380340309    Earth           Penumbra    92            2022.3970702
03 May 2022 11:14:59.899    03 May 2022 11:15:10.297      10.398567491    Earth           Penumbra    93            2022.6321756
03 May 2022 11:15:10.297    03 May 2022 11:48:32.155      2001.8577526    Earth           Umbra       93            2022.6321756
03 May 2022 11:48:32.155    03 May 2022 11:48:42.531      10.375855572    Earth           Penumbra    93            2022.6321756
03 May 2022 12:48:29.835    03 May 2022 12:48:40.230      10.395870928    Earth           Penumbra    94            2022.8802579
03 May 2022 12:48:40.230    03 May 2022 13:22:02.343      2002.1130925    Earth           Umbra       94            2022.8802579
03 May 2022 13:22:02.343    03 May 2022 13:22:12.715      10.371294455    Earth           Penumbra    94            2022.8802579
03 May 2022 14:21:59.733    03 May 2022 14:22:10.125      10.392525920    Earth           Penumbra    95            2023.1306265
03 May 2022 14:22:10.125    03 May 2022 14:55:32.497      2002.3720279    Earth           Umbra       95            2023.1306265
03 May 2022 14:55:32.497    03 May 2022 14:55:42.863      10.366072634    Earth           Penumbra    95            2023.1306265
03 May 2022 15:55:29.563    03 May 2022 15:55:39.952      10.388558242    Earth           Penumbra    96            2023.3962723
03 May 2022 15:55:39.952    03 May 2022 16:29:02.599      2002.6477434    Earth           Umbra       96            2023.3962723
03 May 2022 16:29:02.599    03 May 2022 16:29:12.959      10.359970713    Earth           Penumbra    96            2023.3962723
03 May 2022 17:28:59.362    03 May 2022 17:29:09.746      10.384368338    Earth           Penumbra    97            2023.6958052
03 May 2022 17:29:09.746    03 May 2022 18:02:32.704      2002.9580405    Earth           Umbra       97            2023.6958052
03 May 2022 18:02:32.704    03 May 2022 18:02:43.057      10.353396367    Earth           Penumbra    97            2023.6958052
03 May 2022 19:02:29.163    03 May 2022 19:02:39.543      10.380244127    Earth           Penumbra    98            2024.0318556
03 May 2022 19:02:39.543    03 May 2022 19:36:02.848      2003.3047543    Earth           Umbra       98            2024.0318556
03 May 2022 19:36:02.848    03 May 2022 19:36:13.195      10.346857226    Earth           Penumbra    98            2024.0318556
03 May 2022 20:35:58.956    03 May 2022 20:36:09.332      10.376057995    Earth           Penumbra    99            2024.3944099
03 May 2022 20:36:09.332    03 May 2022 21:09:33.010      2003.6779716    Earth           Umbra       99            2024.3944099
03 May 2022 21:09:33.010    03 May 2022 21:09:43.350      10.340380319    Earth           Penumbra    99            2024.3944099
03 May 2022 22:09:28.722    03 May 2022 22:09:39.093      10.371404781    Earth           Penumbra    100           2024.7745445
03 May 2022 22:09:39.093    03 May 2022 22:43:03.163      2004.0696286    Earth           Umbra       100           2024.7745445
03 May 2022 22:43:03.163    03 May 2022 22:43:13.496      10.333511140    Earth           Penumbra    100           2024.7745445
03 May 2022 23:42:58.485    03 May 2022 23:43:08.851      10.365986195    Earth           Penumbra    101           2025.1678665
03 May 2022 23:43:08.851    04 May 2022 00:16:33.327      2004.4760895    Earth           Umbra       101           2025.1678665
04 May 2022 00:16:33.327    04 May 2022 00:16:43.653      10.325790779    Earth           Penumbra    101           2025.1678665
04 May 2022 01:16:28.276    04 May 2022 01:16:38.636      10.359890875    Earth           Penumbra    102           2025.5734325
04 May 2022 01:16:38.636    04 May 2022 01:50:03.532      2004.8963038    Earth           Umbra       102           2025.5734325
04 May 2022 01:50:03.532    04 May 2022 01:50:13.850      10.317237780    Earth           Penumbra    102           2025.5734325
04 May 2022 02:49:58.075    04 May 2022 02:50:08.428      10.353439429    Earth           Penumbra    103           2025.9944525
04 May 2022 02:50:08.428    04 May 2022 03:23:33.761      2005.3326891    Earth           Umbra       103           2025.9944525
04 May 2022 03:23:33.761    04 May 2022 03:23:44.069      10.308323940    Earth           Penumbra    103           2025.9944525
04 May 2022 04:23:27.811    04 May 2022 04:23:38.158      10.346748785    Earth           Penumbra    104           2026.4345307
04 May 2022 04:23:38.158    04 May 2022 04:57:03.947      2005.7883592    Earth           Umbra       104           2026.4345307
04 May 2022 04:57:03.947    04 May 2022 04:57:14.246      10.299422673    Earth           Penumbra    104           2026.4345307
04 May 2022 05:56:57.432    04 May 2022 05:57:07.772      10.339630034    Earth           Penumbra    105           2026.8943351
04 May 2022 05:57:07.772    04 May 2022 06:30:34.036      2006.2643031    Earth           Umbra       105           2026.8943351
04 May 2022 06:30:34.036    04 May 2022 06:30:44.326      10.290401964    Earth           Penumbra    105           2026.8943351
04 May 2022 07:30:26.951    04 May 2022 07:30:37.283      10.332011199    Earth           Penumbra    106           2027.3779201
04 May 2022 07:30:37.283    04 May 2022 08:04:04.048      2006.7649324    Earth           Umbra       106           2027.3779201
04 May 2022 08:04:04.048    04 May 2022 08:04:14.329      10.280976410    Earth           Penumbra    106           2027.3779201
04 May 2022 09:03:56.445    04 May 2022 09:04:06.769      10.324190569    Earth           Penumbra    107           2027.8949875
04 May 2022 09:04:06.769    04 May 2022 09:37:34.068      2007.2995321    Earth           Umbra       107           2027.8949875
04 May 2022 09:37:34.068    04 May 2022 09:37:44.340      10.271264822    Earth           Penumbra    107           2027.8949875
04 May 2022 10:37:25.983    04 May 2022 10:37:36.300      10.316448205    Earth           Penumbra    108           2028.4460369
04 May 2022 10:37:36.300    04 May 2022 11:11:04.168      2007.8679524    Earth           Umbra       108           2028.4460369
04 May 2022 11:11:04.168    04 May 2022 11:11:14.429      10.261636216    Earth           Penumbra    108           2028.4460369
04 May 2022 12:10:55.558    04 May 2022 12:11:05.866      10.308588913    Earth           Penumbra    109           2029.0132420
04 May 2022 12:11:05.866    04 May 2022 12:44:34.319      2008.4526015    Earth           Umbra       109           2029.0132420
04 May 2022 12:44:34.319    04 May 2022 12:44:44.571      10.252051614    Earth           Penumbra    109           2029.0132420
04 May 2022 13:44:25.099    04 May 2022 13:44:35.399      10.300173587    Earth           Penumbra    110           2029.5796639
04 May 2022 13:44:35.399    04 May 2022 14:18:04.436      2009.0374926    Earth           Umbra       110           2029.5796639
04 May 2022 14:18:04.436    04 May 2022 14:18:14.678      10.241997731    Earth           Penumbra    110           2029.5796639
04 May 2022 15:17:54.564    04 May 2022 15:18:04.855      10.291120817    Earth           Penumbra    111           2030.1513095
04 May 2022 15:18:04.855    04 May 2022 15:51:34.484      2009.6290420    Earth           Umbra       111           2030.1513095
04 May 2022 15:51:34.484    04 May 2022 15:51:44.715      10.231146729    Earth           Penumbra    111           2030.1513095
04 May 2022 16:51:23.984    04 May 2022 16:51:34.266      10.281804646    Earth           Penumbra    112           2030.7479528
04 May 2022 16:51:34.266    04 May 2022 17:25:04.513      2010.2463870    Earth           Umbra       112           2030.7479528
04 May 2022 17:25:04.513    04 May 2022 17:25:14.732      10.219761066    Earth           Penumbra    112           2030.7479528
04 May 2022 18:24:53.404    04 May 2022 18:25:03.676      10.272567999    Earth           Penumbra    113           2031.3785113
04 May 2022 18:25:03.676    04 May 2022 18:58:34.574      2010.8976125    Earth           Umbra       113           2031.3785113
04 May 2022 18:58:34.574    04 May 2022 18:58:44.782      10.208330769    Earth           Penumbra    113           2031.3785113
04 May 2022 19:58:22.816    04 May 2022 19:58:33.079      10.263351153    Earth           Penumbra    114           2032.0361392
04 May 2022 19:58:33.079    04 May 2022 20:32:04.655      2011.5757904    Earth           Umbra       114           2032.0361392
04 May 2022 20:32:04.655    04 May 2022 20:32:14.852      10.196997598    Earth           Penumbra    114           2032.0361392
04 May 2022 21:31:52.197    04 May 2022 21:32:02.450      10.253762151    Earth           Penumbra    115           2032.7103198
04 May 2022 21:32:02.450    04 May 2022 22:05:34.721      2012.2711193    Earth           Umbra       115           2032.7103198
04 May 2022 22:05:34.721    04 May 2022 22:05:44.907      10.185438429    Earth           Penumbra    115           2032.7103198
04 May 2022 23:05:21.559    04 May 2022 23:05:31.803      10.243476613    Earth           Penumbra    116           2033.3937934
04 May 2022 23:05:31.803    04 May 2022 23:39:04.780      2012.9770964    Earth           Umbra       116           2033.3937934
04 May 2022 23:39:04.780    04 May 2022 23:39:14.953      10.173220444    Earth           Penumbra    116           2033.3937934
05 May 2022 00:38:50.940    05 May 2022 00:39:01.172      10.232543887    Earth           Penumbra    117           2034.0837923
05 May 2022 00:39:01.172    05 May 2022 01:12:34.863      2013.6909941    Earth           Umbra       117           2034.0837923
05 May 2022 01:12:34.863    05 May 2022 01:12:45.023      10.160254373    Earth           Penumbra    117           2034.0837923
05 May 2022 02:12:20.330    05 May 2022 02:12:30.552      10.221282695    Earth           Penumbra    118           2034.7839183
05 May 2022 02:12:30.552    05 May 2022 02:46:04.967      2014.4157412    Earth           Umbra       118           2034.7839183
05 May 2022 02:46:04.967    05 May 2022 02:46:15.114      10.146894457    Earth           Penumbra    118           2034.7839183
05 May 2022 03:45:49.669    05 May 2022 03:45:59.878      10.209881002    Earth           Penumbra    119           2035.5002046
05 May 2022 03:45:59.878    05 May 2022 04:19:35.035      2015.1567566    Earth           Umbra       119           2035.5002046
05 May 2022 04:19:35.035    05 May 2022 04:19:45.169      10.133566917    Earth           Penumbra    119           2035.5002046
05 May 2022 05:19:18.892    05 May 2022 05:19:29.091      10.198193591    Earth           Penumbra    120           2036.2340010
05 May 2022 05:19:29.091    05 May 2022 05:53:05.006      2015.9155140    Earth           Umbra       120           2036.2340010
05 May 2022 05:53:05.006    05 May 2022 05:53:15.126      10.120293440    Earth           Penumbra    120           2036.2340010
05 May 2022 06:52:48.003    05 May 2022 06:52:58.189      10.186103533    Earth           Penumbra    121           2036.9862534
05 May 2022 06:52:58.189    05 May 2022 07:26:34.882      2016.6933409    Earth           Umbra       121           2036.9862534
05 May 2022 07:26:34.882    05 May 2022 07:26:44.989      10.106809053    Earth           Penumbra    121           2036.9862534
05 May 2022 08:26:17.071    05 May 2022 08:26:27.244      10.173832113    Earth           Penumbra    122           2037.7650513
05 May 2022 08:26:27.244    05 May 2022 09:00:04.742      2017.4981362    Earth           Umbra       122           2037.7650513
05 May 2022 09:00:04.742    05 May 2022 09:00:14.836      10.093082953    Earth           Penumbra    122           2037.7650513
05 May 2022 09:59:46.175    05 May 2022 09:59:56.336      10.161690507    Earth           Penumbra    123           2038.5753042
05 May 2022 09:59:56.336    05 May 2022 10:33:34.671      2018.3342009    Earth           Umbra       123           2038.5753042
05 May 2022 10:33:34.671    05 May 2022 10:33:44.750      10.079412803    Earth           Penumbra    123           2038.5753042
05 May 2022 11:33:15.321    05 May 2022 11:33:25.470      10.149569332    Earth           Penumbra    124           2039.4034608
05 May 2022 11:33:25.470    05 May 2022 12:07:04.658      2019.1880146    Earth           Umbra       124           2039.4034608
05 May 2022 12:07:04.658    05 May 2022 12:07:14.724      10.065876867    Earth           Penumbra    124           2039.4034608
05 May 2022 13:06:44.440    05 May 2022 13:06:54.577      10.137038596    Earth           Penumbra    125           2040.2286478
05 May 2022 13:06:54.577    05 May 2022 13:40:34.617      2020.0395310    Earth           Umbra       125           2040.2286478
05 May 2022 13:40:34.617    05 May 2022 13:40:44.669      10.052078159    Earth           Penumbra    125           2040.2286478
05 May 2022 14:40:13.480    05 May 2022 14:40:23.604      10.123916622    Earth           Penumbra    126           2041.0489307
05 May 2022 14:40:23.604    05 May 2022 15:14:04.492      2020.8873834    Earth           Umbra       126           2041.0489307
05 May 2022 15:14:04.492    05 May 2022 15:14:14.529      10.037630692    Earth           Penumbra    126           2041.0489307
05 May 2022 16:13:42.465    05 May 2022 16:13:52.576      10.110511130    Earth           Penumbra    127           2041.8824962
05 May 2022 16:13:52.576    05 May 2022 16:47:34.325      2021.7493217    Earth           Umbra       127           2041.8824962
05 May 2022 16:47:34.325    05 May 2022 16:47:44.348      10.022663337    Earth           Penumbra    127           2041.8824962
05 May 2022 17:47:11.444    05 May 2022 17:47:21.541      10.097215965    Earth           Penumbra    128           2042.7436974
05 May 2022 17:47:21.541    05 May 2022 18:21:04.180      2022.6388798    Earth           Umbra       128           2042.7436974
05 May 2022 18:21:04.180    05 May 2022 18:21:14.188      10.007601685    Earth           Penumbra    128           2042.7436974
05 May 2022 19:20:40.420    05 May 2022 19:20:50.504      10.084042442    Earth           Penumbra    129           2043.6302846
05 May 2022 19:20:50.504    05 May 2022 19:54:34.057      2023.5535883    Earth           Umbra       129           2043.6302846
05 May 2022 19:54:34.057    05 May 2022 19:54:44.050      9.9926538183    Earth           Penumbra    129           2043.6302846
05 May 2022 20:54:09.362    05 May 2022 20:54:19.433      10.070629721    Earth           Penumbra    130           2044.5317042
05 May 2022 20:54:19.433    05 May 2022 21:28:03.916      2024.4834562    Earth           Umbra       130           2044.5317042
05 May 2022 21:28:03.916    05 May 2022 21:28:13.894      9.9776182557    Earth           Penumbra    130           2044.5317042
05 May 2022 22:27:38.277    05 May 2022 22:27:48.333      10.056626075    Earth           Penumbra    131           2045.4382582
05 May 2022 22:27:48.333    05 May 2022 23:01:33.753      2025.4194942    Earth           Umbra       131           2045.4382582
05 May 2022 23:01:33.753    05 May 2022 23:01:43.715      9.9621379282    Earth           Penumbra    131           2045.4382582
06 May 2022 00:01:07.198    06 May 2022 00:01:17.240      10.042035591    Earth           Penumbra    132           2046.3447158
06 May 2022 00:01:17.240    06 May 2022 00:35:03.597      2026.3566192    Earth           Umbra       132           2046.3447158
06 May 2022 00:35:03.597    06 May 2022 00:35:13.543      9.9460610189    Earth           Penumbra    132           2046.3447158
06 May 2022 01:34:36.133    06 May 2022 01:34:46.160      10.027165676    Earth           Penumbra    133           2047.2540265
06 May 2022 01:34:46.160    06 May 2022 02:08:33.457      2027.2972435    Earth           Umbra       133           2047.2540265
06 May 2022 02:08:33.457    06 May 2022 02:08:43.387      9.9296172964    Earth           Penumbra    133           2047.2540265
06 May 2022 03:08:05.027    06 May 2022 03:08:15.039      10.012252384    Earth           Penumbra    134           2048.1745436
06 May 2022 03:08:15.039    06 May 2022 03:42:03.288      2028.2490850    Earth           Umbra       134           2048.1745436
06 May 2022 03:42:03.288    06 May 2022 03:42:13.201      9.9132062634    Earth           Penumbra    134           2048.1745436
06 May 2022 04:41:33.812    06 May 2022 04:41:43.810      9.9972105352    Earth           Penumbra    135           2049.1097770
06 May 2022 04:41:43.810    06 May 2022 05:15:33.025      2029.2155877    Earth           Umbra       135           2049.1097770
06 May 2022 05:15:33.025    06 May 2022 05:15:42.922      9.8969787941    Earth           Penumbra    135           2049.1097770
06 May 2022 06:15:02.478    06 May 2022 06:15:12.459      9.9818945979    Earth           Penumbra    136           2050.0584970
06 May 2022 06:15:12.459    06 May 2022 06:49:02.655      2030.1958611    Earth           Umbra       136           2050.0584970
06 May 2022 06:49:02.655    06 May 2022 06:49:12.536      9.8807412665    Earth           Penumbra    136           2050.0584970
06 May 2022 07:48:31.085    06 May 2022 07:48:41.052      9.9664510461    Earth           Penumbra    137           2051.0256783
06 May 2022 07:48:41.052    06 May 2022 08:22:32.246      2031.1948593    Earth           Umbra       137           2051.0256783
06 May 2022 08:22:32.246    06 May 2022 08:22:42.111      9.8643679521    Earth           Penumbra    137           2051.0256783
06 May 2022 09:21:59.721    06 May 2022 09:22:09.672      9.9511850858    Earth           Penumbra    138           2052.0189190
06 May 2022 09:22:09.672    06 May 2022 09:56:01.891      2032.2196799    Earth           Umbra       138           2052.0189190
06 May 2022 09:56:01.891    06 May 2022 09:56:11.739      9.8480540444    Earth           Penumbra    138           2052.0189190
06 May 2022 10:55:28.404    06 May 2022 10:55:38.340      9.9360756576    Earth           Penumbra    139           2053.0302383
06 May 2022 10:55:38.340    06 May 2022 11:29:31.602      2033.2622317    Earth           Umbra       139           2053.0302383
06 May 2022 11:29:31.602    06 May 2022 11:29:41.434      9.8319309298    Earth           Penumbra    139           2053.0302383
06 May 2022 12:28:57.071    06 May 2022 12:29:06.991      9.9207169726    Earth           Penumbra    140           2054.0376788
06 May 2022 12:29:06.991    06 May 2022 13:03:01.293      2034.3012348    Earth           Umbra       140           2054.0376788
06 May 2022 13:03:01.293    06 May 2022 13:03:11.108      9.8157270346    Earth           Penumbra    140           2054.0376788
06 May 2022 14:02:25.659    06 May 2022 14:02:35.564      9.9048519158    Earth           Penumbra    141           2055.0316409
06 May 2022 14:02:35.564    06 May 2022 14:36:30.892      2035.3277349    Earth           Umbra       141           2055.0316409
06 May 2022 14:36:30.892    06 May 2022 14:36:40.691      9.7990541719    Earth           Penumbra    141           2055.0316409
06 May 2022 15:35:54.183    06 May 2022 15:36:04.072      9.8887099419    Earth           Penumbra    142           2056.0262540
06 May 2022 15:36:04.072    06 May 2022 16:10:00.427      2036.3556267    Earth           Umbra       142           2056.0262540
06 May 2022 16:10:00.427    06 May 2022 16:10:10.209      9.7819173709    Earth           Penumbra    142           2056.0262540
06 May 2022 17:09:22.696    06 May 2022 17:09:32.569      9.8726987257    Earth           Penumbra    143           2057.0396095
06 May 2022 17:09:32.569    06 May 2022 17:43:29.971      2037.4022386    Earth           Umbra       143           2057.0396095
06 May 2022 17:43:29.971    06 May 2022 17:43:39.736      9.7646721289    Earth           Penumbra    143           2057.0396095
06 May 2022 18:42:51.211    06 May 2022 18:43:01.068      9.8569125636    Earth           Penumbra    144           2058.0746986
06 May 2022 18:43:01.068    06 May 2022 19:16:59.538      2038.4702407    Earth           Umbra       144           2058.0746986
06 May 2022 19:16:59.538    06 May 2022 19:17:09.286      9.7475453862    Earth           Penumbra    144           2058.0746986
06 May 2022 20:16:19.697    06 May 2022 20:16:29.538      9.8410355626    Earth           Penumbra    145           2059.1224232
06 May 2022 20:16:29.538    06 May 2022 20:50:29.089      2039.5509533    Earth           Umbra       145           2059.1224232
06 May 2022 20:50:29.089    06 May 2022 20:50:38.819      9.7304343595    Earth           Penumbra    145           2059.1224232
06 May 2022 21:49:57.971    06 May 2022 22:23:58.605      2040.6338580    Earth           Umbra       146           2050.3469214
06 May 2022 22:23:58.605    06 May 2022 22:24:08.318      9.7130633891    Earth           Penumbra    146           2050.3469214
06 May 2022 23:23:16.595    06 May 2022 23:23:26.402      9.8078551702    Earth           Penumbra    147           2051.5193816
06 May 2022 23:23:26.402    06 May 2022 23:57:28.114      2041.7115264    Earth           Umbra       147           2051.5193816
07 May 2022 00:56:45.057    07 May 2022 00:56:54.848      9.7907746327    Earth           Penumbra    148           2062.2528145
07 May 2022 00:56:54.848    07 May 2022 01:30:57.633      2042.7848405    Earth           Umbra       148           2062.2528145
07 May 2022 01:30:57.633    07 May 2022 01:31:07.310      9.6771993209    Earth           Penumbra    148           2062.2528145
07 May 2022 02:30:13.492    07 May 2022 02:30:23.266      9.7737355856    Earth           Penumbra    149           2063.2958742
07 May 2022 02:30:23.266    07 May 2022 03:04:27.129      2043.8629836    Earth           Umbra       149           2063.2958742
07 May 2022 03:04:27.129    07 May 2022 03:04:36.788      9.6591550740    Earth           Penumbra    149           2063.2958742
07 May 2022 04:03:41.829    07 May 2022 04:03:51.586      9.7567131976    Earth           Penumbra    150           2064.3504240
07 May 2022 04:03:51.586    07 May 2022 04:37:56.538      2044.9523514    Earth           Umbra       150           2064.3504240
07 May 2022 04:37:56.538    07 May 2022 04:38:06.180      9.6413594554    Earth           Penumbra    150           2064.3504240
07 May 2022 05:37:10.043    07 May 2022 05:37:19.783      9.7395553370    Earth           Penumbra    151           2065.4146492
07 May 2022 05:37:19.783    07 May 2022 06:11:25.834      2046.0513723    Earth           Umbra       151           2065.4146492
07 May 2022 06:11:25.834    07 May 2022 06:11:35.458      9.6237216261    Earth           Penumbra    151           2065.4146492
07 May 2022 07:10:47.909    07 May 2022 07:44:55.071      2047.1613705    Earth           Umbra       152           2056.7674571
07 May 2022 07:44:55.071    07 May 2022 07:45:04.677      9.6060866257    Earth           Penumbra    152           2056.7674571
07 May 2022 08:44:06.349    07 May 2022 08:44:16.055      9.7053442849    Earth           Penumbra    153           2067.5839777
07 May 2022 08:44:16.055    07 May 2022 09:18:24.345      2048.2900938    Earth           Umbra       153           2067.5839777
07 May 2022 09:18:24.345    07 May 2022 09:18:33.933      9.5885396353    Earth           Penumbra    153           2067.5839777
07 May 2022 10:17:34.565    07 May 2022 10:17:44.254      9.6886148443    Earth           Penumbra    154           2068.6948948
07 May 2022 10:17:44.254    07 May 2022 10:51:53.689      2049.4350638    Earth           Umbra       154           2068.6948948
07 May 2022 10:51:53.689    07 May 2022 10:52:03.260      9.5712161274    Earth           Penumbra    154           2068.6948948
07 May 2022 11:51:02.778    07 May 2022 11:51:12.450      9.6717955079    Earth           Penumbra    155           2069.8022700
07 May 2022 11:51:12.450    07 May 2022 12:25:23.026      2050.5765253    Earth           Umbra       155           2069.8022700
07 May 2022 12:25:23.026    07 May 2022 12:25:32.580      9.5539491973    Earth           Penumbra    155           2069.8022700
07 May 2022 13:24:30.917    07 May 2022 13:24:40.571      9.6545763547    Earth           Penumbra    156           2070.8902334
07 May 2022 13:24:40.571    07 May 2022 13:58:52.270      2051.6992683    Earth           Umbra       156           2070.8902334
