GMAT/Constellation/Eclipses/eclipse1.txt

Spacecraft: HSEYE1

Start Time (UTC)            Stop Time (UTC)               Duration (s)    Occ Body        Type        Event Number  Total Duration (s)
27 Apr 2022 12:39:47.090    27 Apr 2022 12:39:55.653      8.5629526991    Earth           Penumbra    1             2132.0279047
27 Apr 2022 12:39:55.653    27 Apr 2022 13:15:10.458      2114.8051792    Earth           Umbra       1             2132.0279047
27 Apr 2022 13:15:10.458    27 Apr 2022 13:15:19.118      8.6597727961    Earth           Penumbra    1             2132.0279047
27 Apr 2022 14:13:15.679    27 Apr 2022 14:13:24.253      8.5738442489    Earth           Penumbra    2             2122.5990290
27 Apr 2022 14:13:24.253    27 Apr 2022 14:48:38.278      2114.0251847    Earth           Umbra       2             2122.5990290
27 Apr 2022 15:46:44.345    27 Apr 2022 15:46:52.930      8.5848234943    Earth           Penumbra    3             2130.4950071
27 Apr 2022 15:46:52.930    27 Apr 2022 16:22:06.156      2113.2266755    Earth           Umbra       3             2130.4950071
27 Apr 2022 16:22:06.156    27 Apr 2022 16:22:14.840      8.6835081456    Earth           Penumbra    3             2130.4950071
27 Apr 2022 17:20:13.051    27 Apr 2022 17:20:21.647      8.5958659183    Earth           Penumbra    4             2129.7046973
27 Apr 2022 17:20:21.647    27 Apr 2022 17:55:34.060      2112.4134523    Earth           Umbra       4             2129.7046973
27 Apr 2022 17:55:34.060    27 Apr 2022 17:55:42.756      8.6953791208    Earth           Penumbra    4             2129.7046973
27 Apr 2022 18:53:41.747    27 Apr 2022 18:53:50.355      8.6070651887    Earth           Penumbra    5             2128.9128891
27 Apr 2022 18:53:50.355    27 Apr 2022 19:29:01.953      2111.5986505    Earth           Umbra       5             2128.9128891
27 Apr 2022 19:29:01.953    27 Apr 2022 19:29:10.660      8.7071734015    Earth           Penumbra    5             2128.9128891
27 Apr 2022 20:27:10.428    27 Apr 2022 20:27:19.046      8.6185753229    Earth           Penumbra    6             2128.1267729
27 Apr 2022 20:27:19.046    27 Apr 2022 21:02:29.835      2110.7889495    Earth           Umbra       6             2128.1267729
27 Apr 2022 21:02:29.835    27 Apr 2022 21:02:38.555      8.7192480569    Earth           Penumbra    6             2128.1267729
27 Apr 2022 22:00:47.741    27 Apr 2022 22:35:57.722      2109.9816868    Earth           Umbra       7             2118.7135407
27 Apr 2022 22:35:57.722    27 Apr 2022 22:36:06.454      8.7318539154    Earth           Penumbra    7             2118.7135407
27 Apr 2022 23:34:07.795    27 Apr 2022 23:34:16.438      8.6428346462    Earth           Penumbra    8             2126.5611919
27 Apr 2022 23:34:16.438    28 Apr 2022 00:09:25.612      2109.1734829    Earth           Umbra       8             2126.5611919
28 Apr 2022 00:09:25.612    28 Apr 2022 00:09:34.357      8.7448743638    Earth           Penumbra    8             2126.5611919
28 Apr 2022 01:07:36.486    28 Apr 2022 01:07:45.142      8.6553682107    Earth           Penumbra    9             2125.7740030
28 Apr 2022 01:07:45.142    28 Apr 2022 01:42:53.502      2108.3606287    Earth           Umbra       9             2125.7740030
28 Apr 2022 01:42:53.502    28 Apr 2022 01:43:02.260      8.7580060819    Earth           Penumbra    9             2125.7740030
28 Apr 2022 02:41:05.223    28 Apr 2022 02:41:13.891      8.6679856991    Earth           Penumbra    10            2124.9748465
28 Apr 2022 02:41:13.891    28 Apr 2022 03:16:21.427      2107.5357771    Earth           Umbra       10            2124.9748465
28 Apr 2022 03:16:21.427    28 Apr 2022 03:16:30.198      8.7710837368    Earth           Penumbra    10            2124.9748465
28 Apr 2022 04:14:34.046    28 Apr 2022 04:14:42.726      8.6807179148    Earth           Penumbra    11            2124.1588947
28 Apr 2022 04:14:42.726    28 Apr 2022 04:49:49.420      2106.6940000    Earth           Umbra       11            2124.1588947
28 Apr 2022 04:49:49.420    28 Apr 2022 04:49:58.204      8.7841767934    Earth           Penumbra    11            2124.1588947
28 Apr 2022 05:48:02.937    28 Apr 2022 05:48:11.631      8.6935918895    Earth           Penumbra    12            2123.3281439
28 Apr 2022 05:48:11.631    28 Apr 2022 06:23:17.468      2105.8371571    Earth           Umbra       12            2123.3281439
28 Apr 2022 06:23:17.468    28 Apr 2022 06:23:26.265      8.7973949499    Earth           Penumbra    12            2123.3281439
28 Apr 2022 07:21:31.836    28 Apr 2022 07:21:40.543      8.7064756081    Earth           Penumbra    13            2122.4837686
28 Apr 2022 07:21:40.543    28 Apr 2022 07:56:45.509      2104.9666217    Earth           Umbra       13            2122.4837686
28 Apr 2022 07:56:45.509    28 Apr 2022 07:56:54.320      8.8106712559    Earth           Penumbra    13            2122.4837686
28 Apr 2022 08:55:00.693    28 Apr 2022 08:55:09.412      8.7192279403    Earth           Penumbra    14            2121.6233752
28 Apr 2022 08:55:09.412    28 Apr 2022 09:30:13.492      2104.0803125    Earth           Umbra       14            2121.6233752
28 Apr 2022 09:30:13.492    28 Apr 2022 09:30:22.316      8.8238347205    Earth           Penumbra    14            2121.6233752
28 Apr 2022 10:28:29.502    28 Apr 2022 10:28:38.233      8.7319196085    Earth           Penumbra    15            2120.7500131
28 Apr 2022 10:28:38.233    28 Apr 2022 11:03:41.415      2103.1811871    Earth           Umbra       15            2120.7500131
28 Apr 2022 11:03:41.415    28 Apr 2022 11:03:50.252      8.8369064033    Earth           Penumbra    15            2120.7500131
28 Apr 2022 12:02:07.045    28 Apr 2022 12:37:09.322      2102.2767660    Earth           Umbra       16            2111.1269566
28 Apr 2022 12:37:09.322    28 Apr 2022 12:37:18.172      8.8501905673    Earth           Penumbra    16            2111.1269566
28 Apr 2022 13:35:27.148    28 Apr 2022 13:35:35.906      8.7577574537    Earth           Penumbra    17            2118.9875368
28 Apr 2022 13:35:35.906    28 Apr 2022 14:10:37.271      2101.3658492    Earth           Umbra       17            2118.9875368
28 Apr 2022 14:10:37.271    28 Apr 2022 14:10:46.135      8.8639301830    Earth           Penumbra    17            2118.9875368
28 Apr 2022 15:08:56.074    28 Apr 2022 15:09:04.845      8.7708580540    Earth           Penumbra    18            2118.0877482
28 Apr 2022 15:09:04.845    28 Apr 2022 15:44:05.284      2100.4389431    Earth           Umbra       18            2118.0877482
28 Apr 2022 15:44:05.284    28 Apr 2022 15:44:14.162      8.8779470301    Earth           Penumbra    18            2118.0877482
28 Apr 2022 16:42:25.049    28 Apr 2022 16:42:33.833      8.7839765707    Earth           Penumbra    19            2117.1719336
28 Apr 2022 16:42:33.833    28 Apr 2022 17:17:33.329      2099.4960959    Earth           Umbra       19            2117.1719336
28 Apr 2022 17:17:33.329    28 Apr 2022 17:17:42.221      8.8918610942    Earth           Penumbra    19            2117.1719336
28 Apr 2022 18:15:54.019    28 Apr 2022 18:16:02.816      8.7971849833    Earth           Penumbra    20            2116.2538446
28 Apr 2022 18:16:02.816    28 Apr 2022 18:51:01.367      2098.5510671    Earth           Umbra       20            2116.2538446
28 Apr 2022 18:51:01.367    28 Apr 2022 18:51:10.273      8.9055925375    Earth           Penumbra    20            2116.2538446
28 Apr 2022 19:49:22.973    28 Apr 2022 19:49:31.783      8.8106457959    Earth           Penumbra    21            2115.3442856
28 Apr 2022 19:49:31.783    28 Apr 2022 20:24:29.397      2097.6141618    Earth           Umbra       21            2115.3442856
28 Apr 2022 20:24:29.397    28 Apr 2022 20:24:38.317      8.9194779983    Earth           Penumbra    21            2115.3442856
28 Apr 2022 21:22:51.930    28 Apr 2022 21:23:00.754      8.8245073683    Earth           Penumbra    22            2114.4416436
28 Apr 2022 21:23:00.754    28 Apr 2022 21:57:57.438      2096.6832698    Earth           Umbra       22            2114.4416436
28 Apr 2022 21:57:57.438    28 Apr 2022 21:58:06.371      8.9338663733    Earth           Penumbra    22            2114.4416436
28 Apr 2022 22:56:20.895    28 Apr 2022 22:56:29.734      8.8387766154    Earth           Penumbra    23            2113.5405628
28 Apr 2022 22:56:29.734    28 Apr 2022 23:31:25.487      2095.7530691    Earth           Umbra       23            2113.5405628
28 Apr 2022 23:31:25.487    28 Apr 2022 23:31:34.436      8.9487171150    Earth           Penumbra    23            2113.5405628
29 Apr 2022 00:29:49.866    29 Apr 2022 00:29:58.719      8.8532768888    Earth           Penumbra    24            2112.6371670
29 Apr 2022 00:29:58.719    29 Apr 2022 01:04:53.539      2094.8201953    Earth           Umbra       24            2112.6371670
29 Apr 2022 01:04:53.539    29 Apr 2022 01:05:02.503      8.9636948425    Earth           Penumbra    24            2112.6371670
29 Apr 2022 02:03:27.742    29 Apr 2022 02:38:21.621      2093.8789549    Earth           Umbra       25            2102.8575049
29 Apr 2022 02:38:21.621    29 Apr 2022 02:38:30.600      8.9785499847    Earth           Penumbra    25            2102.8575049
29 Apr 2022 03:36:47.966    29 Apr 2022 03:36:56.848      8.8823940489    Earth           Penumbra    26            2110.7993583
29 Apr 2022 03:36:56.848    29 Apr 2022 04:11:49.772      2092.9236471    Earth           Umbra       26            2110.7993583
29 Apr 2022 04:11:49.772    29 Apr 2022 04:11:58.765      8.9933171170    Earth           Penumbra    26            2110.7993583
29 Apr 2022 05:10:17.135    29 Apr 2022 05:10:26.032      8.8970637415    Earth           Penumbra    27            2109.8599580
29 Apr 2022 05:10:26.032    29 Apr 2022 05:45:17.987      2091.9547292    Earth           Umbra       27            2109.8599580
29 Apr 2022 05:45:17.987    29 Apr 2022 05:45:26.995      9.0081650298    Earth           Penumbra    27            2109.8599580
29 Apr 2022 06:43:46.321    29 Apr 2022 06:43:55.233      8.9117566939    Earth           Penumbra    28            2108.9094156
29 Apr 2022 06:43:55.233    29 Apr 2022 07:18:46.207      2090.9745667    Earth           Umbra       28            2108.9094156
29 Apr 2022 07:18:46.207    29 Apr 2022 07:18:55.230      9.0230921516    Earth           Penumbra    28            2108.9094156
29 Apr 2022 08:17:15.467    29 Apr 2022 08:17:24.393      8.9262990863    Earth           Penumbra    29            2107.9464612
29 Apr 2022 08:17:24.393    29 Apr 2022 08:52:14.375      2089.9822564    Earth           Umbra       29            2107.9464612
29 Apr 2022 08:52:14.375    29 Apr 2022 08:52:23.413      9.0379058034    Earth           Penumbra    29            2107.9464612
29 Apr 2022 09:50:44.561    29 Apr 2022 09:50:53.501      8.9407038060    Earth           Penumbra    30            2106.9734015
29 Apr 2022 09:50:53.501    29 Apr 2022 10:25:42.482      2088.9801524    Earth           Umbra       30            2106.9734015
29 Apr 2022 10:25:42.482    29 Apr 2022 10:25:51.534      9.0525453212    Earth           Penumbra    30            2106.9734015
29 Apr 2022 11:24:13.637    29 Apr 2022 11:24:22.592      8.9551830199    Earth           Penumbra    31            2105.9987579
29 Apr 2022 11:24:22.592    29 Apr 2022 11:59:10.568      2087.9762806    Earth           Umbra       31            2105.9987579
29 Apr 2022 11:59:10.568    29 Apr 2022 11:59:19.636      9.0672942228    Earth           Penumbra    31            2105.9987579
29 Apr 2022 12:57:42.755    29 Apr 2022 12:57:51.724      8.9698517695    Earth           Penumbra    32            2095.9413627
29 Apr 2022 12:57:51.724    29 Apr 2022 13:32:38.696      2086.9715109    Earth           Umbra       32            2095.9413627
29 Apr 2022 14:31:11.951    29 Apr 2022 14:31:20.936      8.9846123010    Earth           Penumbra    33            2104.0378492
29 Apr 2022 14:31:20.936    29 Apr 2022 15:06:06.891      2085.9552590    Earth           Umbra       33            2104.0378492
29 Apr 2022 15:06:06.891    29 Apr 2022 15:06:15.989      9.0979779605    Earth           Penumbra    33            2104.0378492
29 Apr 2022 16:04:41.204    29 Apr 2022 16:04:50.203      8.9993470581    Earth           Penumbra    34            2103.0359480
29 Apr 2022 16:04:50.203    29 Apr 2022 16:39:35.126      2084.9231980    Earth           Umbra       34            2103.0359480
29 Apr 2022 16:39:35.126    29 Apr 2022 16:39:44.240      9.1134029673    Earth           Penumbra    34            2103.0359480
29 Apr 2022 17:38:10.457    29 Apr 2022 17:38:19.471      9.0140871587    Earth           Penumbra    35            2102.0306103
29 Apr 2022 17:38:19.471    29 Apr 2022 18:13:03.359      2083.8879859    Earth           Umbra       35            2102.0306103
29 Apr 2022 18:13:03.359    29 Apr 2022 18:13:12.487      9.1285372269    Earth           Penumbra    35            2102.0306103
29 Apr 2022 19:11:39.692    29 Apr 2022 19:11:48.721      9.0289991931    Earth           Penumbra    36            2101.0362307
29 Apr 2022 19:11:48.721    29 Apr 2022 19:46:31.584      2082.8635566    Earth           Umbra       36            2101.0362307
29 Apr 2022 19:46:31.584    29 Apr 2022 19:46:40.728      9.1436749441    Earth           Penumbra    36            2101.0362307
29 Apr 2022 20:45:17.974    29 Apr 2022 21:19:59.824      2081.8498431    Earth           Umbra       37            2091.0090864
29 Apr 2022 21:19:59.824    29 Apr 2022 21:20:08.983      9.1592432815    Earth           Penumbra    37            2091.0090864
29 Apr 2022 22:18:47.241    29 Apr 2022 22:53:28.080      2080.8397466    Earth           Umbra       38            2080.8397466
29 Apr 2022 23:52:07.438    29 Apr 2022 23:52:16.514      9.0758777107    Earth           Penumbra    39            2098.0966077
29 Apr 2022 23:52:16.514    30 Apr 2022 00:26:56.343      2079.8292009    Earth           Umbra       39            2098.0966077
30 Apr 2022 00:26:56.343    30 Apr 2022 00:27:05.535      9.1915291152    Earth           Penumbra    39            2098.0966077
30 Apr 2022 01:25:36.725    30 Apr 2022 01:25:45.817      9.0918156900    Earth           Penumbra    40            2097.1136456
30 Apr 2022 01:25:45.817    30 Apr 2022 02:00:24.631      2078.8142710    Earth           Umbra       40            2097.1136456
30 Apr 2022 02:00:24.631    30 Apr 2022 02:00:33.839      9.2075588764    Earth           Penumbra    40            2097.1136456
30 Apr 2022 02:59:06.089    30 Apr 2022 02:59:15.197      9.1076807468    Earth           Penumbra    41            2096.1205582
30 Apr 2022 02:59:15.197    30 Apr 2022 03:33:52.986      2077.7895073    Earth           Umbra       41            2096.1205582
30 Apr 2022 03:33:52.986    30 Apr 2022 03:34:02.210      9.2233701842    Earth           Penumbra    41            2096.1205582
30 Apr 2022 04:32:35.536    30 Apr 2022 04:32:44.659      9.1235662345    Earth           Penumbra    42            2095.1165919
30 Apr 2022 04:32:44.659    30 Apr 2022 05:07:21.413      2076.7538492    Earth           Umbra       42            2095.1165919
30 Apr 2022 05:07:21.413    30 Apr 2022 05:07:30.652      9.2391764629    Earth           Penumbra    42            2095.1165919
30 Apr 2022 06:06:05.009    30 Apr 2022 06:06:14.149      9.1394642950    Earth           Penumbra    43            2094.1043790
30 Apr 2022 06:06:14.149    30 Apr 2022 06:40:49.859      2075.7098534    Earth           Umbra       43            2094.1043790
30 Apr 2022 06:40:49.859    30 Apr 2022 06:40:59.114      9.2550613219    Earth           Penumbra    43            2094.1043790
30 Apr 2022 07:39:34.446    30 Apr 2022 07:39:43.601      9.1552026803    Earth           Penumbra    44            2083.8130501
30 Apr 2022 07:39:43.601    30 Apr 2022 08:14:18.259      2074.6578474    Earth           Umbra       44            2083.8130501
30 Apr 2022 09:13:03.825    30 Apr 2022 09:13:12.996      9.1707216692    Earth           Penumbra    45            2092.0569830
30 Apr 2022 09:13:12.996    30 Apr 2022 09:47:46.596      2073.5998744    Earth           Umbra       45            2092.0569830
30 Apr 2022 09:47:46.596    30 Apr 2022 09:47:55.882      9.2863869038    Earth           Penumbra    45            2092.0569830
30 Apr 2022 10:46:33.177    30 Apr 2022 10:46:42.364      9.1862217989    Earth           Penumbra    46            2091.0322305
30 Apr 2022 10:46:42.364    30 Apr 2022 11:21:14.908      2072.5441110    Earth           Umbra       46            2091.0322305
30 Apr 2022 11:21:14.908    30 Apr 2022 11:21:24.210      9.3018977204    Earth           Penumbra    46            2091.0322305
30 Apr 2022 12:20:02.563    30 Apr 2022 12:20:11.764      9.2018919764    Earth           Penumbra    47            2090.0134138
30 Apr 2022 12:20:11.764    30 Apr 2022 12:54:43.258      2071.4937552    Earth           Umbra       47            2090.0134138
30 Apr 2022 12:54:43.258    30 Apr 2022 12:54:52.576      9.3177665491    Earth           Penumbra    47            2090.0134138
30 Apr 2022 13:53:32.025    30 Apr 2022 13:53:41.242      9.2176680802    Earth           Penumbra    48            2088.9900538
30 Apr 2022 13:53:41.242    30 Apr 2022 14:28:11.681      2070.4383754    Earth           Umbra       48            2088.9900538
30 Apr 2022 14:28:11.681    30 Apr 2022 14:28:21.015      9.3340103631    Earth           Penumbra    48            2088.9900538
30 Apr 2022 15:27:01.548    30 Apr 2022 15:27:10.782      9.2333747190    Earth           Penumbra    49            2087.9528285
30 Apr 2022 15:27:10.782    30 Apr 2022 16:01:40.151      2069.3692515    Earth           Umbra       49            2087.9528285
30 Apr 2022 16:01:40.151    30 Apr 2022 16:01:49.501      9.3502023141    Earth           Penumbra    49            2087.9528285
30 Apr 2022 17:00:31.077    30 Apr 2022 17:00:40.326      9.2489880044    Earth           Penumbra    50            2077.5451149
30 Apr 2022 17:00:40.326    30 Apr 2022 17:35:08.622      2068.2961269    Earth           Umbra       50            2077.5451149
30 Apr 2022 18:34:00.586    30 Apr 2022 18:34:09.850      9.2646688689    Earth           Penumbra    51            2085.8821617
30 Apr 2022 18:34:09.850    30 Apr 2022 19:08:37.086      2067.2358536    Earth           Umbra       51            2085.8821617
30 Apr 2022 19:08:37.086    30 Apr 2022 19:08:46.468      9.3816391658    Earth           Penumbra    51            2085.8821617
30 Apr 2022 20:07:30.095    30 Apr 2022 20:07:39.376      9.2806338798    Earth           Penumbra    52            2084.8700264
30 Apr 2022 20:07:39.376    30 Apr 2022 20:42:05.567      2066.1918189    Earth           Umbra       52            2084.8700264
30 Apr 2022 20:42:05.567    30 Apr 2022 20:42:14.965      9.3975736876    Earth           Penumbra    52            2084.8700264
30 Apr 2022 21:40:59.620    30 Apr 2022 21:41:08.917      9.2969858204    Earth           Penumbra    53            2083.8669766
30 Apr 2022 21:41:08.917    30 Apr 2022 22:15:34.073      2065.1559810    Earth           Umbra       53            2083.8669766
30 Apr 2022 22:15:34.073    30 Apr 2022 22:15:43.487      9.4140098663    Earth           Penumbra    53            2083.8669766
30 Apr 2022 23:14:29.153    30 Apr 2022 23:14:38.467      9.3136011623    Earth           Penumbra    54            2082.8668347
30 Apr 2022 23:14:38.467    30 Apr 2022 23:49:02.590      2064.1225891    Earth           Umbra       54            2082.8668347
30 Apr 2022 23:49:02.590    30 Apr 2022 23:49:12.020      9.4306443818    Earth           Penumbra    54            2082.8668347
01 May 2022 00:47:58.708    01 May 2022 00:48:08.038      9.3301926157    Earth           Penumbra    55            2081.8661985
01 May 2022 00:48:08.038    01 May 2022 01:22:31.127      2063.0889703    Earth           Umbra       55            2081.8661985
01 May 2022 01:22:31.127    01 May 2022 01:22:40.574      9.4470356125    Earth           Penumbra    55            2081.8661985
01 May 2022 02:21:37.677    01 May 2022 02:55:59.727      2062.0508589    Earth           Umbra       56            2071.5139127
01 May 2022 02:55:59.727    01 May 2022 02:56:09.190      9.4630537438    Earth           Penumbra    56            2071.5139127
01 May 2022 03:55:07.399    01 May 2022 04:29:28.405      2061.0060685    Earth           Umbra       57            2061.0060685
01 May 2022 05:28:27.779    01 May 2022 05:28:37.158      9.3792028609    Earth           Penumbra    58            2078.8306547
01 May 2022 05:28:37.158    01 May 2022 06:02:57.115      2059.9565985    Earth           Umbra       58            2078.8306547
01 May 2022 06:02:57.115    01 May 2022 06:03:06.610      9.4948533224    Earth           Penumbra    58            2078.8306547
01 May 2022 07:01:57.488    01 May 2022 07:02:06.884      9.3953240896    Earth           Penumbra    59            2077.8097449
01 May 2022 07:02:06.884    01 May 2022 07:36:25.787      2058.9037213    Earth           Umbra       59            2077.8097449
01 May 2022 07:36:25.787    01 May 2022 07:36:35.298      9.5106995199    Earth           Penumbra    59            2077.8097449
01 May 2022 08:35:27.134    01 May 2022 08:35:36.545      9.4111485989    Earth           Penumbra    60            2076.7868271
01 May 2022 08:35:36.545    01 May 2022 09:09:54.395      2057.8494374    Earth           Umbra       60            2076.7868271
01 May 2022 09:09:54.395    01 May 2022 09:10:03.921      9.5262411400    Earth           Penumbra    60            2076.7868271
01 May 2022 10:08:56.742    01 May 2022 10:09:06.169      9.4268316636    Earth           Penumbra    61            2075.7702257
01 May 2022 10:09:06.169    01 May 2022 10:43:22.970      2056.8017886    Earth           Umbra       61            2075.7702257
01 May 2022 10:43:22.970    01 May 2022 10:43:32.512      9.5416054828    Earth           Penumbra    61            2075.7702257
01 May 2022 11:42:26.372    01 May 2022 11:42:35.814      9.4426291413    Earth           Penumbra    62            2074.7661223
01 May 2022 11:42:35.814    01 May 2022 12:16:51.581      2055.7662867    Earth           Umbra       62            2074.7661223
01 May 2022 12:16:51.581    01 May 2022 12:17:01.138      9.5572065096    Earth           Penumbra    62            2074.7661223
01 May 2022 13:15:56.075    01 May 2022 13:16:05.533      9.4585479470    Earth           Penumbra    63            2073.7656135
01 May 2022 13:16:05.533    01 May 2022 13:50:20.267      2054.7338743    Earth           Umbra       63            2073.7656135
01 May 2022 13:50:20.267    01 May 2022 13:50:29.840      9.5731913229    Earth           Penumbra    63            2073.7656135
01 May 2022 14:49:25.842    01 May 2022 14:49:35.317      9.4743671129    Earth           Penumbra    64            2072.7555726
01 May 2022 14:49:35.317    01 May 2022 15:23:49.009      2053.6920353    Earth           Umbra       64            2072.7555726
01 May 2022 15:23:49.009    01 May 2022 15:23:58.598      9.5891701640    Earth           Penumbra    64            2072.7555726
01 May 2022 16:22:55.619    01 May 2022 16:23:05.109      9.4899810269    Earth           Penumbra    65            2071.7406635
01 May 2022 16:23:05.109    01 May 2022 16:57:17.755      2052.6459876    Earth           Umbra       65            2071.7406635
01 May 2022 16:57:17.755    01 May 2022 16:57:27.360      9.6046948107    Earth           Penumbra    65            2071.7406635
01 May 2022 17:56:25.373    01 May 2022 17:56:34.878      9.5055292477    Earth           Penumbra    66            2070.7394217
01 May 2022 17:56:34.878    01 May 2022 18:30:46.492      2051.6140505    Earth           Umbra       66            2070.7394217
01 May 2022 18:30:46.492    01 May 2022 18:30:56.112      9.6198419575    Earth           Penumbra    66            2070.7394217
01 May 2022 19:29:55.122    01 May 2022 19:30:04.643      9.5212594606    Earth           Penumbra    67            2069.7604662
01 May 2022 19:30:04.643    01 May 2022 20:04:15.247      2050.6040922    Earth           Umbra       67            2069.7604662
01 May 2022 20:04:15.247    01 May 2022 20:04:24.882      9.6351145185    Earth           Penumbra    67            2069.7604662
01 May 2022 21:03:24.888    01 May 2022 21:03:34.425      9.5373297692    Earth           Penumbra    68            2068.7967600
01 May 2022 21:03:34.425    01 May 2022 21:37:44.034      2049.6085796    Earth           Umbra       68            2068.7967600
01 May 2022 21:37:44.034    01 May 2022 21:37:53.685      9.6508507035    Earth           Penumbra    68            2068.7967600
01 May 2022 22:36:54.664    01 May 2022 22:37:04.217      9.5536537352    Earth           Penumbra    69            2067.8400007
01 May 2022 22:37:04.217    01 May 2022 23:11:12.837      2048.6195202    Earth           Umbra       69            2067.8400007
01 May 2022 23:11:12.837    01 May 2022 23:11:22.504      9.6668267157    Earth           Penumbra    69            2067.8400007
02 May 2022 00:10:24.453    02 May 2022 00:10:34.023      9.5699277241    Earth           Penumbra    70            2066.8869101
02 May 2022 00:10:34.023    02 May 2022 00:44:41.657      2047.6344521    Earth           Umbra       70            2066.8869101
02 May 2022 00:44:41.657    02 May 2022 00:44:51.340      9.6825302113    Earth           Penumbra    70            2066.8869101
02 May 2022 01:43:54.296    02 May 2022 01:44:03.882      9.5859062509    Earth           Penumbra    71            2065.9343849
02 May 2022 01:44:03.882    02 May 2022 02:18:10.533      2046.6507730    Earth           Umbra       71            2065.9343849
02 May 2022 02:18:10.533    02 May 2022 02:18:20.231      9.6977056470    Earth           Penumbra    71            2065.9343849
02 May 2022 03:17:24.222    02 May 2022 03:17:33.823      9.6016418072    Earth           Penumbra    72            2064.9801442
02 May 2022 03:17:33.823    02 May 2022 03:51:39.489      2045.6659511    Earth           Umbra       72            2064.9801442
02 May 2022 03:51:39.489    02 May 2022 03:51:49.202      9.7125513596    Earth           Penumbra    72            2064.9801442
02 May 2022 04:50:54.190    02 May 2022 04:51:03.808      9.6172808670    Earth           Penumbra    73            2064.0256687
02 May 2022 04:51:03.808    02 May 2022 05:25:08.489      2044.6810147    Earth           Umbra       73            2064.0256687
02 May 2022 05:25:08.489    02 May 2022 05:25:18.216      9.7273731837    Earth           Penumbra    73            2064.0256687
02 May 2022 06:24:24.131    02 May 2022 06:24:33.763      9.6327426494    Earth           Penumbra    74            2063.0725326
02 May 2022 06:24:33.763    02 May 2022 06:58:37.461      2043.6976515    Earth           Umbra       74            2063.0725326
02 May 2022 06:58:37.461    02 May 2022 06:58:47.203      9.7421384300    Earth           Penumbra    74            2063.0725326
02 May 2022 07:57:54.001    02 May 2022 07:58:03.649      9.6478401334    Earth           Penumbra    75            2062.1223105
02 May 2022 07:58:03.649    02 May 2022 08:32:06.367      2042.7179005    Earth           Umbra       75            2062.1223105
02 May 2022 08:32:06.367    02 May 2022 08:32:16.123      9.7565698670    Earth           Penumbra    75            2062.1223105
02 May 2022 09:31:23.820    02 May 2022 09:31:33.483      9.6626600716    Earth           Penumbra    76            2061.1827734
02 May 2022 09:31:33.483    02 May 2022 10:05:35.232      2041.7494418    Earth           Umbra       76            2061.1827734
02 May 2022 10:05:35.232    02 May 2022 10:05:45.003      9.7706715809    Earth           Penumbra    76            2061.1827734
02 May 2022 11:04:53.648    02 May 2022 11:05:03.326      9.6775001264    Earth           Penumbra    77            2060.2622006
02 May 2022 11:05:03.326    02 May 2022 11:39:04.125      2040.7998530    Earth           Umbra       77            2060.2622006
02 May 2022 11:39:04.125    02 May 2022 11:39:13.910      9.7848474747    Earth           Penumbra    77            2060.2622006
02 May 2022 12:38:23.542    02 May 2022 12:38:33.235      9.6924549085    Earth           Penumbra    78            2059.3543544
02 May 2022 12:38:33.235    02 May 2022 13:12:33.097      2039.8625225    Earth           Umbra       78            2059.3543544
02 May 2022 13:12:33.097    02 May 2022 13:12:42.896      9.7993769799    Earth           Penumbra    78            2059.3543544
02 May 2022 14:11:53.502    02 May 2022 14:12:03.210      9.7073034500    Earth           Penumbra    79            2058.4435016
02 May 2022 14:12:03.210    02 May 2022 14:46:02.132      2038.9222502    Earth           Umbra       79            2058.4435016
02 May 2022 14:46:02.132    02 May 2022 14:46:11.946      9.8139479756    Earth           Penumbra    79            2058.4435016
02 May 2022 15:45:23.475    02 May 2022 15:45:33.197      9.7218439565    Earth           Penumbra    80            2057.5284663
02 May 2022 15:45:33.197    02 May 2022 16:19:31.176      2037.9785937    Earth           Umbra       80            2057.5284663
02 May 2022 16:19:31.176    02 May 2022 16:19:41.004      9.8280286300    Earth           Penumbra    80            2057.5284663
02 May 2022 17:18:53.420    02 May 2022 17:19:03.156      9.7361584660    Earth           Penumbra    81            2056.6270177
02 May 2022 17:19:03.156    02 May 2022 17:53:00.206      2037.0493252    Earth           Umbra       81            2056.6270177
02 May 2022 17:53:00.206    02 May 2022 17:53:10.047      9.8415340763    Earth           Penumbra    81            2056.6270177
02 May 2022 18:52:23.353    02 May 2022 18:52:33.103      9.7505223239    Earth           Penumbra    82            2055.7525436
02 May 2022 18:52:33.103    02 May 2022 19:26:29.250      2036.1470751    Earth           Umbra       82            2055.7525436
02 May 2022 19:26:29.250    02 May 2022 19:26:39.105      9.8549461691    Earth           Penumbra    82            2055.7525436
02 May 2022 20:25:53.301    02 May 2022 20:26:03.066      9.7651514690    Earth           Penumbra    83            2054.9005438
02 May 2022 20:26:03.066    02 May 2022 20:59:58.333      2035.2666647    Earth           Umbra       83            2054.9005438
02 May 2022 20:59:58.333    02 May 2022 21:00:08.201      9.8687275895    Earth           Penumbra    83            2054.9005438
02 May 2022 21:59:23.260    02 May 2022 21:59:33.040      9.7800066113    Earth           Penumbra    84            2054.0608431
02 May 2022 21:59:33.040    02 May 2022 22:33:27.438      2034.3980615    Earth           Umbra       84            2054.0608431
02 May 2022 22:33:27.438    02 May 2022 22:33:37.321      9.8827749258    Earth           Penumbra    84            2054.0608431
02 May 2022 23:32:53.224    02 May 2022 23:33:03.019      9.7947806586    Earth           Penumbra    85            2053.2290296
02 May 2022 23:33:03.019    03 May 2022 00:06:56.557      2033.5376910    Earth           Umbra       85            2053.2290296
03 May 2022 00:06:56.557    03 May 2022 00:07:06.453      9.8965579178    Earth           Penumbra    85            2053.2290296
03 May 2022 01:06:23.228    03 May 2022 01:06:33.037      9.8091589753    Earth           Penumbra    86            2052.4031989
03 May 2022 01:06:33.037    03 May 2022 01:40:25.722      2032.6843600    Earth           Umbra       86            2052.4031989
03 May 2022 01:40:25.722    03 May 2022 01:40:35.631      9.9096798920    Earth           Penumbra    86            2052.4031989
03 May 2022 02:39:53.306    03 May 2022 02:40:03.129      9.8231333890    Earth           Penumbra    87            2051.5813991
03 May 2022 02:40:03.129    03 May 2022 03:13:54.965      2031.8360070    Earth           Umbra       87            2051.5813991
03 May 2022 03:13:54.965    03 May 2022 03:14:04.887      9.9222587189    Earth           Penumbra    87            2051.5813991
03 May 2022 04:13:23.432    03 May 2022 04:13:33.269      9.8369034939    Earth           Penumbra    88            2050.7643782
03 May 2022 04:13:33.269    03 May 2022 04:47:24.261      2030.9927884    Earth           Umbra       88            2050.7643782
03 May 2022 04:47:24.261    03 May 2022 04:47:34.196      9.9346863572    Earth           Penumbra    88            2050.7643782
03 May 2022 05:46:53.534    03 May 2022 05:47:03.385      9.8504743190    Earth           Penumbra    89            2049.9538474
03 May 2022 05:47:03.385    03 May 2022 06:20:53.541      2030.1563016    Earth           Umbra       89            2049.9538474
03 May 2022 06:20:53.541    03 May 2022 06:21:03.488      9.9470715621    Earth           Penumbra    89            2049.9538474
03 May 2022 07:20:23.561    03 May 2022 07:20:33.425      9.8636399838    Earth           Penumbra    90            2049.1512442
03 May 2022 07:20:33.425    03 May 2022 07:54:22.753      2029.3284721    Earth           Umbra       90            2049.1512442
03 May 2022 07:54:22.753    03 May 2022 07:54:32.713      9.9591320730    Earth           Penumbra    90            2049.1512442
03 May 2022 08:53:53.522    03 May 2022 08:54:03.398      9.8763907445    Earth           Penumbra    91            2048.3634599
03 May 2022 08:54:03.398    03 May 2022 09:27:51.914      2028.5163317    Earth           Umbra       91            2048.3634599
03 May 2022 09:27:51.914    03 May 2022 09:28:01.885      9.9707374466    Earth           Penumbra    91            2048.3634599
03 May 2022 10:27:23.475    03 May 2022 10:27:33.364      9.8890330642    Earth           Penumbra    92            2047.6003304
03 May 2022 10:27:33.364    03 May 2022 11:01:21.093      2027.7290670    Earth           Umbra       92            2047.6003304
03 May 2022 11:01:21.093    03 May 2022 11:01:31.075      9.9822302931    Earth           Penumbra    92            2047.6003304
03 May 2022 12:00:53.485    03 May 2022 12:01:03.387      9.9017703091    Earth           Penumbra    93            2046.8590892
03 May 2022 12:01:03.387    03 May 2022 12:34:50.350      2026.9633261    Earth           Umbra       93            2046.8590892
03 May 2022 12:34:50.350    03 May 2022 12:35:00.344      9.9939928274    Earth           Penumbra    93            2046.8590892
03 May 2022 13:34:23.561    03 May 2022 13:34:33.476      9.9144088570    Earth           Penumbra    94            2046.1230095
03 May 2022 13:34:33.476    03 May 2022 14:08:19.678      2026.2027504    Earth           Umbra       94            2046.1230095
03 May 2022 14:08:19.678    03 May 2022 14:08:29.684      10.005850287    Earth           Penumbra    94            2046.1230095
03 May 2022 15:07:53.652    03 May 2022 15:08:03.578      9.9266551319    Earth           Penumbra    95            2045.3846548
03 May 2022 15:08:03.578    03 May 2022 15:41:49.019      2025.4407804    Earth           Umbra       95            2045.3846548
03 May 2022 15:41:49.019    03 May 2022 15:41:59.036      10.017219291    Earth           Penumbra    95            2045.3846548
03 May 2022 16:41:23.709    03 May 2022 16:41:33.647      9.9385129055    Earth           Penumbra    96            2044.6586834
03 May 2022 16:41:33.647    03 May 2022 17:15:18.340      2024.6923158    Earth           Umbra       96            2044.6586834
03 May 2022 17:15:18.340    03 May 2022 17:15:28.368      10.027854668    Earth           Penumbra    96            2044.6586834
03 May 2022 18:14:53.744    03 May 2022 18:15:03.694      9.9502653815    Earth           Penumbra    97            2043.9625119
03 May 2022 18:15:03.694    03 May 2022 18:48:47.668      2023.9740912    Earth           Umbra       97            2043.9625119
03 May 2022 18:48:47.668    03 May 2022 18:48:57.706      10.038155294    Earth           Penumbra    97            2043.9625119
03 May 2022 19:48:23.789    03 May 2022 19:48:33.751      9.9621869624    Earth           Penumbra    98            2043.2959720
03 May 2022 19:48:33.751    03 May 2022 20:22:17.036      2023.2851132    Earth           Umbra       98            2043.2959720
03 May 2022 20:22:17.036    03 May 2022 20:22:27.085      10.048671858    Earth           Penumbra    98            2043.2959720
03 May 2022 21:21:53.846    03 May 2022 21:22:03.820      9.9742905353    Earth           Penumbra    99            2042.6481510
03 May 2022 21:22:03.820    03 May 2022 21:55:46.434      2022.6143964    Earth           Umbra       99            2042.6481510
03 May 2022 21:55:46.434    03 May 2022 21:55:56.494      10.059464083    Earth           Penumbra    99            2042.6481510
03 May 2022 22:55:23.901    03 May 2022 22:55:33.887      9.9862815812    Earth           Penumbra    100           2042.0124778
03 May 2022 22:55:33.887    03 May 2022 23:29:15.843      2021.9561625    Earth           Umbra       100           2042.0124778
03 May 2022 23:29:15.843    03 May 2022 23:29:25.913      10.070033767    Earth           Penumbra    100           2042.0124778
04 May 2022 00:28:53.979    04 May 2022 00:29:03.977      9.9977948586    Earth           Penumbra    101           2041.3872618
04 May 2022 00:29:03.977    04 May 2022 01:02:45.286      2021.3096075    Earth           Umbra       101           2041.3872618
04 May 2022 01:02:45.286    04 May 2022 01:02:55.366      10.079859453    Earth           Penumbra    101           2041.3872618
04 May 2022 02:02:24.118    04 May 2022 02:02:34.127      10.008754616    Earth           Penumbra    102           2040.7712347
04 May 2022 02:02:34.127    04 May 2022 02:36:14.801      2020.6735377    Earth           Umbra       102           2040.7712347
04 May 2022 02:36:14.801    04 May 2022 02:36:24.890      10.088942398    Earth           Penumbra    102           2040.7712347
04 May 2022 03:35:54.307    04 May 2022 03:36:04.326      10.019379936    Earth           Penumbra    103           2040.1648453
04 May 2022 03:36:04.326    04 May 2022 04:09:44.374      2020.0477603    Earth           Umbra       103           2040.1648453
04 May 2022 04:09:44.374    04 May 2022 04:09:54.472      10.097705049    Earth           Penumbra    103           2040.1648453
04 May 2022 05:09:24.478    04 May 2022 05:09:34.508      10.029772343    Earth           Penumbra    104           2039.5698025
04 May 2022 05:09:34.508    04 May 2022 05:43:13.941      2019.4336203    Earth           Umbra       104           2039.5698025
04 May 2022 05:43:13.941    04 May 2022 05:43:24.048      10.106409865    Earth           Penumbra    104           2039.5698025
04 May 2022 06:42:54.569    04 May 2022 06:43:04.609      10.039749846    Earth           Penumbra    105           2038.9872865
04 May 2022 06:43:04.609    04 May 2022 07:16:43.441      2018.8326863    Earth           Umbra       105           2038.9872865
04 May 2022 07:16:43.441    04 May 2022 07:16:53.556      10.114850337    Earth           Penumbra    105           2038.9872865
04 May 2022 08:16:24.578    04 May 2022 08:16:34.627      10.049203690    Earth           Penumbra    106           2038.4228712
04 May 2022 08:16:34.627    04 May 2022 08:50:12.878      2018.2509007    Earth           Umbra       106           2038.4228712
04 May 2022 08:50:12.878    04 May 2022 08:50:23.001      10.122766835    Earth           Penumbra    106           2038.4228712
04 May 2022 09:49:54.561    04 May 2022 09:50:04.620      10.058408906    Earth           Penumbra    107           2037.8871695
04 May 2022 09:50:04.620    04 May 2022 10:23:42.318      2017.6983737    Earth           Umbra       107           2037.8871695
04 May 2022 10:23:42.318    04 May 2022 10:23:52.448      10.130386928    Earth           Penumbra    107           2037.8871695
04 May 2022 11:23:24.589    04 May 2022 11:23:34.657      10.067663155    Earth           Penumbra    108           2037.3812998
04 May 2022 11:23:34.657    04 May 2022 11:57:11.832      2017.1754756    Earth           Umbra       108           2037.3812998
04 May 2022 11:57:11.832    04 May 2022 11:57:21.970      10.138161038    Earth           Penumbra    108           2037.3812998
04 May 2022 12:56:54.681    04 May 2022 12:57:04.757      10.076844168    Earth           Penumbra    109           2036.8893783
04 May 2022 12:57:04.757    04 May 2022 13:30:41.424      2016.6664670    Earth           Umbra       109           2036.8893783
04 May 2022 13:30:41.424    04 May 2022 13:30:51.570      10.146067163    Earth           Penumbra    109           2036.8893783
04 May 2022 14:30:24.788    04 May 2022 14:30:34.874      10.085595818    Earth           Penumbra    110           2036.3981428
04 May 2022 14:30:34.874    04 May 2022 15:04:11.033      2016.1590080    Earth           Umbra       110           2036.3981428
04 May 2022 15:04:11.033    04 May 2022 15:04:21.186      10.153538897    Earth           Penumbra    110           2036.3981428
04 May 2022 16:03:54.857    04 May 2022 16:04:04.951      10.093812179    Earth           Penumbra    111           2035.9169130
04 May 2022 16:04:04.951    04 May 2022 16:37:40.614      2015.6629206    Earth           Umbra       111           2035.9169130
04 May 2022 16:37:40.614    04 May 2022 16:37:50.774      10.160180193    Earth           Penumbra    111           2035.9169130
04 May 2022 17:37:24.892    04 May 2022 17:37:34.994      10.101763566    Earth           Penumbra    112           2035.4654139
04 May 2022 17:37:34.994    04 May 2022 18:11:10.191      2015.1973883    Earth           Umbra       112           2035.4654139
04 May 2022 18:11:10.191    04 May 2022 18:11:20.357      10.166261997    Earth           Penumbra    112           2035.4654139
04 May 2022 19:10:54.929    04 May 2022 19:11:05.039      10.109780019    Earth           Penumbra    113           2035.0490503
04 May 2022 19:11:05.039    04 May 2022 19:44:39.806      2014.7668906    Earth           Umbra       113           2035.0490503
04 May 2022 19:44:39.806    04 May 2022 19:44:49.978      10.172379634    Earth           Penumbra    113           2035.0490503
04 May 2022 20:44:24.977    04 May 2022 20:44:35.095      10.117928800    Earth           Penumbra    114           2034.6580389
04 May 2022 20:44:35.095    04 May 2022 21:18:09.456      2014.3613689    Earth           Umbra       114           2034.6580389
04 May 2022 21:18:09.456    04 May 2022 21:18:19.635      10.178741184    Earth           Penumbra    114           2034.6580389
04 May 2022 22:17:55.018    04 May 2022 22:18:05.144      10.125941166    Earth           Penumbra    115           2034.2833672
04 May 2022 22:18:05.144    04 May 2022 22:51:39.116      2013.9724776    Earth           Umbra       115           2034.2833672
04 May 2022 22:51:39.116    04 May 2022 22:51:49.301      10.184948402    Earth           Penumbra    115           2034.2833672
04 May 2022 23:51:25.065    04 May 2022 23:51:35.198      10.133422958    Earth           Penumbra    116           2033.9221683
04 May 2022 23:51:35.198    05 May 2022 00:25:08.796      2013.5983274    Earth           Umbra       116           2033.9221683
05 May 2022 00:25:08.796    05 May 2022 00:25:18.987      10.190417909    Earth           Penumbra    116           2033.9221683
05 May 2022 01:24:55.157    05 May 2022 01:25:05.297      10.140235559    Earth           Penumbra    117           2033.5735073
05 May 2022 01:25:05.297    05 May 2022 01:58:38.536      2013.2382808    Earth           Umbra       117           2033.5735073
05 May 2022 01:58:38.536    05 May 2022 01:58:48.731      10.194990970    Earth           Penumbra    117           2033.5735073
05 May 2022 02:58:25.296    05 May 2022 02:58:35.443      10.146586422    Earth           Penumbra    118           2033.2379947
05 May 2022 02:58:35.443    05 May 2022 03:32:08.335      2012.8923418    Earth           Umbra       118           2033.2379947
05 May 2022 03:32:08.335    05 May 2022 03:32:18.534      10.199066461    Earth           Penumbra    118           2033.2379947
05 May 2022 04:31:55.423    05 May 2022 04:32:05.576      10.152670112    Earth           Penumbra    119           2032.9176553
05 May 2022 04:32:05.576    05 May 2022 05:05:38.137      2012.5619420    Earth           Umbra       119           2032.9176553
05 May 2022 05:05:38.137    05 May 2022 05:05:48.340      10.203043255    Earth           Penumbra    119           2032.9176553
05 May 2022 06:05:25.468    05 May 2022 06:05:35.627      10.158354614    Earth           Penumbra    120           2032.6134960
05 May 2022 06:05:35.627    05 May 2022 06:39:07.875      2012.2483024    Earth           Umbra       120           2032.6134960
05 May 2022 06:39:07.875    05 May 2022 06:39:18.082      10.206839000    Earth           Penumbra    120           2032.6134960
05 May 2022 07:38:55.417    05 May 2022 07:39:05.580      10.163470823    Earth           Penumbra    121           2032.3293517
05 May 2022 07:39:05.580    05 May 2022 08:12:37.536      2011.9557421    Earth           Umbra       121           2032.3293517
05 May 2022 08:12:37.536    05 May 2022 08:12:47.746      10.210138746    Earth           Penumbra    121           2032.3293517
05 May 2022 09:12:25.320    05 May 2022 09:12:35.488      10.168210161    Earth           Penumbra    122           2032.0755114
05 May 2022 09:12:35.488    05 May 2022 09:46:07.182      2011.6942971    Earth           Umbra       122           2032.0755114
05 May 2022 09:46:07.182    05 May 2022 09:46:17.395      10.213004099    Earth           Penumbra    122           2032.0755114
05 May 2022 10:45:55.252    05 May 2022 10:46:05.425      10.172936926    Earth           Penumbra    123           2031.8568933
05 May 2022 10:46:05.425    05 May 2022 11:19:36.893      2011.4680734    Earth           Umbra       123           2031.8568933
05 May 2022 11:19:36.893    05 May 2022 11:19:47.109      10.215882969    Earth           Penumbra    123           2031.8568933
05 May 2022 12:19:25.245    05 May 2022 12:19:35.423      10.177635401    Earth           Penumbra    124           2031.6603161
05 May 2022 12:19:35.423    05 May 2022 12:53:06.687      2011.2637664    Earth           Umbra       124           2031.6603161
05 May 2022 12:53:06.687    05 May 2022 12:53:16.906      10.218914284    Earth           Penumbra    124           2031.6603161
05 May 2022 13:52:55.256    05 May 2022 13:53:05.438      10.181919287    Earth           Penumbra    125           2031.4679995
05 May 2022 13:53:05.438    05 May 2022 14:26:36.503      2011.0644656    Earth           Umbra       125           2031.4679995
05 May 2022 14:26:36.503    05 May 2022 14:26:46.724      10.221614619    Earth           Penumbra    125           2031.4679995
05 May 2022 15:26:25.225    05 May 2022 15:26:35.410      10.185571702    Earth           Penumbra    126           2031.2822551
05 May 2022 15:26:35.410    05 May 2022 16:00:06.283      2010.8732048    Earth           Umbra       126           2031.2822551
05 May 2022 16:00:06.283    05 May 2022 16:00:16.507      10.223478545    Earth           Penumbra    126           2031.2822551
05 May 2022 16:59:55.145    05 May 2022 17:00:05.334      10.188815498    Earth           Penumbra    127           2031.1226518
05 May 2022 17:00:05.334    05 May 2022 17:33:36.043      2010.7092209    Earth           Umbra       127           2031.1226518
05 May 2022 17:33:36.043    05 May 2022 17:33:46.268      10.224615445    Earth           Penumbra    127           2031.1226518
05 May 2022 18:33:25.058    05 May 2022 18:33:35.250      10.192025662    Earth           Penumbra    128           2031.0004154
05 May 2022 18:33:35.250    05 May 2022 19:07:05.833      2010.5827904    Earth           Umbra       128           2031.0004154
05 May 2022 19:07:05.833    05 May 2022 19:07:16.059      10.225599271    Earth           Penumbra    128           2031.0004154
05 May 2022 20:06:54.980    05 May 2022 20:07:05.176      10.195335781    Earth           Penumbra    129           2030.9090472
05 May 2022 20:07:05.176    05 May 2022 20:40:35.663      2010.4869422    Earth           Umbra       129           2030.9090472
05 May 2022 20:40:35.663    05 May 2022 20:40:45.889      10.226769175    Earth           Penumbra    129           2030.9090472
05 May 2022 21:40:24.891    05 May 2022 21:40:35.090      10.198504454    Earth           Penumbra    130           2030.8378062
05 May 2022 21:40:35.090    05 May 2022 22:14:05.501      2010.4114344    Earth           Umbra       130           2030.8378062
05 May 2022 22:14:05.501    05 May 2022 22:14:15.729      10.227867414    Earth           Penumbra    130           2030.8378062
05 May 2022 23:13:54.794    05 May 2022 23:14:04.995      10.201124637    Earth           Penumbra    131           2030.7814692
05 May 2022 23:14:04.995    05 May 2022 23:47:35.347      2010.3520317    Earth           Umbra       131           2030.7814692
05 May 2022 23:47:35.347    05 May 2022 23:47:45.575      10.228312807    Earth           Penumbra    131           2030.7814692
06 May 2022 00:47:24.724    06 May 2022 00:47:34.927      10.203009308    Earth           Penumbra    132           2030.7384370
06 May 2022 00:47:34.927    06 May 2022 01:21:05.234      2010.3076143    Earth           Umbra       132           2030.7384370
06 May 2022 01:21:05.234    06 May 2022 01:21:15.462      10.227813351    Earth           Penumbra    132           2030.7384370
06 May 2022 02:20:54.695    06 May 2022 02:21:04.899      10.204344231    Earth           Penumbra    133           2030.7095273
06 May 2022 02:21:04.899    06 May 2022 02:54:35.178      2010.2785242    Earth           Umbra       133           2030.7095273
06 May 2022 02:54:35.178    06 May 2022 02:54:45.405      10.226658848    Earth           Penumbra    133           2030.7095273
06 May 2022 03:54:24.659    06 May 2022 03:54:34.864      10.205382120    Earth           Penumbra    134           2030.6976437
06 May 2022 03:54:34.864    06 May 2022 04:28:05.131      2010.2669160    Earth           Umbra       134           2030.6976437
06 May 2022 04:28:05.131    06 May 2022 04:28:15.357      10.225345613    Earth           Penumbra    134           2030.6976437
06 May 2022 05:27:54.543    06 May 2022 05:28:04.749      10.206070798    Earth           Penumbra    135           2030.7041888
06 May 2022 05:28:04.749    06 May 2022 06:01:35.023      2010.2741668    Earth           Umbra       135           2030.7041888
06 May 2022 06:01:35.023    06 May 2022 06:01:45.247      10.223951284    Earth           Penumbra    135           2030.7041888
06 May 2022 07:01:24.319    06 May 2022 07:01:34.525      10.206204699    Earth           Penumbra    136           2030.7310841
06 May 2022 07:01:34.525    06 May 2022 07:35:04.828      2010.3027125    Earth           Umbra       136           2030.7310841
06 May 2022 07:35:04.828    06 May 2022 07:35:15.050      10.222166881    Earth           Penumbra    136           2030.7310841
06 May 2022 08:34:54.028    06 May 2022 08:35:04.234      10.205892893    Earth           Penumbra    137           2030.7870213
06 May 2022 08:35:04.234    06 May 2022 09:08:34.596      2010.3612266    Earth           Umbra       137           2030.7870213
06 May 2022 09:08:34.596    06 May 2022 09:08:44.816      10.219901882    Earth           Penumbra    137           2030.7870213
06 May 2022 10:08:23.751    06 May 2022 10:08:33.957      10.205510363    Earth           Penumbra    138           2030.8799724
06 May 2022 10:08:33.957    06 May 2022 10:42:04.414      2010.4569358    Earth           Umbra       138           2030.8799724
06 May 2022 10:42:04.414    06 May 2022 10:42:14.631      10.217526241    Earth           Penumbra    138           2030.8799724
06 May 2022 11:41:53.531    06 May 2022 11:42:03.736      10.205148894    Earth           Penumbra    139           2031.0010380
06 May 2022 11:42:03.736    06 May 2022 12:15:34.317      2010.5805883    Earth           Umbra       139           2031.0010380
06 May 2022 12:15:34.317    06 May 2022 12:15:44.532      10.215300845    Earth           Penumbra    139           2031.0010380
06 May 2022 13:15:23.332    06 May 2022 13:15:33.536      10.204448900    Earth           Penumbra    140           2031.1300016
06 May 2022 13:15:33.536    06 May 2022 13:49:04.249      2010.7126727    Earth           Umbra       140           2031.1300016
06 May 2022 13:49:04.249    06 May 2022 13:49:14.462      10.212879942    Earth           Penumbra    140           2031.1300016
06 May 2022 14:48:53.087    06 May 2022 14:49:03.290      10.203089775    Earth           Penumbra    141           2031.2614417
06 May 2022 14:49:03.290    06 May 2022 15:22:34.139      2010.8486447    Earth           Umbra       141           2031.2614417
06 May 2022 15:22:34.139    06 May 2022 15:22:44.348      10.209707182    Earth           Penumbra    141           2031.2614417
06 May 2022 16:22:22.782    06 May 2022 16:22:32.984      10.201214219    Earth           Penumbra    142           2031.4120088
06 May 2022 16:22:32.984    06 May 2022 16:56:03.989      2011.0050658    Earth           Umbra       142           2031.4120088
06 May 2022 16:56:03.989    06 May 2022 16:56:14.194      10.205728817    Earth           Penumbra    142           2031.4120088
06 May 2022 17:55:52.459    06 May 2022 17:56:02.658      10.199231165    Earth           Penumbra    143           2031.5978504
06 May 2022 17:56:02.658    06 May 2022 18:29:33.856      2011.1971809    Earth           Umbra       143           2031.5978504
06 May 2022 18:29:33.856    06 May 2022 18:29:44.057      10.201438330    Earth           Penumbra    143           2031.5978504
06 May 2022 19:29:22.142    06 May 2022 19:29:32.340      10.197339579    Earth           Penumbra    144           2031.8175607
06 May 2022 19:29:32.340    06 May 2022 20:03:03.763      2011.4229560    Earth           Umbra       144           2031.8175607
06 May 2022 20:03:03.763    06 May 2022 20:03:13.960      10.197265085    Earth           Penumbra    144           2031.8175607
06 May 2022 21:02:51.813    06 May 2022 21:03:02.008      10.195332638    Earth           Penumbra    145           2032.0602404
06 May 2022 21:03:02.008    06 May 2022 21:36:33.680      2011.6718137    Earth           Umbra       145           2032.0602404
06 May 2022 21:36:33.680    06 May 2022 21:36:43.873      10.193094041    Earth           Penumbra    145           2032.0602404
06 May 2022 22:36:21.463    06 May 2022 22:36:31.655      10.192808008    Earth           Penumbra    146           2032.3179069
06 May 2022 22:36:31.655    06 May 2022 23:10:03.592      2011.9366838    Earth           Umbra       146           2032.3179069
06 May 2022 23:10:03.592    06 May 2022 23:10:13.780      10.188415053    Earth           Penumbra    146           2032.3179069
07 May 2022 00:09:51.122    07 May 2022 00:10:01.312      10.189534980    Earth           Penumbra    147           2032.5870952
07 May 2022 00:10:01.312    07 May 2022 00:43:33.527      2012.2147061    Earth           Umbra       147           2032.5870952
07 May 2022 00:43:33.527    07 May 2022 00:43:43.710      10.182854079    Earth           Penumbra    147           2032.5870952
07 May 2022 01:43:20.816    07 May 2022 01:43:31.002      10.185671342    Earth           Penumbra    148           2032.8682798
07 May 2022 01:43:31.002    07 May 2022 02:17:03.508      2012.5060440    Earth           Umbra       148           2032.8682798
07 May 2022 02:17:03.508    07 May 2022 02:17:13.684      10.176564509    Earth           Penumbra    148           2032.8682798
07 May 2022 03:16:50.507    07 May 2022 03:17:00.689      10.181504698    Earth           Penumbra    149           2033.1655810
07 May 2022 03:17:00.689    07 May 2022 03:50:33.503      2012.8140393    Earth           Umbra       149           2033.1655810
07 May 2022 03:50:33.503    07 May 2022 03:50:43.673      10.170036997    Earth           Penumbra    149           2033.1655810
07 May 2022 04:50:20.124    07 May 2022 04:50:30.301      10.177067737    Earth           Penumbra    150           2033.4817783
07 May 2022 04:50:30.301    07 May 2022 05:24:03.442      2013.1411935    Earth           Umbra       150           2033.4817783
07 May 2022 05:24:03.442    07 May 2022 05:24:13.605      10.163517029    Earth           Penumbra    150           2033.4817783
07 May 2022 06:23:49.624    07 May 2022 06:23:59.796      10.172156780    Earth           Penumbra    151           2033.8173270
07 May 2022 06:23:59.796    07 May 2022 06:57:33.285      2013.4883938    Earth           Umbra       151           2033.8173270
07 May 2022 06:57:33.285    07 May 2022 06:57:43.442      10.156776407    Earth           Penumbra    151           2033.8173270
07 May 2022 07:57:19.040    07 May 2022 07:57:29.207      10.166788800    Earth           Penumbra    152           2034.1781409
07 May 2022 07:57:29.207    07 May 2022 08:31:03.069      2013.8617438    Earth           Umbra       152           2034.1781409
07 May 2022 08:31:03.069    07 May 2022 08:31:13.218      10.149608308    Earth           Penumbra    152           2034.1781409
07 May 2022 09:30:48.453    07 May 2022 09:30:58.614      10.161317722    Earth           Penumbra    153           2034.5738244
07 May 2022 09:30:58.614    07 May 2022 10:04:32.884      2014.2702522    Earth           Umbra       153           2034.5738244
07 May 2022 10:04:32.884    07 May 2022 10:04:43.026      10.142254445    Earth           Penumbra    153           2034.5738244
07 May 2022 11:04:17.917    07 May 2022 11:04:28.073      10.155923653    Earth           Penumbra    154           2035.0006970
07 May 2022 11:04:28.073    07 May 2022 11:38:02.782      2014.7097395    Earth           Umbra       154           2035.0006970
07 May 2022 11:38:02.782    07 May 2022 11:38:12.918      10.135033855    Earth           Penumbra    154           2035.0006970
07 May 2022 12:37:47.407    07 May 2022 12:37:57.557      10.150310188    Earth           Penumbra    155           2035.4386598
07 May 2022 12:37:57.557    07 May 2022 13:11:32.718      2015.1605920    Earth           Umbra       155           2035.4386598
07 May 2022 13:11:32.718    07 May 2022 13:11:42.845      10.127757629    Earth           Penumbra    155           2035.4386598
07 May 2022 14:11:16.852    07 May 2022 14:11:26.996      10.144084739    Earth           Penumbra    156           2035.8750114
07 May 2022 14:11:26.996    07 May 2022 14:45:02.607      2015.6110409    Earth           Umbra       156           2035.8750114
07 May 2022 14:45:02.607    07 May 2022 14:45:12.727      10.119885765    Earth           Penumbra    156           2035.8750114
07 May 2022 15:44:46.228    07 May 2022 15:44:56.365      10.137292254    Earth           Penumbra    157           2036.3209998
07 May 2022 15:44:56.365    07 May 2022 16:18:32.437      2016.0724773    Earth           Umbra       157           2036.3209998
07 May 2022 16:18:32.437    07 May 2022 16:18:42.549      10.111230297    Earth           Penumbra    157           2036.3209998
07 May 2022 17:18:15.573    07 May 2022 17:18:25.703      10.130343237    Earth           Penumbra    158           2036.7957750
07 May 2022 17:18:25.703    07 May 2022 17:52:02.267      2016.5632718    Earth           Umbra       158           2036.7957750
07 May 2022 17:52:02.267    07 May 2022 17:52:12.369      10.102159926    Earth           Penumbra    158           2036.7957750
07 May 2022 18:51:44.922    07 May 2022 18:51:55.045      10.123499203    Earth           Penumbra    159           2037.3039751
07 May 2022 18:51:55.045    07 May 2022 19:25:32.133      2017.0873411    Earth           Umbra       159           2037.3039751
