GMAT/Constellation/Eclipses/eclipse14.txt

Spacecraft: HSEYE14

Start Time (UTC)            Stop Time (UTC)               Duration (s)    Occ Body        Type        Event Number  Total Duration (s)
27 Apr 2022 12:25:23.659    27 Apr 2022 12:25:32.715      9.0559805394    Earth           Penumbra    1             2105.4714322
27 Apr 2022 12:25:32.715    27 Apr 2022 13:00:20.175      2087.4606107    Earth           Umbra       1             2105.4714322
27 Apr 2022 13:00:20.175    27 Apr 2022 13:00:29.130      8.9548410382    Earth           Penumbra    1             2105.4714322
27 Apr 2022 13:58:54.411    27 Apr 2022 13:59:03.449      9.0376018547    Earth           Penumbra    2             2106.6220465
27 Apr 2022 13:59:03.449    27 Apr 2022 14:33:52.096      2088.6473253    Earth           Umbra       2             2106.6220465
27 Apr 2022 14:33:52.096    27 Apr 2022 14:34:01.033      8.9371192851    Earth           Penumbra    2             2106.6220465
27 Apr 2022 15:32:25.168    27 Apr 2022 15:32:34.188      9.0195214609    Earth           Penumbra    3             2107.7601856
27 Apr 2022 15:32:34.188    27 Apr 2022 16:07:24.009      2089.8211997    Earth           Umbra       3             2107.7601856
27 Apr 2022 16:07:24.009    27 Apr 2022 16:07:32.928      8.9194644825    Earth           Penumbra    3             2107.7601856
27 Apr 2022 17:05:55.944    27 Apr 2022 17:06:04.946      9.0018839459    Earth           Penumbra    4             2108.8958230
27 Apr 2022 17:06:04.946    27 Apr 2022 17:40:55.938      2090.9919364    Earth           Umbra       4             2108.8958230
27 Apr 2022 17:40:55.938    27 Apr 2022 17:41:04.840      8.9020026731    Earth           Penumbra    4             2108.8958230
27 Apr 2022 18:39:26.702    27 Apr 2022 18:39:35.686      8.9844818576    Earth           Penumbra    5             2110.0257989
27 Apr 2022 18:39:35.686    27 Apr 2022 19:14:27.843      2092.1566304    Earth           Umbra       5             2110.0257989
27 Apr 2022 19:14:27.843    27 Apr 2022 19:14:36.728      8.8846867089    Earth           Penumbra    5             2110.0257989
27 Apr 2022 20:12:57.424    27 Apr 2022 20:13:06.391      8.9669983601    Earth           Penumbra    6             2111.1419221
27 Apr 2022 20:13:06.391    27 Apr 2022 20:47:59.698      2093.3074807    Earth           Umbra       6             2111.1419221
27 Apr 2022 20:47:59.698    27 Apr 2022 20:48:08.566      8.8674430386    Earth           Penumbra    6             2111.1419221
27 Apr 2022 21:46:37.089    27 Apr 2022 22:21:31.527      2094.4372934    Earth           Umbra       7             2103.2875937
27 Apr 2022 22:21:31.527    27 Apr 2022 22:21:40.377      8.8503002655    Earth           Penumbra    7             2103.2875937
27 Apr 2022 23:20:07.806    27 Apr 2022 23:55:03.351      2095.5449151    Earth           Umbra       8             2104.3782580
27 Apr 2022 23:55:03.351    27 Apr 2022 23:55:12.184      8.8333429419    Earth           Penumbra    8             2104.3782580
28 Apr 2022 00:53:29.594    28 Apr 2022 00:53:38.509      8.9144431986    Earth           Penumbra    9             2114.3708861
28 Apr 2022 00:53:38.509    28 Apr 2022 01:28:35.149      2096.6397882    Earth           Umbra       9             2114.3708861
28 Apr 2022 01:28:35.149    28 Apr 2022 01:28:43.965      8.8166546775    Earth           Penumbra    9             2114.3708861
28 Apr 2022 02:27:00.235    28 Apr 2022 02:27:09.132      8.8975279941    Earth           Penumbra    10            2115.4311480
28 Apr 2022 02:27:09.132    28 Apr 2022 03:02:06.865      2097.7333060    Earth           Umbra       10            2115.4311480
28 Apr 2022 03:02:06.865    28 Apr 2022 03:02:15.666      8.8003140525    Earth           Penumbra    10            2115.4311480
28 Apr 2022 04:00:30.766    28 Apr 2022 04:00:39.647      8.8808667613    Earth           Penumbra    11            2107.7064935
28 Apr 2022 04:00:39.647    28 Apr 2022 04:35:38.473      2098.8256268    Earth           Umbra       11            2107.7064935
28 Apr 2022 05:34:01.243    28 Apr 2022 05:34:10.108      8.8644752163    Earth           Penumbra    12            2117.5441662
28 Apr 2022 05:34:10.108    28 Apr 2022 06:09:10.019      2099.9109329    Earth           Umbra       12            2117.5441662
28 Apr 2022 06:09:10.019    28 Apr 2022 06:09:18.787      8.7687580730    Earth           Penumbra    12            2117.5441662
28 Apr 2022 07:07:31.759    28 Apr 2022 07:07:40.607      8.8485215208    Earth           Penumbra    13            2118.5934074
28 Apr 2022 07:07:40.607    28 Apr 2022 07:42:41.599      2100.9914025    Earth           Umbra       13            2118.5934074
28 Apr 2022 07:42:41.599    28 Apr 2022 07:42:50.352      8.7534833117    Earth           Penumbra    13            2118.5934074
28 Apr 2022 08:41:02.345    28 Apr 2022 08:41:11.178      8.8330173050    Earth           Penumbra    14            2119.6423883
28 Apr 2022 08:41:11.178    28 Apr 2022 09:16:13.249      2102.0708450    Earth           Umbra       14            2119.6423883
28 Apr 2022 09:16:13.249    28 Apr 2022 09:16:21.988      8.7385260151    Earth           Penumbra    14            2119.6423883
28 Apr 2022 10:14:32.935    28 Apr 2022 10:14:41.753      8.8176727644    Earth           Penumbra    15            2120.6795665
28 Apr 2022 10:14:41.753    28 Apr 2022 10:49:44.891      2103.1380977    Earth           Umbra       15            2120.6795665
28 Apr 2022 10:49:44.891    28 Apr 2022 10:49:53.615      8.7237959728    Earth           Penumbra    15            2120.6795665
28 Apr 2022 11:48:03.451    28 Apr 2022 11:48:12.253      8.8022097247    Earth           Penumbra    16            2121.6856614
28 Apr 2022 11:48:12.253    28 Apr 2022 12:23:16.428      2104.1743521    Earth           Umbra       16            2121.6856614
28 Apr 2022 12:23:16.428    28 Apr 2022 12:23:25.137      8.7090995628    Earth           Penumbra    16            2121.6856614
28 Apr 2022 13:21:33.900    28 Apr 2022 13:21:42.687      8.7866844493    Earth           Penumbra    17            2122.6576528
28 Apr 2022 13:21:42.687    28 Apr 2022 13:56:47.863      2105.1766255    Earth           Umbra       17            2122.6576528
28 Apr 2022 13:56:47.863    28 Apr 2022 13:56:56.558      8.6943428032    Earth           Penumbra    17            2122.6576528
28 Apr 2022 14:55:04.349    28 Apr 2022 14:55:13.121      8.7714040303    Earth           Penumbra    18            2114.9310438
28 Apr 2022 14:55:13.121    28 Apr 2022 15:30:19.280      2106.1596398    Earth           Umbra       18            2114.9310438
28 Apr 2022 16:28:34.826    28 Apr 2022 16:28:43.582      8.7565595750    Earth           Penumbra    19            2124.5573115
28 Apr 2022 16:28:43.582    28 Apr 2022 17:03:50.718      2107.1356372    Earth           Umbra       19            2124.5573115
28 Apr 2022 17:03:50.718    28 Apr 2022 17:03:59.383      8.6651146878    Earth           Penumbra    19            2124.5573115
28 Apr 2022 18:02:05.294    28 Apr 2022 18:02:14.036      8.7420237833    Earth           Penumbra    20            2125.4967115
28 Apr 2022 18:02:14.036    28 Apr 2022 18:37:22.140      2108.1039252    Earth           Umbra       20            2125.4967115
28 Apr 2022 18:37:22.140    28 Apr 2022 18:37:30.790      8.6507624597    Earth           Penumbra    20            2125.4967115
28 Apr 2022 19:35:35.728    28 Apr 2022 19:35:44.456      8.7275021360    Earth           Penumbra    21            2126.4214132
28 Apr 2022 19:35:44.456    28 Apr 2022 20:10:53.513      2109.0573977    Earth           Umbra       21            2126.4214132
28 Apr 2022 20:10:53.513    28 Apr 2022 20:11:02.150      8.6365133291    Earth           Penumbra    21            2126.4214132
28 Apr 2022 21:09:06.153    28 Apr 2022 21:09:14.866      8.7128513027    Earth           Penumbra    22            2127.3246647
28 Apr 2022 21:09:14.866    28 Apr 2022 21:44:24.856      2109.9894216    Earth           Umbra       22            2127.3246647
28 Apr 2022 21:44:24.856    28 Apr 2022 21:44:33.478      8.6223918130    Earth           Penumbra    22            2127.3246647
28 Apr 2022 22:42:36.598    28 Apr 2022 22:42:45.296      8.6982190143    Earth           Penumbra    23            2128.2049830
28 Apr 2022 22:42:45.296    28 Apr 2022 23:17:56.194      2110.8982758    Earth           Umbra       23            2128.2049830
28 Apr 2022 23:17:56.194    28 Apr 2022 23:18:04.803      8.6084881215    Earth           Penumbra    23            2128.2049830
29 Apr 2022 00:16:07.040    29 Apr 2022 00:16:15.724      8.6838799878    Earth           Penumbra    24            2129.0705439
29 Apr 2022 00:16:15.724    29 Apr 2022 00:51:27.516      2111.7917975    Earth           Umbra       24            2129.0705439
29 Apr 2022 00:51:27.516    29 Apr 2022 00:51:36.111      8.5948663764    Earth           Penumbra    24            2129.0705439
29 Apr 2022 01:49:37.416    29 Apr 2022 01:49:46.086      8.6699354346    Earth           Penumbra    25            2121.3518562
29 Apr 2022 01:49:46.086    29 Apr 2022 02:24:58.768      2112.6819207    Earth           Umbra       25            2121.3518562
29 Apr 2022 03:23:07.688    29 Apr 2022 03:23:16.345      8.6562945158    Earth           Penumbra    26            2130.7959799
29 Apr 2022 03:23:16.345    29 Apr 2022 03:58:29.916      2113.5710325    Earth           Umbra       26            2130.7959799
29 Apr 2022 03:58:29.916    29 Apr 2022 03:58:38.484      8.5686529172    Earth           Penumbra    26            2130.7959799
29 Apr 2022 04:56:37.898    29 Apr 2022 04:56:46.541      8.6429361720    Earth           Penumbra    27            2131.6516199
29 Apr 2022 04:56:46.541    29 Apr 2022 05:32:00.994      2114.4525782    Earth           Umbra       27            2131.6516199
29 Apr 2022 05:32:00.994    29 Apr 2022 05:32:09.550      8.5561055224    Earth           Penumbra    27            2131.6516199
29 Apr 2022 06:30:16.770    29 Apr 2022 07:05:32.096      2115.3258261    Earth           Umbra       28            2123.8697313
29 Apr 2022 07:05:32.096    29 Apr 2022 07:05:40.639      8.5439051385    Earth           Penumbra    28            2123.8697313
29 Apr 2022 08:03:47.076    29 Apr 2022 08:39:03.272      2116.1957319    Earth           Umbra       29            2124.7277639
29 Apr 2022 08:39:03.272    29 Apr 2022 08:39:11.804      8.5320319631    Earth           Penumbra    29            2124.7277639
29 Apr 2022 09:37:17.403    29 Apr 2022 10:12:34.459      2117.0558440    Earth           Umbra       30            2125.5762511
29 Apr 2022 10:12:34.459    29 Apr 2022 10:12:42.979      8.5204071016    Earth           Penumbra    30            2125.5762511
29 Apr 2022 11:10:47.664    29 Apr 2022 11:46:05.552      2117.8878797    Earth           Umbra       31            2126.3967409
29 Apr 2022 11:46:05.552    29 Apr 2022 11:46:14.060      8.5088611348    Earth           Penumbra    31            2126.3967409
29 Apr 2022 12:44:17.853    29 Apr 2022 13:19:36.536      2118.6837814    Earth           Umbra       32            2127.1810616
29 Apr 2022 13:19:36.536    29 Apr 2022 13:19:45.034      8.4972802782    Earth           Penumbra    32            2127.1810616
29 Apr 2022 14:17:39.468    29 Apr 2022 14:17:48.037      8.5683687706    Earth           Penumbra    33            2136.5089773
29 Apr 2022 14:17:48.037    29 Apr 2022 14:53:07.491      2119.4548752    Earth           Umbra       33            2136.5089773
29 Apr 2022 14:53:07.491    29 Apr 2022 14:53:15.977      8.4857333684    Earth           Penumbra    33            2136.5089773
29 Apr 2022 15:51:09.697    29 Apr 2022 15:51:18.253      8.5565697751    Earth           Penumbra    34            2128.7715818
29 Apr 2022 15:51:18.253    29 Apr 2022 16:26:38.468      2120.2150121    Earth           Umbra       34            2128.7715818
29 Apr 2022 17:24:39.928    29 Apr 2022 17:24:48.473      8.5451259627    Earth           Penumbra    35            2129.5110747
29 Apr 2022 17:24:48.473    29 Apr 2022 18:00:09.439      2120.9659487    Earth           Umbra       35            2129.5110747
29 Apr 2022 18:58:10.129    29 Apr 2022 18:58:18.663      8.5337824188    Earth           Penumbra    36            2138.6872301
29 Apr 2022 18:58:18.663    29 Apr 2022 19:33:40.365      2121.7013514    Earth           Umbra       36            2138.6872301
29 Apr 2022 19:33:40.365    29 Apr 2022 19:33:48.817      8.4520962671    Earth           Penumbra    36            2138.6872301
29 Apr 2022 20:31:40.318    29 Apr 2022 20:31:48.841      8.5223593516    Earth           Penumbra    37            2139.3786616
29 Apr 2022 20:31:48.841    29 Apr 2022 21:07:11.256      2122.4151277    Earth           Umbra       37            2139.3786616
29 Apr 2022 21:07:11.256    29 Apr 2022 21:07:19.697      8.4411745425    Earth           Penumbra    37            2139.3786616
29 Apr 2022 22:05:10.526    29 Apr 2022 22:05:19.037      8.5109347128    Earth           Penumbra    38            2140.0469456
29 Apr 2022 22:05:19.037    29 Apr 2022 22:40:42.143      2123.1055264    Earth           Umbra       38            2140.0469456
29 Apr 2022 22:40:42.143    29 Apr 2022 22:40:50.573      8.4304844728    Earth           Penumbra    38            2140.0469456
29 Apr 2022 23:38:40.742    29 Apr 2022 23:38:49.242      8.4997596452    Earth           Penumbra    39            2140.6987554
29 Apr 2022 23:38:49.242    30 Apr 2022 00:14:13.020      2123.7789050    Earth           Umbra       39            2140.6987554
30 Apr 2022 00:14:13.020    30 Apr 2022 00:14:21.441      8.4200908081    Earth           Penumbra    39            2140.6987554
30 Apr 2022 01:12:10.905    30 Apr 2022 01:12:19.394      8.4889828227    Earth           Penumbra    40            2141.3459142
30 Apr 2022 01:12:19.394    30 Apr 2022 01:47:43.841      2124.4469117    Earth           Umbra       40            2141.3459142
30 Apr 2022 01:47:43.841    30 Apr 2022 01:47:52.251      8.4100196371    Earth           Penumbra    40            2141.3459142
30 Apr 2022 02:45:40.970    30 Apr 2022 02:45:49.449      8.4785489249    Earth           Penumbra    41            2141.9928284
30 Apr 2022 02:45:49.449    30 Apr 2022 03:21:14.563      2125.1139771    Earth           Umbra       41            2141.9928284
30 Apr 2022 03:21:14.563    30 Apr 2022 03:21:22.963      8.4003023920    Earth           Penumbra    41            2141.9928284
30 Apr 2022 04:19:10.967    30 Apr 2022 04:19:19.435      8.4684164613    Earth           Penumbra    42            2142.6331539
30 Apr 2022 04:19:19.435    30 Apr 2022 04:54:45.209      2125.7737767    Earth           Umbra       42            2142.6331539
30 Apr 2022 04:54:45.209    30 Apr 2022 04:54:53.600      8.3909607609    Earth           Penumbra    42            2142.6331539
30 Apr 2022 05:52:40.987    30 Apr 2022 05:52:49.446      8.4586907295    Earth           Penumbra    43            2143.2633682
30 Apr 2022 05:52:49.446    30 Apr 2022 06:28:15.868      2126.4226931    Earth           Umbra       43            2143.2633682
30 Apr 2022 06:28:15.868    30 Apr 2022 06:28:24.250      8.3819843712    Earth           Penumbra    43            2143.2633682
30 Apr 2022 07:26:11.089    30 Apr 2022 07:26:19.538      8.4494393086    Earth           Penumbra    44            2143.8881546
30 Apr 2022 07:26:19.538    30 Apr 2022 08:01:46.604      2127.0653700    Earth           Umbra       44            2143.8881546
30 Apr 2022 08:01:46.604    30 Apr 2022 08:01:54.977      8.3733452484    Earth           Penumbra    44            2143.8881546
30 Apr 2022 08:59:41.227    30 Apr 2022 08:59:49.667      8.4404660622    Earth           Penumbra    45            2144.5052146
30 Apr 2022 08:59:49.667    30 Apr 2022 09:35:17.367      2127.6997777    Earth           Umbra       45            2144.5052146
30 Apr 2022 09:35:17.367    30 Apr 2022 09:35:25.732      8.3649707842    Earth           Penumbra    45            2144.5052146
30 Apr 2022 10:33:11.309    30 Apr 2022 10:33:19.741      8.4314657841    Earth           Penumbra    46            2136.7413897
30 Apr 2022 10:33:19.741    30 Apr 2022 11:08:48.051      2128.3099239    Earth           Umbra       46            2136.7413897
30 Apr 2022 12:06:41.316    30 Apr 2022 12:06:49.738      8.4223749815    Earth           Penumbra    47            2137.3061614
30 Apr 2022 12:06:49.738    30 Apr 2022 12:42:18.622      2128.8837864    Earth           Umbra       47            2137.3061614
30 Apr 2022 13:40:11.310    30 Apr 2022 13:40:19.723      8.4134149365    Earth           Penumbra    48            2137.8416899
30 Apr 2022 13:40:19.723    30 Apr 2022 14:15:49.152      2129.4282749    Earth           Umbra       48            2137.8416899
30 Apr 2022 15:13:41.340    30 Apr 2022 15:13:49.745      8.4048276767    Earth           Penumbra    49            2146.6946329
30 Apr 2022 15:13:49.745    30 Apr 2022 15:49:19.703      2129.9577141    Earth           Umbra       49            2146.6946329
30 Apr 2022 15:49:19.703    30 Apr 2022 15:49:28.035      8.3320911974    Earth           Penumbra    49            2146.6946329
30 Apr 2022 16:47:11.384    30 Apr 2022 16:47:19.781      8.3966220031    Earth           Penumbra    50            2147.1971894
30 Apr 2022 16:47:19.781    30 Apr 2022 17:22:50.257      2130.4763827    Earth           Umbra       50            2147.1971894
30 Apr 2022 17:22:50.257    30 Apr 2022 17:22:58.581      8.3241847577    Earth           Penumbra    50            2147.1971894
30 Apr 2022 18:20:41.404    30 Apr 2022 18:20:49.792      8.3885914064    Earth           Penumbra    51            2147.6838997
30 Apr 2022 18:20:49.792    30 Apr 2022 18:56:20.771      2130.9788750    Earth           Umbra       51            2147.6838997
30 Apr 2022 18:56:20.771    30 Apr 2022 18:56:29.088      8.3164332784    Earth           Penumbra    51            2147.6838997
30 Apr 2022 19:54:11.408    30 Apr 2022 19:54:19.789      8.3805372356    Earth           Penumbra    52            2148.1488319
30 Apr 2022 19:54:19.789    30 Apr 2022 20:29:51.248      2131.4594605    Earth           Umbra       52            2148.1488319
30 Apr 2022 20:29:51.248    30 Apr 2022 20:29:59.557      8.3088342450    Earth           Penumbra    52            2148.1488319
30 Apr 2022 21:27:41.430    30 Apr 2022 21:27:49.803      8.3724720636    Earth           Penumbra    53            2148.5906647
30 Apr 2022 21:27:49.803    30 Apr 2022 22:03:21.719      2131.9167207    Earth           Umbra       53            2148.5906647
30 Apr 2022 22:03:21.719    30 Apr 2022 22:03:30.021      8.3014718955    Earth           Penumbra    53            2148.5906647
30 Apr 2022 23:01:11.467    30 Apr 2022 23:01:19.832      8.3646115148    Earth           Penumbra    54            2149.0149835
30 Apr 2022 23:01:19.832    30 Apr 2022 23:36:52.188      2132.3559525    Earth           Umbra       54            2149.0149835
30 Apr 2022 23:36:52.188    30 Apr 2022 23:37:00.482      8.2944194670    Earth           Penumbra    54            2149.0149835
01 May 2022 00:34:41.466    01 May 2022 00:34:49.823      8.3571378957    Earth           Penumbra    55            2149.4327835
01 May 2022 00:34:49.823    01 May 2022 01:10:22.611      2132.7879529    Earth           Umbra       55            2149.4327835
01 May 2022 01:10:22.611    01 May 2022 01:10:30.898      8.2876926754    Earth           Penumbra    55            2149.4327835
01 May 2022 02:08:11.374    01 May 2022 02:08:19.724      8.3500420908    Earth           Penumbra    56            2149.8500461
01 May 2022 02:08:19.724    01 May 2022 02:43:52.942      2133.2186967    Earth           Umbra       56            2149.8500461
01 May 2022 02:43:52.942    01 May 2022 02:44:01.224      8.2813072368    Earth           Penumbra    56            2149.8500461
01 May 2022 03:41:41.208    01 May 2022 03:41:49.551      8.3432665793    Earth           Penumbra    57            2150.2613790
01 May 2022 03:41:49.551    01 May 2022 04:17:23.194      2133.6428228    Earth           Umbra       57            2150.2613790
01 May 2022 04:17:23.194    01 May 2022 04:17:31.469      8.2752895541    Earth           Penumbra    57            2150.2613790
01 May 2022 05:15:11.056    01 May 2022 05:15:19.393      8.3368877415    Earth           Penumbra    58            2150.6607742
01 May 2022 05:15:19.393    01 May 2022 05:50:53.447      2134.0542374    Earth           Umbra       58            2150.6607742
01 May 2022 05:50:53.447    01 May 2022 05:51:01.717      8.2696490572    Earth           Penumbra    58            2150.6607742
01 May 2022 06:48:40.989    01 May 2022 06:48:49.320      8.3309860434    Earth           Penumbra    59            2151.0514232
01 May 2022 06:48:49.320    01 May 2022 07:24:23.776      2134.4560769    Earth           Umbra       59            2151.0514232
01 May 2022 07:24:23.776    01 May 2022 07:24:32.041      8.2643602858    Earth           Penumbra    59            2151.0514232
01 May 2022 08:22:10.974    01 May 2022 08:22:19.299      8.3254074678    Earth           Penumbra    60            2151.4347042
01 May 2022 08:22:19.299    01 May 2022 08:57:54.149      2134.8499410    Earth           Umbra       60            2151.4347042
01 May 2022 08:57:54.149    01 May 2022 08:58:02.408      8.2593556610    Earth           Penumbra    60            2151.4347042
01 May 2022 09:55:40.915    01 May 2022 09:55:49.235      8.3198537235    Earth           Penumbra    61            2151.7978635
01 May 2022 09:55:49.235    01 May 2022 10:31:24.458      2135.2235079    Earth           Umbra       61            2151.7978635
01 May 2022 10:31:24.458    01 May 2022 10:31:32.713      8.2545019104    Earth           Penumbra    61            2151.7978635
01 May 2022 11:29:10.777    01 May 2022 11:29:19.091      8.3142041112    Earth           Penumbra    62            2152.1261634
01 May 2022 11:29:19.091    01 May 2022 12:04:54.654      2135.5622951    Earth           Umbra       62            2152.1261634
01 May 2022 12:04:54.654    01 May 2022 12:05:02.903      8.2496641902    Earth           Penumbra    62            2152.1261634
01 May 2022 13:02:40.618    01 May 2022 13:02:48.927      8.3086371655    Earth           Penumbra    63            2152.4217144
01 May 2022 13:02:48.927    01 May 2022 13:38:24.795      2135.8682470    Earth           Umbra       63            2152.4217144
01 May 2022 13:38:24.795    01 May 2022 13:38:33.040      8.2448302419    Earth           Penumbra    63            2152.4217144
01 May 2022 14:36:10.497    01 May 2022 14:36:18.801      8.3033977426    Earth           Penumbra    64            2152.6984159
01 May 2022 14:36:18.801    01 May 2022 15:11:54.956      2136.1548999    Earth           Umbra       64            2152.6984159
01 May 2022 15:11:54.956    01 May 2022 15:12:03.196      8.2401182503    Earth           Penumbra    64            2152.6984159
01 May 2022 16:09:40.401    01 May 2022 16:09:48.699      8.2985502784    Earth           Penumbra    65            2152.9630692
01 May 2022 16:09:48.699    01 May 2022 16:45:25.128      2136.4289096    Earth           Umbra       65            2152.9630692
01 May 2022 16:45:25.128    01 May 2022 16:45:33.364      8.2356093102    Earth           Penumbra    65            2152.9630692
01 May 2022 17:43:10.287    01 May 2022 17:43:18.581      8.2939416985    Earth           Penumbra    66            2153.2112592
01 May 2022 17:43:18.581    01 May 2022 18:18:55.267      2136.6860320    Earth           Umbra       66            2153.2112592
01 May 2022 18:18:55.267    01 May 2022 18:19:03.498      8.2312855055    Earth           Penumbra    66            2153.2112592
01 May 2022 19:16:40.156    01 May 2022 19:16:48.445      8.2893730374    Earth           Penumbra    67            2153.4371620
01 May 2022 19:16:48.445    01 May 2022 19:52:25.366      2136.9206629    Earth           Umbra       67            2153.4371620
01 May 2022 19:52:25.366    01 May 2022 19:52:33.593      8.2271260908    Earth           Penumbra    67            2153.4371620
01 May 2022 20:50:10.041    01 May 2022 20:50:18.325      8.2848002901    Earth           Penumbra    68            2153.6398647
01 May 2022 20:50:18.325    01 May 2022 21:25:55.457      2137.1318598    Earth           Umbra       68            2153.6398647
01 May 2022 21:25:55.457    01 May 2022 21:26:03.680      8.2232046174    Earth           Penumbra    68            2153.6398647
01 May 2022 22:23:39.946    01 May 2022 22:23:48.226      8.2803900470    Earth           Penumbra    69            2153.8244157
01 May 2022 22:23:48.226    01 May 2022 22:59:25.551      2137.3244241    Earth           Umbra       69            2153.8244157
01 May 2022 22:59:25.551    01 May 2022 22:59:33.770      8.2196015515    Earth           Penumbra    69            2153.8244157
01 May 2022 23:57:09.826    01 May 2022 23:57:18.102      8.2763469312    Earth           Penumbra    70            2154.0007330
01 May 2022 23:57:18.102    02 May 2022 00:32:55.610      2137.5080468    Earth           Umbra       70            2154.0007330
02 May 2022 00:32:55.610    02 May 2022 00:33:03.826      8.2163392100    Earth           Penumbra    70            2154.0007330
02 May 2022 01:30:47.896    02 May 2022 02:06:25.586      2137.6895967    Earth           Umbra       71            2145.9030121
02 May 2022 02:06:25.586    02 May 2022 02:06:33.799      8.2134153927    Earth           Penumbra    71            2145.9030121
02 May 2022 03:04:17.614    02 May 2022 03:39:55.479      2137.8650945    Earth           Umbra       72            2146.0759473
02 May 2022 03:39:55.479    02 May 2022 03:40:03.690      8.2108527306    Earth           Penumbra    72            2146.0759473
02 May 2022 04:37:47.337    02 May 2022 05:13:25.363      2138.0266287    Earth           Umbra       73            2146.2353016
02 May 2022 05:13:25.363    02 May 2022 05:13:33.572      8.2086729119    Earth           Penumbra    73            2146.2353016
02 May 2022 06:11:17.145    02 May 2022 06:46:55.319      2138.1749717    Earth           Umbra       74            2146.3818329
02 May 2022 06:46:55.319    02 May 2022 06:47:03.526      8.2068611635    Earth           Penumbra    74            2146.3818329
02 May 2022 07:44:47.019    02 May 2022 08:20:25.333      2138.3142261    Earth           Umbra       75            2146.5195842
02 May 2022 08:20:25.333    02 May 2022 08:20:33.539      8.2053580787    Earth           Penumbra    75            2146.5195842
02 May 2022 09:18:16.864    02 May 2022 09:53:55.301      2138.4366304    Earth           Umbra       76            2146.6406706
02 May 2022 09:53:55.301    02 May 2022 09:54:03.505      8.2040401292    Earth           Penumbra    76            2146.6406706
02 May 2022 10:51:46.629    02 May 2022 11:27:25.156      2138.5269931    Earth           Umbra       77            2146.7297599
02 May 2022 11:27:25.156    02 May 2022 11:27:33.359      8.2027668133    Earth           Penumbra    77            2146.7297599
02 May 2022 12:25:16.363    02 May 2022 13:00:54.946      2138.5822631    Earth           Umbra       78            2146.7837572
02 May 2022 13:00:54.946    02 May 2022 13:01:03.147      8.2014941261    Earth           Penumbra    78            2146.7837572
02 May 2022 13:58:37.881    02 May 2022 13:58:46.135      8.2542479387    Earth           Penumbra    79            2155.0684723
02 May 2022 13:58:46.135    02 May 2022 14:34:24.749      2138.6139067    Earth           Umbra       79            2155.0684723
02 May 2022 14:34:24.749    02 May 2022 14:34:32.950      8.2003176212    Earth           Penumbra    79            2155.0684723
02 May 2022 15:32:07.689    02 May 2022 15:32:15.942      8.2528979285    Earth           Penumbra    80            2155.0828000
02 May 2022 15:32:15.942    02 May 2022 16:07:54.573      2138.6305573    Earth           Umbra       80            2155.0828000
02 May 2022 16:07:54.573    02 May 2022 16:08:02.772      8.1993447966    Earth           Penumbra    80            2155.0828000
02 May 2022 17:05:37.489    02 May 2022 17:05:45.741      8.2518427516    Earth           Penumbra    81            2155.0798287
02 May 2022 17:05:45.741    02 May 2022 17:41:24.370      2138.6293993    Earth           Umbra       81            2155.0798287
02 May 2022 17:41:24.370    02 May 2022 17:41:32.569      8.1985866535    Earth           Penumbra    81            2155.0798287
02 May 2022 18:39:07.271    02 May 2022 18:39:15.522      8.2508935011    Earth           Penumbra    82            2155.0536621
02 May 2022 18:39:15.522    02 May 2022 19:14:54.127      2138.6047515    Earth           Umbra       82            2155.0536621
02 May 2022 19:14:54.127    02 May 2022 19:15:02.325      8.1980171031    Earth           Penumbra    82            2155.0536621
02 May 2022 20:12:37.066    02 May 2022 20:12:45.316      8.2499631098    Earth           Penumbra    83            2155.0037186
02 May 2022 20:12:45.316    02 May 2022 20:48:23.872      2138.5560703    Earth           Umbra       83            2155.0037186
02 May 2022 20:48:23.872    02 May 2022 20:48:32.070      8.1976851798    Earth           Penumbra    83            2155.0037186
02 May 2022 21:46:06.886    02 May 2022 21:46:15.135      8.2491659909    Earth           Penumbra    84            2154.9350803
02 May 2022 21:46:15.135    02 May 2022 22:21:53.623      2138.4882341    Earth           Umbra       84            2154.9350803
02 May 2022 22:21:53.623    02 May 2022 22:22:01.821      8.1976801506    Earth           Penumbra    84            2154.9350803
02 May 2022 23:19:36.692    02 May 2022 23:19:44.941      8.2487102249    Earth           Penumbra    85            2154.8566496
02 May 2022 23:19:44.941    02 May 2022 23:55:23.350      2138.4099027    Earth           Umbra       85            2154.8566496
02 May 2022 23:55:23.350    02 May 2022 23:55:31.548      8.1980365911    Earth           Penumbra    85            2154.8566496
03 May 2022 00:53:06.426    03 May 2022 00:53:14.675      8.2486822503    Earth           Penumbra    86            2154.7755889
03 May 2022 00:53:14.675    03 May 2022 01:28:53.003      2138.3281644    Earth           Umbra       86            2154.7755889
03 May 2022 01:28:53.003    03 May 2022 01:29:01.201      8.1987422425    Earth           Penumbra    86            2154.7755889
03 May 2022 02:26:36.081    03 May 2022 02:26:44.330      8.2490371191    Earth           Penumbra    87            2154.6893624
03 May 2022 02:26:44.330    03 May 2022 03:02:22.571      2138.2405178    Earth           Umbra       87            2154.6893624
03 May 2022 03:02:22.571    03 May 2022 03:02:30.771      8.1998074776    Earth           Penumbra    87            2154.6893624
03 May 2022 04:00:05.732    03 May 2022 04:00:13.982      8.2497908617    Earth           Penumbra    88            2154.5890407
03 May 2022 04:00:13.982    03 May 2022 04:35:52.120      2138.1379887    Earth           Umbra       88            2154.5890407
03 May 2022 04:35:52.120    03 May 2022 04:36:00.321      8.2012612140    Earth           Penumbra    88            2154.5890407
03 May 2022 05:33:35.467    03 May 2022 05:33:43.718      8.2510236301    Earth           Penumbra    89            2154.4726337
03 May 2022 05:33:43.718    03 May 2022 06:09:21.736      2138.0185066    Earth           Umbra       89            2154.4726337
03 May 2022 06:09:21.736    03 May 2022 06:09:29.939      8.2031034515    Earth           Penumbra    89            2154.4726337
03 May 2022 07:07:05.281    03 May 2022 07:07:13.533      8.2526697312    Earth           Penumbra    90            2154.3453295
03 May 2022 07:07:13.533    03 May 2022 07:42:51.421      2137.8873784    Earth           Umbra       90            2154.3453295
03 May 2022 07:42:51.421    03 May 2022 07:42:59.626      8.2052813843    Earth           Penumbra    90            2154.3453295
03 May 2022 08:40:35.081    03 May 2022 08:40:43.335      8.2544553909    Earth           Penumbra    91            2154.2039059
03 May 2022 08:40:43.335    03 May 2022 09:16:21.077      2137.7417665    Earth           Umbra       91            2154.2039059
03 May 2022 09:16:21.077    03 May 2022 09:16:29.284      8.2076840568    Earth           Penumbra    91            2154.2039059
03 May 2022 10:14:04.801    03 May 2022 10:14:13.057      8.2561703282    Earth           Penumbra    92            2154.0339165
03 May 2022 10:14:13.057    03 May 2022 10:49:50.625      2137.5675793    Earth           Umbra       92            2154.0339165
03 May 2022 10:49:50.625    03 May 2022 10:49:58.835      8.2101668813    Earth           Penumbra    92            2154.0339165
03 May 2022 11:47:34.481    03 May 2022 11:47:42.739      8.2578884088    Earth           Penumbra    93            2153.8278289
03 May 2022 11:47:42.739    03 May 2022 12:23:20.096      2137.3572854    Earth           Umbra       93            2153.8278289
03 May 2022 12:23:20.096    03 May 2022 12:23:28.309      8.2126550493    Earth           Penumbra    93            2153.8278289
03 May 2022 13:21:04.196    03 May 2022 13:21:12.456      8.2598478883    Earth           Penumbra    94            2145.3789679
03 May 2022 13:21:12.456    03 May 2022 13:56:49.575      2137.1191200    Earth           Umbra       94            2145.3789679
03 May 2022 14:54:33.955    03 May 2022 14:54:42.217      8.2621917827    Earth           Penumbra    95            2145.1251999
03 May 2022 14:54:42.217    03 May 2022 15:30:19.080      2136.8630082    Earth           Umbra       95            2145.1251999
03 May 2022 16:28:03.715    03 May 2022 16:28:11.979      8.2648735726    Earth           Penumbra    96            2144.8526855
03 May 2022 16:28:11.979    03 May 2022 17:03:48.567      2136.5878119    Earth           Umbra       96            2144.8526855
03 May 2022 18:01:33.458    03 May 2022 18:01:41.726      8.2677338971    Earth           Penumbra    97            2144.5553777
03 May 2022 18:01:41.726    03 May 2022 18:37:18.014      2136.2876438    Earth           Umbra       97            2144.5553777
03 May 2022 19:35:03.212    03 May 2022 19:35:11.483      8.2706529996    Earth           Penumbra    98            2152.4604420
03 May 2022 19:35:11.483    03 May 2022 20:10:47.445      2135.9620955    Earth           Umbra       98            2152.4604420
03 May 2022 20:10:47.445    03 May 2022 20:10:55.672      8.2276934409    Earth           Penumbra    98            2152.4604420
03 May 2022 21:08:32.993    03 May 2022 21:08:41.267      8.2736934302    Earth           Penumbra    99            2152.1218094
03 May 2022 21:08:41.267    03 May 2022 21:44:16.883      2135.6166114    Earth           Umbra       99            2152.1218094
03 May 2022 21:44:16.883    03 May 2022 21:44:25.115      8.2315045875    Earth           Penumbra    99            2152.1218094
03 May 2022 22:42:02.771    03 May 2022 22:42:11.048      8.2770491252    Earth           Penumbra    100           2151.7719254
03 May 2022 22:42:11.048    03 May 2022 23:17:46.307      2135.2591733    Earth           Umbra       100           2151.7719254
03 May 2022 23:17:46.307    03 May 2022 23:17:54.543      8.2357029780    Earth           Penumbra    100           2151.7719254
04 May 2022 00:15:32.489    04 May 2022 00:15:40.769      8.2808489562    Earth           Penumbra    101           2151.4176450
04 May 2022 00:15:40.769    04 May 2022 00:51:15.666      2134.8965181    Earth           Umbra       101           2151.4176450
04 May 2022 00:51:15.666    04 May 2022 00:51:23.906      8.2402779255    Earth           Penumbra    101           2151.4176450
04 May 2022 01:49:02.128    04 May 2022 01:49:10.413      8.2850772073    Earth           Penumbra    102           2151.0577128
04 May 2022 01:49:10.413    04 May 2022 02:24:44.940      2134.5274137    Earth           Umbra       102           2151.0577128
04 May 2022 02:24:44.940    04 May 2022 02:24:53.185      8.2452218863    Earth           Penumbra    102           2151.0577128
04 May 2022 03:22:31.753    04 May 2022 03:22:40.043      8.2897238201    Earth           Penumbra    103           2150.6828352
04 May 2022 03:22:40.043    04 May 2022 03:58:14.186      2134.1425492    Earth           Umbra       103           2150.6828352
04 May 2022 03:58:14.186    04 May 2022 03:58:22.436      8.2505622064    Earth           Penumbra    103           2150.6828352
04 May 2022 04:56:01.459    04 May 2022 04:56:09.754      8.2948573167    Earth           Penumbra    104           2150.2880774
04 May 2022 04:56:09.754    04 May 2022 05:31:43.491      2133.7369071    Earth           Umbra       104           2150.2880774
04 May 2022 05:31:43.491    04 May 2022 05:31:51.747      8.2563130301    Earth           Penumbra    104           2150.2880774
04 May 2022 06:29:31.257    04 May 2022 06:29:39.558      8.3004478365    Earth           Penumbra    105           2149.8785538
04 May 2022 06:29:39.558    04 May 2022 07:05:12.874      2133.3156702    Earth           Umbra       105           2149.8785538
04 May 2022 07:05:12.874    04 May 2022 07:05:21.136      8.2624356961    Earth           Penumbra    105           2149.8785538
04 May 2022 08:03:01.058    04 May 2022 08:03:09.365      8.3062467515    Earth           Penumbra    106           2149.4558402
04 May 2022 08:03:09.365    04 May 2022 08:38:42.245      2132.8807645    Earth           Umbra       106           2149.4558402
04 May 2022 08:38:42.245    04 May 2022 08:38:50.514      8.2688289927    Earth           Penumbra    106           2149.4558402
04 May 2022 09:36:30.783    04 May 2022 09:36:39.095      8.3120104624    Earth           Penumbra    107           2149.0082718
04 May 2022 09:36:39.095    04 May 2022 10:12:11.516      2132.4209139    Earth           Umbra       107           2149.0082718
04 May 2022 10:12:11.516    04 May 2022 10:12:19.791      8.2753473893    Earth           Penumbra    107           2149.0082718
04 May 2022 11:10:00.457    04 May 2022 11:10:08.775      8.3177540568    Earth           Penumbra    108           2148.5247653
04 May 2022 11:10:08.775    04 May 2022 11:45:40.700      2131.9251260    Earth           Umbra       108           2148.5247653
04 May 2022 11:45:40.700    04 May 2022 11:45:48.982      8.2818852738    Earth           Penumbra    108           2148.5247653
04 May 2022 12:43:30.161    04 May 2022 12:43:38.485      8.3236972452    Earth           Penumbra    109           2148.0096706
04 May 2022 12:43:38.485    04 May 2022 13:19:09.883      2131.3974930    Earth           Umbra       109           2148.0096706
04 May 2022 13:19:09.883    04 May 2022 13:19:18.171      8.2884803647    Earth           Penumbra    109           2148.0096706
04 May 2022 14:16:59.918    04 May 2022 14:17:08.248      8.3300173050    Earth           Penumbra    110           2139.1783267
04 May 2022 14:17:08.248    04 May 2022 14:52:39.096      2130.8483094    Earth           Umbra       110           2139.1783267
04 May 2022 15:50:29.687    04 May 2022 15:50:38.024      8.3367139217    Earth           Penumbra    111           2138.6149547
04 May 2022 15:50:38.024    04 May 2022 16:26:08.302      2130.2782408    Earth           Umbra       111           2138.6149547
04 May 2022 17:24:07.786    04 May 2022 17:59:37.468      2129.6811710    Earth           Umbra       112           2137.9908482
04 May 2022 17:59:37.468    04 May 2022 17:59:45.777      8.3096772549    Earth           Penumbra    112           2137.9908482
04 May 2022 18:57:37.556    04 May 2022 19:33:06.613      2129.0564283    Earth           Umbra       113           2137.3737100
04 May 2022 19:33:06.613    04 May 2022 19:33:14.930      8.3172816318    Earth           Penumbra    113           2137.3737100
04 May 2022 20:31:07.356    04 May 2022 21:06:35.766      2128.4103477    Earth           Umbra       114           2136.7355791
04 May 2022 21:06:35.766    04 May 2022 21:06:44.092      8.3252314478    Earth           Penumbra    114           2136.7355791
04 May 2022 22:04:37.163    04 May 2022 22:40:04.914      2127.7508024    Earth           Umbra       115           2136.0844033
04 May 2022 22:40:04.914    04 May 2022 22:40:13.247      8.3336008829    Earth           Penumbra    115           2136.0844033
04 May 2022 23:38:06.921    05 May 2022 00:13:34.004      2127.0838037    Earth           Umbra       116           2135.4261930
05 May 2022 00:13:34.004    05 May 2022 00:13:42.347      8.3423893084    Earth           Penumbra    116           2135.4261930
05 May 2022 01:11:36.603    05 May 2022 01:47:03.012      2126.4089375    Earth           Umbra       117           2134.7605100
05 May 2022 01:47:03.012    05 May 2022 01:47:11.364      8.3515725215    Earth           Penumbra    117           2134.7605100
05 May 2022 02:44:57.874    05 May 2022 02:45:06.265      8.3906847867    Earth           Penumbra    118           2142.4689885
05 May 2022 02:45:06.265    05 May 2022 03:20:31.982      2125.7171353    Earth           Umbra       118           2142.4689885
05 May 2022 03:20:31.982    05 May 2022 03:20:40.343      8.3611684386    Earth           Penumbra    118           2142.4689885
05 May 2022 04:18:27.603    05 May 2022 04:18:36.003      8.4000770235    Earth           Penumbra    119           2141.7719407
05 May 2022 04:18:36.003    05 May 2022 04:54:01.004      2125.0006643    Earth           Umbra       119           2141.7719407
05 May 2022 04:54:01.004    05 May 2022 04:54:09.375      8.3711993764    Earth           Penumbra    119           2141.7719407
05 May 2022 05:51:57.436    05 May 2022 05:52:05.846      8.4099721746    Earth           Penumbra    120           2141.0549818
05 May 2022 05:52:05.846    05 May 2022 06:27:30.109      2124.2633628    Earth           Umbra       120           2141.0549818
05 May 2022 06:27:30.109    05 May 2022 06:27:38.491      8.3816467901    Earth           Penumbra    120           2141.0549818
05 May 2022 07:25:27.290    05 May 2022 07:25:35.710      8.4201555583    Earth           Penumbra    121           2131.9314297
05 May 2022 07:25:35.710    05 May 2022 08:00:59.221      2123.5112742    Earth           Umbra       121           2131.9314297
05 May 2022 08:58:57.072    05 May 2022 08:59:05.502      8.4303549724    Earth           Penumbra    122           2131.1677633
05 May 2022 08:59:05.502    05 May 2022 09:34:28.240      2122.7374083    Earth           Umbra       122           2131.1677633
05 May 2022 10:32:26.795    05 May 2022 10:32:35.236      8.4405267262    Earth           Penumbra    123           2138.7836859
05 May 2022 10:32:35.236    05 May 2022 11:07:57.165      2121.9287729    Earth           Umbra       123           2138.7836859
05 May 2022 11:07:57.165    05 May 2022 11:08:05.579      8.4143861895    Earth           Penumbra    123           2138.7836859
05 May 2022 12:05:56.542    05 May 2022 12:06:04.993      8.4508641274    Earth           Penumbra    124           2137.9610807
05 May 2022 12:06:04.993    05 May 2022 12:41:26.077      2121.0847764    Earth           Umbra       124           2137.9610807
05 May 2022 12:41:26.077    05 May 2022 12:41:34.503      8.4254402434    Earth           Penumbra    124           2137.9610807
05 May 2022 13:39:26.348    05 May 2022 13:39:34.809      8.4615673986    Earth           Penumbra    125           2137.1132334
05 May 2022 13:39:34.809    05 May 2022 14:14:55.024      2120.2149838    Earth           Umbra       125           2137.1132334
05 May 2022 14:14:55.024    05 May 2022 14:15:03.461      8.4366822615    Earth           Penumbra    125           2137.1132334
05 May 2022 15:12:56.178    05 May 2022 15:13:04.651      8.4726846311    Earth           Penumbra    126           2136.2427383
05 May 2022 15:13:04.651    05 May 2022 15:48:23.973      2119.3218129    Earth           Umbra       126           2136.2427383
05 May 2022 15:48:23.973    05 May 2022 15:48:32.421      8.4482408012    Earth           Penumbra    126           2136.2427383
05 May 2022 16:46:26.001    05 May 2022 16:46:34.485      8.4841303295    Earth           Penumbra    127           2135.3432298
05 May 2022 16:46:34.485    05 May 2022 17:21:52.884      2118.3989723    Earth           Umbra       127           2135.3432298
05 May 2022 17:21:52.884    05 May 2022 17:22:01.344      8.4601271781    Earth           Penumbra    127           2135.3432298
05 May 2022 18:19:55.829    05 May 2022 18:20:04.324      8.4957727930    Earth           Penumbra    128           2134.4131293
05 May 2022 18:20:04.324    05 May 2022 18:55:21.769      2117.4450371    Earth           Umbra       128           2134.4131293
05 May 2022 18:55:21.769    05 May 2022 18:55:30.242      8.4723193897    Earth           Penumbra    128           2134.4131293
05 May 2022 19:53:25.687    05 May 2022 19:53:34.195      8.5075743031    Earth           Penumbra    129           2133.4597985
05 May 2022 19:53:34.195    05 May 2022 20:28:50.662      2116.4673474    Earth           Umbra       129           2133.4597985
05 May 2022 20:28:50.662    05 May 2022 20:28:59.147      8.4848768427    Earth           Penumbra    129           2133.4597985
05 May 2022 21:26:55.561    05 May 2022 21:27:04.081      8.5196653032    Earth           Penumbra    130           2132.4919493
05 May 2022 21:27:04.081    05 May 2022 22:02:19.555      2115.4743926    Earth           Umbra       130           2132.4919493
05 May 2022 22:02:19.555    05 May 2022 22:02:28.053      8.4978913190    Earth           Penumbra    130           2132.4919493
05 May 2022 23:00:25.398    05 May 2022 23:00:33.930      8.5322343861    Earth           Penumbra    131           2123.0035741
05 May 2022 23:00:33.930    05 May 2022 23:35:48.402      2114.4713397    Earth           Umbra       131           2123.0035741
06 May 2022 00:33:55.164    06 May 2022 00:34:03.709      8.5453434731    Earth           Penumbra    132           2130.5286339
06 May 2022 00:34:03.709    06 May 2022 01:09:17.167      2113.4579689    Earth           Umbra       132           2130.5286339
06 May 2022 01:09:17.167    06 May 2022 01:09:25.693      8.5253215162    Earth           Penumbra    132           2130.5286339
06 May 2022 02:07:24.902    06 May 2022 02:07:33.461      8.5589671042    Earth           Penumbra    133           2129.5244767
06 May 2022 02:07:33.461    06 May 2022 02:42:45.887      2112.4258123    Earth           Umbra       133           2129.5244767
06 May 2022 02:42:45.887    06 May 2022 02:42:54.427      8.5396973183    Earth           Penumbra    133           2129.5244767
06 May 2022 03:40:54.711    06 May 2022 03:41:03.284      8.5731291678    Earth           Penumbra    134           2128.4925811
06 May 2022 03:41:03.284    06 May 2022 04:16:14.649      2111.3649076    Earth           Umbra       134           2128.4925811
06 May 2022 04:16:14.649    06 May 2022 04:16:23.203      8.5545442882    Earth           Penumbra    134           2128.4925811
06 May 2022 05:14:24.634    06 May 2022 05:14:33.222      8.5878463229    Earth           Penumbra    135           2127.4344625
06 May 2022 05:14:33.222    06 May 2022 05:49:43.498      2110.2767566    Earth           Umbra       135           2127.4344625
06 May 2022 05:49:43.498    06 May 2022 05:49:52.068      8.5698595969    Earth           Penumbra    135           2127.4344625
06 May 2022 06:47:54.598    06 May 2022 06:48:03.201      8.6029434926    Earth           Penumbra    136           2126.3589833
06 May 2022 06:48:03.201    06 May 2022 07:23:12.371      2109.1704639    Earth           Umbra       136           2126.3589833
06 May 2022 07:23:12.371    06 May 2022 07:23:20.957      8.5855759797    Earth           Penumbra    136           2126.3589833
06 May 2022 08:21:24.499    06 May 2022 08:21:33.117      8.6181308725    Earth           Penumbra    137           2125.2640901
06 May 2022 08:21:33.117    06 May 2022 08:56:41.162      2108.0444132    Earth           Umbra       137           2125.2640901
06 May 2022 08:56:41.162    06 May 2022 08:56:49.763      8.6015460198    Earth           Penumbra    137           2125.2640901
06 May 2022 09:54:54.333    06 May 2022 09:55:02.966      8.6333012790    Earth           Penumbra    138           2124.1363302
06 May 2022 09:55:02.966    06 May 2022 10:30:09.851      2106.8854145    Earth           Umbra       138           2124.1363302
06 May 2022 10:30:09.851    06 May 2022 10:30:18.469      8.6176144425    Earth           Penumbra    138           2124.1363302
06 May 2022 11:28:24.181    06 May 2022 11:28:32.829      8.6486137589    Earth           Penumbra    139           2114.3367467
06 May 2022 11:28:32.829    06 May 2022 12:03:38.518      2105.6881329    Earth           Umbra       139           2114.3367467
06 May 2022 13:01:54.095    06 May 2022 13:02:02.759      8.6642833077    Earth           Penumbra    140           2121.7745552
06 May 2022 13:02:02.759    06 May 2022 13:37:07.219      2104.4602318    Earth           Umbra       140           2121.7745552
06 May 2022 13:37:07.219    06 May 2022 13:37:15.869      8.6500401492    Earth           Penumbra    140           2121.7745552
06 May 2022 14:35:24.046    06 May 2022 14:35:32.726      8.6804051651    Earth           Penumbra    141           2120.5526910
06 May 2022 14:35:32.726    06 May 2022 15:10:35.932      2103.2055879    Earth           Umbra       141           2120.5526910
06 May 2022 15:10:35.932    06 May 2022 15:10:44.599      8.6666979245    Earth           Penumbra    141           2120.5526910
06 May 2022 16:08:53.996    06 May 2022 16:09:02.693      8.6969353259    Earth           Penumbra    142           2119.2985239
06 May 2022 16:09:02.693    06 May 2022 16:44:04.611      2101.9178286    Earth           Umbra       142           2119.2985239
06 May 2022 16:44:04.611    06 May 2022 16:44:13.295      8.6837599170    Earth           Penumbra    142           2119.2985239
06 May 2022 17:42:23.952    06 May 2022 17:42:32.666      8.7137615774    Earth           Penumbra    143           2118.0091896
06 May 2022 17:42:32.666    06 May 2022 18:17:33.260      2100.5942352    Earth           Umbra       143           2118.0091896
06 May 2022 18:17:33.260    06 May 2022 18:17:41.961      8.7011928088    Earth           Penumbra    143           2118.0091896
06 May 2022 19:15:53.939    06 May 2022 19:16:02.670      8.7308087968    Earth           Penumbra    144           2116.6928538
06 May 2022 19:16:02.670    06 May 2022 19:51:01.913      2099.2430198    Earth           Umbra       144           2116.6928538
06 May 2022 19:51:01.913    06 May 2022 19:51:10.632      8.7190252030    Earth           Penumbra    144           2116.6928538
06 May 2022 20:49:23.950    06 May 2022 20:49:32.698      8.7481596507    Earth           Penumbra    145           2115.3596000
06 May 2022 20:49:32.698    06 May 2022 21:24:30.572      2097.8740767    Earth           Umbra       145           2115.3596000
06 May 2022 21:24:30.572    06 May 2022 21:24:39.309      8.7373636547    Earth           Penumbra    145           2115.3596000
06 May 2022 22:22:53.936    06 May 2022 22:23:02.702      8.7660124758    Earth           Penumbra    146           2105.2579436
06 May 2022 22:23:02.702    06 May 2022 22:57:59.194      2096.4919311    Earth           Umbra       146           2105.2579436
06 May 2022 23:56:23.858    06 May 2022 23:56:32.643      8.7844788563    Earth           Penumbra    147           2112.6560005
06 May 2022 23:56:32.643    07 May 2022 00:31:27.739      2095.0958498    Earth           Umbra       147           2112.6560005
07 May 2022 00:31:27.739    07 May 2022 00:31:36.514      8.7756718858    Earth           Penumbra    147           2112.6560005
07 May 2022 01:29:53.748    07 May 2022 01:30:02.552      8.8035399327    Earth           Penumbra    148           2111.2771422
07 May 2022 01:30:02.552    07 May 2022 02:04:56.230      2093.6780259    Earth           Umbra       148           2111.2771422
07 May 2022 02:04:56.230    07 May 2022 02:05:05.026      8.7955762865    Earth           Penumbra    148           2111.2771422
07 May 2022 03:03:23.703    07 May 2022 03:03:32.526      8.8231975911    Earth           Penumbra    149           2109.8661259
07 May 2022 03:03:32.526    07 May 2022 03:38:24.753      2092.2269337    Earth           Umbra       149           2109.8661259
07 May 2022 03:38:24.753    07 May 2022 03:38:33.569      8.8159946026    Earth           Penumbra    149           2109.8661259
07 May 2022 04:36:53.782    07 May 2022 04:37:02.625      8.8434744626    Earth           Penumbra    150           2108.4214807
07 May 2022 04:37:02.625    07 May 2022 05:11:53.366      2090.7410561    Earth           Umbra       150           2108.4214807
07 May 2022 05:11:53.366    07 May 2022 05:12:02.203      8.8369500940    Earth           Penumbra    150           2108.4214807
07 May 2022 06:10:23.923    07 May 2022 06:10:32.787      8.8642369607    Earth           Penumbra    151           2106.9538325
07 May 2022 06:10:32.787    07 May 2022 06:45:22.018      2089.2311996    Earth           Umbra       151           2106.9538325
07 May 2022 06:45:22.018    07 May 2022 06:45:30.876      8.8583959267    Earth           Penumbra    151           2106.9538325
07 May 2022 07:43:54.012    07 May 2022 07:44:02.898      8.8851918234    Earth           Penumbra    152           2105.4670874
07 May 2022 07:44:02.898    07 May 2022 08:18:50.599      2087.7017033    Earth           Umbra       152           2105.4670874
07 May 2022 08:18:50.599    07 May 2022 08:18:59.480      8.8801922277    Earth           Penumbra    152           2105.4670874
07 May 2022 09:17:24.028    07 May 2022 09:17:32.934      8.9061664883    Earth           Penumbra    153           2095.0473620
07 May 2022 09:17:32.934    07 May 2022 09:52:19.075      2086.1411955    Earth           Umbra       153           2095.0473620
07 May 2022 10:50:54.048    07 May 2022 10:51:02.975      8.9272737969    Earth           Penumbra    154           2102.3915936
07 May 2022 10:51:02.975    07 May 2022 11:25:47.515      2084.5401147    Earth           Umbra       154           2102.3915936
07 May 2022 11:25:47.515    07 May 2022 11:25:56.440      8.9242050773    Earth           Penumbra    154           2102.3915936
07 May 2022 12:24:24.138    07 May 2022 12:24:33.087      8.9487369172    Earth           Penumbra    155           2100.7982719
07 May 2022 12:24:33.087    07 May 2022 12:59:15.990      2082.9031001    Earth           Umbra       155           2100.7982719
07 May 2022 12:59:15.990    07 May 2022 12:59:24.936      8.9464348275    Earth           Penumbra    155           2100.7982719
07 May 2022 13:57:54.280    07 May 2022 13:58:03.250      8.9706925792    Earth           Penumbra    156           2099.1746857
07 May 2022 13:58:03.250    07 May 2022 14:32:44.485      2081.2349331    Earth           Umbra       156           2099.1746857
07 May 2022 14:32:44.485    07 May 2022 14:32:53.454      8.9690599940    Earth           Penumbra    156           2099.1746857
07 May 2022 15:31:24.430    07 May 2022 15:31:33.423      8.9931508410    Earth           Penumbra    157           2097.5145556
07 May 2022 15:31:33.423    07 May 2022 16:06:12.952      2079.5292167    Earth           Umbra       157           2097.5145556
07 May 2022 16:06:12.952    07 May 2022 16:06:21.944      8.9921880746    Earth           Penumbra    157           2097.5145556
07 May 2022 17:04:54.588    07 May 2022 17:05:03.604      9.0160227497    Earth           Penumbra    158           2095.8131815
07 May 2022 17:05:03.604    07 May 2022 17:39:41.385      2077.7813770    Earth           Umbra       158           2095.8131815
07 May 2022 17:39:41.385    07 May 2022 17:39:50.401      9.0157816652    Earth           Penumbra    158           2095.8131815
07 May 2022 18:38:24.777    07 May 2022 18:38:33.817      9.0392140090    Earth           Penumbra    159           2094.0791346
07 May 2022 18:38:33.817    07 May 2022 19:13:09.817      2076.0000836    Earth           Umbra       159           2094.0791346
07 May 2022 19:13:09.817    07 May 2022 19:13:18.857      9.0398369939    Earth           Penumbra    159           2094.0791346
07 May 2022 20:11:54.998    07 May 2022 20:12:04.061      9.0627588797    Earth           Penumbra    160           2083.2601726
07 May 2022 20:12:04.061    07 May 2022 20:46:38.259      2074.1974138    Earth           Umbra       160           2083.2601726
07 May 2022 21:45:25.208    07 May 2022 21:45:34.295      9.0868431260    Earth           Penumbra    161           2090.5543759
07 May 2022 21:45:34.295    07 May 2022 22:20:06.673      2072.3777929    Earth           Umbra       161           2090.5543759
07 May 2022 22:20:06.673    07 May 2022 22:20:15.762      9.0897399117    Earth           Penumbra    161           2090.5543759
07 May 2022 23:18:55.363    07 May 2022 23:19:04.475      9.1116286232    Earth           Penumbra    162           2088.7665757
07 May 2022 23:19:04.475    07 May 2022 23:53:35.014      2070.5392961    Earth           Umbra       162           2088.7665757
07 May 2022 23:53:35.014    07 May 2022 23:53:44.130      9.1156509938    Earth           Penumbra    162           2088.7665757
08 May 2022 00:52:25.484    08 May 2022 00:52:34.621      9.1371226008    Earth           Penumbra    163           2086.9537527
08 May 2022 00:52:34.621    08 May 2022 01:27:03.296      2068.6744931    Earth           Umbra       163           2086.9537527
08 May 2022 01:27:03.296    08 May 2022 01:27:12.438      9.1421369696    Earth           Penumbra    163           2086.9537527
08 May 2022 02:25:55.665    08 May 2022 02:26:04.828      9.1632995987    Earth           Penumbra    164           2085.1035329
08 May 2022 02:26:04.828    08 May 2022 03:00:31.599      2066.7710314    Earth           Umbra       164           2085.1035329
08 May 2022 03:00:31.599    08 May 2022 03:00:40.768      9.1692019254    Earth           Penumbra    164           2085.1035329
08 May 2022 03:59:25.977    08 May 2022 03:59:35.167      9.1901822481    Earth           Penumbra    165           2083.2111492
08 May 2022 03:59:35.167    08 May 2022 04:33:59.991      2064.8240787    Earth           Umbra       165           2083.2111492
08 May 2022 04:33:59.991    08 May 2022 04:34:09.188      9.1968882945    Earth           Penumbra    165           2083.2111492
08 May 2022 05:32:56.374    08 May 2022 05:33:05.592      9.2176778242    Earth           Penumbra    166           2072.0622752
08 May 2022 05:33:05.592    08 May 2022 06:07:28.437      2062.8445974    Earth           Umbra       166           2072.0622752
08 May 2022 07:06:26.737    08 May 2022 07:06:35.982      9.2455021804    Earth           Penumbra    167           2079.3423259
08 May 2022 07:06:35.982    08 May 2022 07:40:56.825      2060.8428663    Earth           Umbra       167           2079.3423259
08 May 2022 07:40:56.825    08 May 2022 07:41:06.079      9.2539574252    Earth           Penumbra    167           2079.3423259
08 May 2022 08:39:57.020    08 May 2022 08:40:06.294      9.2734227190    Earth           Penumbra    168           2077.3678339
08 May 2022 08:40:06.294    08 May 2022 09:14:25.105      2058.8114019    Earth           Umbra       168           2077.3678339
08 May 2022 09:14:25.105    08 May 2022 09:14:34.388      9.2830092064    Earth           Penumbra    168           2077.3678339
08 May 2022 10:13:27.298    08 May 2022 10:13:36.599      9.3014850165    Earth           Penumbra    169           2075.3512309
08 May 2022 10:13:36.599    08 May 2022 10:47:53.337      2056.7375545    Earth           Umbra       169           2075.3512309
