GMAT/Constellation/Eclipses/eclipse16.txt

Spacecraft: HSEYE16

Start Time (UTC)            Stop Time (UTC)               Duration (s)    Occ Body        Type        Event Number  Total Duration (s)
27 Apr 2022 12:10:12.672    27 Apr 2022 12:10:23.336      10.663790919    Earth           Penumbra    1             2003.7556819
27 Apr 2022 12:10:23.336    27 Apr 2022 12:43:25.807      1982.4710876    Earth           Umbra       1             2003.7556819
27 Apr 2022 12:43:25.807    27 Apr 2022 12:43:36.427      10.620803386    Earth           Penumbra    1             2003.7556819
27 Apr 2022 13:43:43.218    27 Apr 2022 13:43:53.874      10.655950487    Earth           Penumbra    2             2004.2932513
27 Apr 2022 13:43:53.874    27 Apr 2022 14:16:56.900      1983.0261851    Earth           Umbra       2             2004.2932513
27 Apr 2022 14:16:56.900    27 Apr 2022 14:17:07.511      10.611115687    Earth           Penumbra    2             2004.2932513
27 Apr 2022 15:17:13.687    27 Apr 2022 15:17:24.334      10.647372028    Earth           Penumbra    3             2004.8410776
27 Apr 2022 15:17:24.334    27 Apr 2022 15:50:27.927      1983.5931872    Earth           Umbra       3             2004.8410776
27 Apr 2022 15:50:27.927    27 Apr 2022 15:50:38.528      10.600518342    Earth           Penumbra    3             2004.8410776
27 Apr 2022 16:50:44.104    27 Apr 2022 16:50:54.743      10.638409154    Earth           Penumbra    4             2005.4182257
27 Apr 2022 16:50:54.743    27 Apr 2022 17:23:58.933      1984.1905710    Earth           Umbra       4             2005.4182257
27 Apr 2022 17:23:58.933    27 Apr 2022 17:24:09.522      10.589245521    Earth           Penumbra    4             2005.4182257
27 Apr 2022 18:24:14.517    27 Apr 2022 18:24:25.146      10.629463568    Earth           Penumbra    5             2006.0325935
27 Apr 2022 18:24:25.146    27 Apr 2022 18:57:29.971      1984.8252754    Earth           Umbra       5             2006.0325935
27 Apr 2022 18:57:29.971    27 Apr 2022 18:57:40.549      10.577854514    Earth           Penumbra    5             2006.0325935
27 Apr 2022 19:57:44.924    27 Apr 2022 19:57:55.544      10.620523640    Earth           Penumbra    6             2006.6769960
27 Apr 2022 19:57:55.544    27 Apr 2022 20:31:01.034      1985.4899190    Earth           Umbra       6             2006.6769960
27 Apr 2022 20:31:01.034    27 Apr 2022 20:31:11.601      10.566553404    Earth           Penumbra    6             2006.6769960
27 Apr 2022 21:31:15.300    27 Apr 2022 21:31:25.911      10.611189553    Earth           Penumbra    7             2007.3423515
27 Apr 2022 21:31:25.911    27 Apr 2022 22:04:32.087      1986.1761532    Earth           Umbra       7             2007.3423515
27 Apr 2022 22:04:32.087    27 Apr 2022 22:04:42.642      10.555008694    Earth           Penumbra    7             2007.3423515
27 Apr 2022 23:04:45.654    27 Apr 2022 23:04:56.255      10.601079720    Earth           Penumbra    8             2008.0234585
27 Apr 2022 23:04:56.255    27 Apr 2022 23:38:03.135      1986.8796642    Earth           Umbra       8             2008.0234585
27 Apr 2022 23:38:03.135    27 Apr 2022 23:38:13.678      10.542714642    Earth           Penumbra    8             2008.0234585
28 Apr 2022 00:38:16.022    28 Apr 2022 00:38:26.612      10.590195400    Earth           Penumbra    9             2008.7174053
28 Apr 2022 00:38:26.612    28 Apr 2022 01:11:34.210      1987.5976855    Earth           Umbra       9             2008.7174053
28 Apr 2022 01:11:34.210    28 Apr 2022 01:11:44.740      10.529524460    Earth           Penumbra    9             2008.7174053
28 Apr 2022 02:11:46.403    28 Apr 2022 02:11:56.982      10.578879830    Earth           Penumbra    10            2009.4253029
28 Apr 2022 02:11:56.982    28 Apr 2022 02:45:05.313      1988.3305993    Earth           Umbra       10            2009.4253029
28 Apr 2022 02:45:05.313    28 Apr 2022 02:45:15.829      10.515823821    Earth           Penumbra    10            2009.4253029
28 Apr 2022 03:45:16.737    28 Apr 2022 03:45:27.305      10.567363095    Earth           Penumbra    11            2010.1515440
28 Apr 2022 03:45:27.305    28 Apr 2022 04:18:36.387      1989.0820816    Earth           Umbra       11            2010.1515440
28 Apr 2022 04:18:36.387    28 Apr 2022 04:18:46.889      10.502099292    Earth           Penumbra    11            2010.1515440
28 Apr 2022 05:18:46.959    28 Apr 2022 05:18:57.514      10.555510665    Earth           Penumbra    12            2010.8982984
28 Apr 2022 05:18:57.514    28 Apr 2022 05:52:07.369      1989.8543950    Earth           Umbra       12            2010.8982984
28 Apr 2022 05:52:07.369    28 Apr 2022 05:52:17.857      10.488392680    Earth           Penumbra    12            2010.8982984
28 Apr 2022 06:52:17.059    28 Apr 2022 06:52:27.603      10.543154378    Earth           Penumbra    13            2011.6675559
28 Apr 2022 06:52:27.603    28 Apr 2022 07:25:38.253      1990.6500068    Earth           Umbra       13            2011.6675559
28 Apr 2022 07:25:38.253    28 Apr 2022 07:25:48.727      10.474394693    Earth           Penumbra    13            2011.6675559
28 Apr 2022 08:25:47.107    28 Apr 2022 08:25:57.637      10.530498228    Earth           Penumbra    14            2012.4669663
28 Apr 2022 08:25:57.637    28 Apr 2022 08:59:09.114      1991.4764218    Earth           Umbra       14            2012.4669663
28 Apr 2022 08:59:09.114    28 Apr 2022 08:59:19.574      10.460046236    Earth           Penumbra    14            2012.4669663
28 Apr 2022 09:59:17.183    28 Apr 2022 09:59:27.701      10.517903999    Earth           Penumbra    15            2013.3009263
28 Apr 2022 09:59:27.701    28 Apr 2022 10:32:40.039      1992.3373361    Earth           Umbra       15            2013.3009263
28 Apr 2022 10:32:40.039    28 Apr 2022 10:32:50.484      10.445686150    Earth           Penumbra    15            2013.3009263
28 Apr 2022 11:32:47.304    28 Apr 2022 11:32:57.810      10.505326430    Earth           Penumbra    16            2014.1566294
28 Apr 2022 11:32:57.810    28 Apr 2022 12:06:11.029      1993.2198421    Earth           Umbra       16            2014.1566294
28 Apr 2022 12:06:11.029    28 Apr 2022 12:06:21.461      10.431460908    Earth           Penumbra    16            2014.1566294
28 Apr 2022 13:06:17.405    28 Apr 2022 13:06:27.897      10.492319497    Earth           Penumbra    17            2015.0141107
28 Apr 2022 13:06:27.897    28 Apr 2022 13:39:42.002      1994.1048214    Earth           Umbra       17            2015.0141107
28 Apr 2022 13:39:42.002    28 Apr 2022 13:39:52.419      10.416969750    Earth           Penumbra    17            2015.0141107
28 Apr 2022 14:39:47.426    28 Apr 2022 14:39:57.904      10.478633316    Earth           Penumbra    18            2015.8712855
28 Apr 2022 14:39:57.904    28 Apr 2022 15:13:12.895      1994.9909025    Earth           Umbra       18            2015.8712855
28 Apr 2022 15:13:12.895    28 Apr 2022 15:13:23.297      10.401749681    Earth           Penumbra    18            2015.8712855
28 Apr 2022 16:13:17.383    28 Apr 2022 16:13:27.847      10.464550147    Earth           Penumbra    19            2016.7455000
28 Apr 2022 16:13:27.847    28 Apr 2022 16:46:43.742      1995.8950727    Earth           Umbra       19            2016.7455000
28 Apr 2022 16:46:43.742    28 Apr 2022 16:46:54.128      10.385877080    Earth           Penumbra    19            2016.7455000
28 Apr 2022 17:46:47.328    28 Apr 2022 17:46:57.779      10.450508469    Earth           Penumbra    20            2017.6503108
28 Apr 2022 17:46:57.779    28 Apr 2022 18:20:14.609      1996.8299733    Earth           Umbra       20            2017.6503108
28 Apr 2022 18:20:14.609    28 Apr 2022 18:20:24.979      10.369829088    Earth           Penumbra    20            2017.6503108
28 Apr 2022 19:20:17.272    28 Apr 2022 19:20:27.708      10.436575545    Earth           Penumbra    21            2018.5832874
28 Apr 2022 19:20:27.708    28 Apr 2022 19:53:45.501      1997.7928304    Earth           Umbra       21            2018.5832874
28 Apr 2022 19:53:45.501    28 Apr 2022 19:53:55.855      10.353881365    Earth           Penumbra    21            2018.5832874
28 Apr 2022 20:53:47.183    28 Apr 2022 20:53:57.605      10.422389593    Earth           Penumbra    22            2019.5350267
28 Apr 2022 20:53:57.605    28 Apr 2022 21:27:16.380      1998.7747984    Earth           Umbra       22            2019.5350267
28 Apr 2022 21:27:16.380    28 Apr 2022 21:27:26.718      10.337838717    Earth           Penumbra    22            2019.5350267
28 Apr 2022 22:27:17.061    28 Apr 2022 22:27:27.468      10.407547967    Earth           Penumbra    23            2020.4976441
28 Apr 2022 22:27:27.468    28 Apr 2022 23:00:47.237      1999.7688061    Earth           Umbra       23            2020.4976441
28 Apr 2022 23:00:47.237    28 Apr 2022 23:00:57.559      10.321290011    Earth           Penumbra    23            2020.4976441
29 Apr 2022 00:00:46.941    29 Apr 2022 00:00:57.333      10.392006033    Earth           Penumbra    24            2021.4659638
29 Apr 2022 00:00:57.333    29 Apr 2022 00:34:18.103      2000.7699344    Earth           Umbra       24            2021.4659638
29 Apr 2022 00:34:18.103    29 Apr 2022 00:34:28.407      10.304023395    Earth           Penumbra    24            2021.4659638
29 Apr 2022 01:34:16.834    29 Apr 2022 01:34:27.210      10.376085027    Earth           Penumbra    25            2022.4406137
29 Apr 2022 01:34:27.210    29 Apr 2022 02:07:48.989      2001.7782491    Earth           Umbra       25            2022.4406137
29 Apr 2022 02:07:48.989    29 Apr 2022 02:07:59.275      10.286279640    Earth           Penumbra    25            2022.4406137
29 Apr 2022 03:07:46.692    29 Apr 2022 03:07:57.052      10.360069096    Earth           Penumbra    26            2023.4280336
29 Apr 2022 03:07:57.052    29 Apr 2022 03:41:19.851      2002.7994471    Earth           Umbra       26            2023.4280336
29 Apr 2022 03:41:19.851    29 Apr 2022 03:41:30.120      10.268517339    Earth           Penumbra    26            2023.4280336
29 Apr 2022 04:41:16.443    29 Apr 2022 04:41:26.787      10.343892861    Earth           Penumbra    27            2024.4322759
29 Apr 2022 04:41:26.787    29 Apr 2022 05:14:50.625      2003.8374674    Earth           Umbra       27            2024.4322759
29 Apr 2022 05:14:50.625    29 Apr 2022 05:15:00.876      10.250915657    Earth           Penumbra    27            2024.4322759
29 Apr 2022 06:14:46.068    29 Apr 2022 06:14:56.396      10.327368986    Earth           Penumbra    28            2025.4532813
29 Apr 2022 06:14:56.396    29 Apr 2022 06:48:21.288      2004.8926517    Earth           Umbra       28            2025.4532813
29 Apr 2022 06:48:21.288    29 Apr 2022 06:48:31.521      10.233260540    Earth           Penumbra    28            2025.4532813
29 Apr 2022 07:48:15.624    29 Apr 2022 07:48:25.934      10.310615343    Earth           Penumbra    29            2026.4957510
29 Apr 2022 07:48:25.934    29 Apr 2022 08:21:51.904      2005.9697506    Earth           Umbra       29            2026.4957510
29 Apr 2022 08:21:51.904    29 Apr 2022 08:22:02.119      10.215385084    Earth           Penumbra    29            2026.4957510
29 Apr 2022 09:21:45.198    29 Apr 2022 09:21:55.492      10.293976113    Earth           Penumbra    30            2027.5667222
29 Apr 2022 09:21:55.492    29 Apr 2022 09:55:22.567      2007.0752421    Earth           Umbra       30            2027.5667222
29 Apr 2022 09:55:22.567    29 Apr 2022 09:55:32.764      10.197503970    Earth           Penumbra    30            2027.5667222
29 Apr 2022 10:55:14.820    29 Apr 2022 10:55:25.098      10.277492786    Earth           Penumbra    31            2028.6589560
29 Apr 2022 10:55:25.098    29 Apr 2022 11:28:53.299      2008.2016495    Earth           Umbra       31            2028.6589560
29 Apr 2022 11:28:53.299    29 Apr 2022 11:29:03.479      10.179813649    Earth           Penumbra    31            2028.6589560
29 Apr 2022 12:28:44.433    29 Apr 2022 12:28:54.694      10.260763345    Earth           Penumbra    32            2029.7514739
29 Apr 2022 12:28:54.694    29 Apr 2022 13:02:24.023      2009.3286532    Earth           Umbra       32            2029.7514739
29 Apr 2022 13:02:24.023    29 Apr 2022 13:02:34.185      10.162057320    Earth           Penumbra    32            2029.7514739
29 Apr 2022 14:02:13.968    29 Apr 2022 14:02:24.211      10.243467812    Earth           Penumbra    33            2030.8343685
29 Apr 2022 14:02:24.211    29 Apr 2022 14:35:54.658      2010.4471149    Earth           Umbra       33            2030.8343685
29 Apr 2022 14:35:54.658    29 Apr 2022 14:36:04.802      10.143785819    Earth           Penumbra    33            2030.8343685
29 Apr 2022 15:35:43.429    29 Apr 2022 15:35:53.655      10.225795093    Earth           Penumbra    34            2031.9206921
29 Apr 2022 15:35:53.655    29 Apr 2022 16:09:25.225      2011.5699437    Earth           Umbra       34            2031.9206921
29 Apr 2022 16:09:25.225    29 Apr 2022 16:09:35.350      10.124953254    Earth           Penumbra    34            2031.9206921
29 Apr 2022 17:09:12.873    29 Apr 2022 17:09:23.081      10.208189010    Earth           Penumbra    35            2033.0278388
29 Apr 2022 17:09:23.081    29 Apr 2022 17:42:55.795      2012.7137215    Earth           Umbra       35            2033.0278388
29 Apr 2022 17:42:55.795    29 Apr 2022 17:43:05.901      10.105928325    Earth           Penumbra    35            2033.0278388
29 Apr 2022 18:42:42.318    29 Apr 2022 18:42:52.509      10.190798866    Earth           Penumbra    36            2034.1588692
29 Apr 2022 18:42:52.509    29 Apr 2022 19:16:26.390      2013.8810620    Earth           Umbra       36            2034.1588692
29 Apr 2022 19:16:26.390    29 Apr 2022 19:16:36.477      10.087008378    Earth           Penumbra    36            2034.1588692
29 Apr 2022 20:16:11.735    29 Apr 2022 20:16:21.909      10.173321026    Earth           Penumbra    37            2035.3057066
29 Apr 2022 20:16:21.909    29 Apr 2022 20:49:56.973      2015.0642792    Earth           Umbra       37            2035.3057066
29 Apr 2022 20:49:56.973    29 Apr 2022 20:50:07.041      10.068106349    Earth           Penumbra    37            2035.3057066
29 Apr 2022 21:49:41.113    29 Apr 2022 21:49:51.268      10.155340901    Earth           Penumbra    38            2036.4587590
29 Apr 2022 21:49:51.268    29 Apr 2022 22:23:27.523      2016.2545096    Earth           Umbra       38            2036.4587590
29 Apr 2022 22:23:27.523    29 Apr 2022 22:23:37.571      10.048908542    Earth           Penumbra    38            2036.4587590
29 Apr 2022 23:23:10.482    29 Apr 2022 23:23:20.619      10.136757907    Earth           Penumbra    39            2037.6105532
29 Apr 2022 23:23:20.619    29 Apr 2022 23:56:58.063      2017.4445846    Earth           Umbra       39            2037.6105532
29 Apr 2022 23:56:58.063    29 Apr 2022 23:57:08.092      10.029210651    Earth           Penumbra    39            2037.6105532
30 Apr 2022 00:56:39.864    30 Apr 2022 00:56:49.982      10.117853677    Earth           Penumbra    40            2038.7602342
30 Apr 2022 00:56:49.982    30 Apr 2022 01:30:28.615      2018.6332497    Earth           Umbra       40            2038.7602342
30 Apr 2022 01:30:28.615    30 Apr 2022 01:30:38.624      10.009130859    Earth           Penumbra    40            2038.7602342
30 Apr 2022 02:30:09.222    30 Apr 2022 02:30:19.321      10.098951333    Earth           Penumbra    41            2039.9155309
30 Apr 2022 02:30:19.321    30 Apr 2022 03:03:59.149      2019.8275417    Earth           Umbra       41            2039.9155309
30 Apr 2022 03:03:59.149    30 Apr 2022 03:04:09.138      9.9890378653    Earth           Penumbra    41            2039.9155309
30 Apr 2022 04:03:38.486    30 Apr 2022 04:03:48.566      10.080054333    Earth           Penumbra    42            2041.0833451
30 Apr 2022 04:03:48.566    30 Apr 2022 04:37:29.600      2021.0341032    Earth           Umbra       42            2041.0833451
30 Apr 2022 04:37:29.600    30 Apr 2022 04:37:39.569      9.9691875279    Earth           Penumbra    42            2041.0833451
30 Apr 2022 05:37:07.622    30 Apr 2022 05:37:17.683      10.060977540    Earth           Penumbra    43            2042.2631375
30 Apr 2022 05:37:17.683    30 Apr 2022 06:10:59.935      2022.2526791    Earth           Umbra       43            2042.2631375
30 Apr 2022 06:10:59.935    30 Apr 2022 06:11:09.885      9.9494808353    Earth           Penumbra    43            2042.2631375
30 Apr 2022 07:10:36.675    30 Apr 2022 07:10:46.717      10.041764332    Earth           Penumbra    44            2043.4560515
30 Apr 2022 07:10:46.717    30 Apr 2022 07:44:30.201      2023.4845611    Earth           Umbra       44            2043.4560515
30 Apr 2022 07:44:30.201    30 Apr 2022 07:44:40.131      9.9297260516    Earth           Penumbra    44            2043.4560515
30 Apr 2022 08:44:05.737    30 Apr 2022 08:44:15.760      10.022719600    Earth           Penumbra    45            2044.6695552
30 Apr 2022 08:44:15.760    30 Apr 2022 09:18:00.496      2024.7368313    Earth           Umbra       45            2044.6695552
30 Apr 2022 09:18:00.496    30 Apr 2022 09:18:10.406      9.9100042717    Earth           Penumbra    45            2044.6695552
30 Apr 2022 10:17:34.851    30 Apr 2022 10:17:44.855      10.003944556    Earth           Penumbra    46            2045.9020501
30 Apr 2022 10:17:44.855    30 Apr 2022 10:51:30.863      2026.0076015    Earth           Umbra       46            2045.9020501
30 Apr 2022 10:51:30.863    30 Apr 2022 10:51:40.753      9.8905040883    Earth           Penumbra    46            2045.9020501
30 Apr 2022 11:51:03.969    30 Apr 2022 11:51:13.954      9.9851022474    Earth           Penumbra    47            2047.1344080
30 Apr 2022 11:51:13.954    30 Apr 2022 12:25:01.232      2027.2782154    Earth           Umbra       47            2047.1344080
30 Apr 2022 12:25:01.232    30 Apr 2022 12:25:11.103      9.8710903432    Earth           Penumbra    47            2047.1344080
30 Apr 2022 13:24:33.014    30 Apr 2022 13:24:42.980      9.9658315186    Earth           Penumbra    48            2048.3504347
30 Apr 2022 13:24:42.980    30 Apr 2022 13:58:31.513      2028.5332343    Earth           Umbra       48            2048.3504347
30 Apr 2022 13:58:31.513    30 Apr 2022 13:58:41.364      9.8513688776    Earth           Penumbra    48            2048.3504347
30 Apr 2022 14:58:01.979    30 Apr 2022 14:58:11.926      9.9462184939    Earth           Penumbra    49            2049.5570563
30 Apr 2022 14:58:11.926    30 Apr 2022 15:32:01.705      2029.7796364    Earth           Umbra       49            2049.5570563
30 Apr 2022 15:32:01.705    30 Apr 2022 15:32:11.536      9.8312013899    Earth           Penumbra    49            2049.5570563
30 Apr 2022 16:31:30.921    30 Apr 2022 16:31:40.848      9.9266840494    Earth           Penumbra    50            2050.7732059
30 Apr 2022 16:31:40.848    30 Apr 2022 17:05:31.883      2031.0356659    Earth           Umbra       50            2050.7732059
30 Apr 2022 17:05:31.883    30 Apr 2022 17:05:41.694      9.8108559963    Earth           Penumbra    50            2050.7732059
30 Apr 2022 18:04:59.868    30 Apr 2022 18:05:09.776      9.9074541824    Earth           Penumbra    51            2052.0072772
30 Apr 2022 18:05:09.776    30 Apr 2022 18:39:02.085      2032.3092037    Earth           Umbra       51            2052.0072772
30 Apr 2022 18:39:02.085    30 Apr 2022 18:39:11.876      9.7906193580    Earth           Penumbra    51            2052.0072772
30 Apr 2022 19:38:28.794    30 Apr 2022 19:38:38.683      9.8882984952    Earth           Penumbra    52            2053.2537821
30 Apr 2022 19:38:38.683    30 Apr 2022 20:12:32.278      2033.5950125    Earth           Umbra       52            2053.2537821
30 Apr 2022 20:12:32.278    30 Apr 2022 20:12:42.048      9.7704710439    Earth           Penumbra    52            2053.2537821
30 Apr 2022 21:11:57.678    30 Apr 2022 21:12:07.547      9.8688045982    Earth           Penumbra    53            2054.5025916
30 Apr 2022 21:12:07.547    30 Apr 2022 21:46:02.431      2034.8835956    Earth           Umbra       53            2054.5025916
30 Apr 2022 21:46:02.431    30 Apr 2022 21:46:12.181      9.7501913435    Earth           Penumbra    53            2054.5025916
30 Apr 2022 22:45:26.546    30 Apr 2022 22:45:36.394      9.8488118732    Earth           Penumbra    54            2055.7445121
30 Apr 2022 22:45:36.394    30 Apr 2022 23:19:32.560      2036.1660900    Earth           Umbra       54            2055.7445121
30 Apr 2022 23:19:32.560    30 Apr 2022 23:19:42.290      9.7296102089    Earth           Penumbra    54            2055.7445121
01 May 2022 00:18:55.425    01 May 2022 00:19:05.254      9.8285519751    Earth           Penumbra    55            2056.9767160
01 May 2022 00:19:05.254    01 May 2022 00:53:02.693      2037.4393889    Earth           Umbra       55            2056.9767160
01 May 2022 00:53:02.693    01 May 2022 00:53:12.402      9.7087751026    Earth           Penumbra    55            2056.9767160
01 May 2022 01:52:24.293    01 May 2022 01:52:34.101      9.8083640565    Earth           Penumbra    56            2058.2069569
01 May 2022 01:52:34.101    01 May 2022 02:26:32.812      2038.7106437    Earth           Umbra       56            2058.2069569
01 May 2022 02:26:32.812    01 May 2022 02:26:42.500      9.6879491117    Earth           Penumbra    56            2058.2069569
01 May 2022 03:25:53.080    01 May 2022 03:26:02.868      9.7883147537    Earth           Penumbra    57            2059.4450351
01 May 2022 03:26:02.868    01 May 2022 04:00:02.858      2039.9893295    Earth           Umbra       57            2059.4450351
01 May 2022 04:00:02.858    01 May 2022 04:00:12.525      9.6673909226    Earth           Penumbra    57            2059.4450351
01 May 2022 04:59:21.743    01 May 2022 04:59:31.511      9.7682421911    Earth           Penumbra    58            2060.6916390
01 May 2022 04:59:31.511    01 May 2022 05:33:32.787      2041.2762872    Earth           Umbra       58            2060.6916390
01 May 2022 05:33:32.787    01 May 2022 05:33:42.434      9.6471096505    Earth           Penumbra    58            2060.6916390
01 May 2022 06:32:50.313    01 May 2022 06:33:00.061      9.7481309669    Earth           Penumbra    59            2061.9447704
01 May 2022 06:33:00.061    01 May 2022 07:07:02.631      2042.5696964    Earth           Umbra       59            2061.9447704
01 May 2022 07:07:02.631    01 May 2022 07:07:12.258      9.6269431058    Earth           Penumbra    59            2061.9447704
01 May 2022 08:06:18.882    01 May 2022 08:06:28.610      9.7282293951    Earth           Penumbra    60            2063.2103081
01 May 2022 08:06:28.610    01 May 2022 08:40:32.485      2043.8752028    Earth           Umbra       60            2063.2103081
01 May 2022 08:40:32.485    01 May 2022 08:40:42.092      9.6068758867    Earth           Penumbra    60            2063.2103081
01 May 2022 09:39:47.506    01 May 2022 09:39:57.214      9.7086845781    Earth           Penumbra    61            2064.4912082
01 May 2022 09:39:57.214    01 May 2022 10:14:02.410      2045.1954748    Earth           Umbra       61            2064.4912082
01 May 2022 10:14:02.410    01 May 2022 10:14:11.997      9.5870488090    Earth           Penumbra    61            2064.4912082
01 May 2022 11:13:16.147    01 May 2022 11:13:25.836      9.6892274567    Earth           Penumbra    62            2065.7723570
01 May 2022 11:13:25.836    01 May 2022 11:47:32.352      2046.5157233    Earth           Umbra       62            2065.7723570
01 May 2022 11:47:32.352    01 May 2022 11:47:41.920      9.5674062381    Earth           Penumbra    62            2065.7723570
01 May 2022 12:46:44.725    01 May 2022 12:46:54.395      9.6694745589    Earth           Penumbra    63            2067.0336073
01 May 2022 12:46:54.395    01 May 2022 13:21:02.211      2047.8165046    Earth           Umbra       63            2067.0336073
01 May 2022 13:21:02.211    01 May 2022 13:21:11.759      9.5476281946    Earth           Penumbra    63            2067.0336073
01 May 2022 14:20:13.220    01 May 2022 14:20:22.870      9.6494233701    Earth           Penumbra    64            2068.2749347
01 May 2022 14:20:22.870    01 May 2022 14:54:31.968      2049.0979868    Earth           Umbra       64            2068.2749347
01 May 2022 14:54:31.968    01 May 2022 14:54:41.495      9.5275245141    Earth           Penumbra    64            2068.2749347
01 May 2022 15:53:41.685    01 May 2022 15:53:51.314      9.6294466755    Earth           Penumbra    65            2069.5144132
01 May 2022 15:53:51.314    01 May 2022 16:28:01.692      2050.3776972    Earth           Umbra       65            2069.5144132
01 May 2022 16:28:01.692    01 May 2022 16:28:11.199      9.5072693308    Earth           Penumbra    65            2069.5144132
01 May 2022 17:27:10.159    01 May 2022 17:27:19.769      9.6098235925    Earth           Penumbra    66            2070.7649531
01 May 2022 17:27:19.769    01 May 2022 18:01:31.437      2051.6680069    Earth           Umbra       66            2070.7649531
01 May 2022 18:01:31.437    01 May 2022 18:01:40.924      9.4871225883    Earth           Penumbra    66            2070.7649531
01 May 2022 19:00:38.621    01 May 2022 19:00:48.211      9.5904161339    Earth           Penumbra    67            2072.0244177
01 May 2022 19:00:48.211    01 May 2022 19:35:01.178      2052.9668912    Earth           Umbra       67            2072.0244177
01 May 2022 19:35:01.178    01 May 2022 19:35:10.645      9.4671103754    Earth           Penumbra    67            2072.0244177
01 May 2022 20:34:07.041    01 May 2022 20:34:16.612      9.5708310837    Earth           Penumbra    68            2073.2831296
01 May 2022 20:34:16.612    01 May 2022 21:08:30.877      2054.2652233    Earth           Umbra       68            2073.2831296
01 May 2022 21:08:30.877    01 May 2022 21:08:40.325      9.4470752170    Earth           Penumbra    68            2073.2831296
01 May 2022 22:07:35.439    01 May 2022 22:07:44.990      9.5508509316    Earth           Penumbra    69            2074.5310297
01 May 2022 22:07:44.990    01 May 2022 22:42:00.544      2055.5532846    Earth           Umbra       69            2074.5310297
01 May 2022 22:42:00.544    01 May 2022 22:42:09.970      9.4268942135    Earth           Penumbra    69            2074.5310297
01 May 2022 23:41:03.848    01 May 2022 23:41:13.379      9.5306422678    Earth           Penumbra    70            2075.7634119
01 May 2022 23:41:13.379    02 May 2022 00:15:30.205      2056.8261818    Earth           Umbra       70            2075.7634119
02 May 2022 00:15:30.205    02 May 2022 00:15:39.612      9.4065877958    Earth           Penumbra    70            2075.7634119
02 May 2022 01:14:32.256    02 May 2022 01:14:41.766      9.5105411019    Earth           Penumbra    71            2076.9869028
02 May 2022 01:14:41.766    02 May 2022 01:48:59.856      2058.0900347    Earth           Umbra       71            2076.9869028
02 May 2022 01:48:59.856    02 May 2022 01:49:09.243      9.3863269547    Earth           Penumbra    71            2076.9869028
02 May 2022 02:48:00.598    02 May 2022 02:48:10.089      9.4906772487    Earth           Penumbra    72            2078.2134287
02 May 2022 02:48:10.089    02 May 2022 03:22:29.445      2059.3564179    Earth           Umbra       72            2078.2134287
02 May 2022 03:22:29.445    02 May 2022 03:22:38.812      9.3663336011    Earth           Penumbra    72            2078.2134287
02 May 2022 04:21:28.823    02 May 2022 04:21:38.294      9.4709205790    Earth           Penumbra    73            2079.4461142
02 May 2022 04:21:38.294    02 May 2022 04:55:58.922      2060.6285123    Earth           Umbra       73            2079.4461142
02 May 2022 04:55:58.922    02 May 2022 04:56:08.269      9.3466812861    Earth           Penumbra    73            2079.4461142
02 May 2022 05:54:56.949    02 May 2022 05:55:06.400      9.4512098003    Earth           Penumbra    74            2071.3537593
02 May 2022 05:55:06.400    02 May 2022 06:29:28.303      2061.9025495    Earth           Umbra       74            2071.3537593
02 May 2022 07:28:25.062    02 May 2022 07:28:34.494      9.4317435636    Earth           Penumbra    75            2081.9211303
02 May 2022 07:28:34.494    02 May 2022 08:02:57.675      2063.1813500    Earth           Umbra       75            2081.9211303
02 May 2022 08:02:57.675    02 May 2022 08:03:06.983      9.3080367311    Earth           Penumbra    75            2081.9211303
02 May 2022 09:01:53.232    02 May 2022 09:02:02.645      9.4126865733    Earth           Penumbra    76            2083.1721139
02 May 2022 09:02:02.645    02 May 2022 09:36:27.115      2064.4703678    Earth           Umbra       76            2083.1721139
02 May 2022 09:36:27.115    02 May 2022 09:36:36.404      9.2890595784    Earth           Penumbra    76            2083.1721139
02 May 2022 10:35:21.434    02 May 2022 10:35:30.828      9.3938386068    Earth           Penumbra    77            2084.4240264
02 May 2022 10:35:30.828    02 May 2022 11:09:56.588      2065.7598662    Earth           Umbra       77            2084.4240264
02 May 2022 11:09:56.588    02 May 2022 11:10:05.858      9.2703216244    Earth           Penumbra    77            2084.4240264
02 May 2022 12:08:49.585    02 May 2022 12:08:58.960      9.3748199637    Earth           Penumbra    78            2085.6553980
02 May 2022 12:08:58.960    02 May 2022 12:43:25.989      2067.0289997    Earth           Umbra       78            2085.6553980
02 May 2022 12:43:25.989    02 May 2022 12:43:35.241      9.2515783268    Earth           Penumbra    78            2085.6553980
02 May 2022 13:42:17.651    02 May 2022 13:42:27.007      9.3555438914    Earth           Penumbra    79            2086.8594223
02 May 2022 13:42:27.007    02 May 2022 14:16:55.278      2068.2712622    Earth           Umbra       79            2086.8594223
02 May 2022 14:16:55.278    02 May 2022 14:17:04.511      9.2326162616    Earth           Penumbra    79            2086.8594223
02 May 2022 15:15:45.680    02 May 2022 15:15:55.016      9.3363225111    Earth           Penumbra    80            2088.0511991
02 May 2022 15:15:55.016    02 May 2022 15:50:24.518      2069.5013475    Earth           Umbra       80            2088.0511991
02 May 2022 15:50:24.518    02 May 2022 15:50:33.731      9.2135290965    Earth           Penumbra    80            2088.0511991
02 May 2022 16:49:13.721    02 May 2022 16:49:23.038      9.3174707727    Earth           Penumbra    81            2089.2468635
02 May 2022 16:49:23.038    02 May 2022 17:23:53.773      2070.7348452    Earth           Umbra       81            2089.2468635
02 May 2022 17:23:53.773    02 May 2022 17:24:02.968      9.1945475433    Earth           Penumbra    81            2089.2468635
02 May 2022 18:22:41.760    02 May 2022 18:22:51.059      9.2989355559    Earth           Penumbra    82            2090.4479782
02 May 2022 18:22:51.059    02 May 2022 18:57:23.032      2071.9733135    Earth           Umbra       82            2090.4479782
02 May 2022 18:57:23.032    02 May 2022 18:57:32.208      9.1757291229    Earth           Penumbra    82            2090.4479782
02 May 2022 19:56:09.762    02 May 2022 19:56:19.042      9.2803692212    Earth           Penumbra    83            2091.6460323
02 May 2022 19:56:19.042    02 May 2022 20:30:52.251      2073.2087065    Earth           Umbra       83            2091.6460323
02 May 2022 20:30:52.251    02 May 2022 20:31:01.408      9.1569565935    Earth           Penumbra    83            2091.6460323
02 May 2022 21:29:37.737    02 May 2022 21:29:46.998      9.2615115107    Earth           Penumbra    84            2092.8308384
02 May 2022 21:29:46.998    02 May 2022 22:04:21.429      2074.4311830    Earth           Umbra       84            2092.8308384
02 May 2022 22:04:21.429    02 May 2022 22:04:30.568      9.1381438309    Earth           Penumbra    84            2092.8308384
02 May 2022 23:03:05.720    02 May 2022 23:03:14.962      9.2424523202    Earth           Penumbra    85            2093.9963653
02 May 2022 23:03:14.962    02 May 2022 23:37:50.597      2075.6346001    Earth           Umbra       85            2093.9963653
02 May 2022 23:37:50.597    02 May 2022 23:37:59.716      9.1193128377    Earth           Penumbra    85            2093.9963653
03 May 2022 00:36:33.710    03 May 2022 00:36:42.934      9.2235037708    Earth           Penumbra    86            2095.1474265
03 May 2022 00:36:42.934    03 May 2022 01:11:19.757      2076.8233475    Earth           Umbra       86            2095.1474265
03 May 2022 01:11:19.757    03 May 2022 01:11:28.858      9.1005751980    Earth           Penumbra    86            2095.1474265
03 May 2022 02:10:01.652    03 May 2022 02:10:10.857      9.2048506835    Earth           Penumbra    87            2087.2147673
03 May 2022 02:10:10.857    03 May 2022 02:44:48.866      2078.0099167    Earth           Umbra       87            2087.2147673
03 May 2022 03:43:29.485    03 May 2022 03:43:38.671      9.1864085058    Earth           Penumbra    88            2097.4507112
03 May 2022 03:43:38.671    03 May 2022 04:18:17.872      2079.2003299    Earth           Umbra       88            2097.4507112
03 May 2022 04:18:17.872    03 May 2022 04:18:26.936      9.0639727889    Earth           Penumbra    88            2097.4507112
03 May 2022 05:16:57.215    03 May 2022 05:17:06.383      9.1680873418    Earth           Penumbra    89            2098.6046079
03 May 2022 05:17:06.383    03 May 2022 05:51:46.774      2080.3903500    Earth           Umbra       89            2098.6046079
03 May 2022 05:51:46.774    03 May 2022 05:51:55.820      9.0461705695    Earth           Penumbra    89            2098.6046079
03 May 2022 06:50:24.922    03 May 2022 06:50:34.072      9.1500283219    Earth           Penumbra    90            2099.7581221
03 May 2022 06:50:34.072    03 May 2022 07:25:15.652      2081.5794730    Earth           Umbra       90            2099.7581221
03 May 2022 07:25:15.652    03 May 2022 07:25:24.680      9.0286207502    Earth           Penumbra    90            2099.7581221
03 May 2022 08:23:52.685    03 May 2022 08:24:01.818      9.1324062087    Earth           Penumbra    91            2100.9176866
03 May 2022 08:24:01.818    03 May 2022 08:58:44.592      2082.7739367    Earth           Umbra       91            2100.9176866
03 May 2022 08:58:44.592    03 May 2022 08:58:53.603      9.0113437618    Earth           Penumbra    91            2100.9176866
03 May 2022 09:57:20.494    03 May 2022 09:57:29.609      9.1150861583    Earth           Penumbra    92            2102.0786087
03 May 2022 09:57:29.609    03 May 2022 10:32:13.578      2083.9691864    Earth           Umbra       92            2102.0786087
03 May 2022 10:32:13.578    03 May 2022 10:32:22.573      8.9943361469    Earth           Penumbra    92            2102.0786087
03 May 2022 11:30:57.364    03 May 2022 12:05:42.509      2085.1454471    Earth           Umbra       93            2094.1228589
03 May 2022 12:05:42.509    03 May 2022 12:05:51.487      8.9774118271    Earth           Penumbra    93            2094.1228589
03 May 2022 13:04:15.953    03 May 2022 13:04:25.033      9.0800959035    Earth           Penumbra    94            2104.3310001
03 May 2022 13:04:25.033    03 May 2022 13:39:11.324      2086.2905453    Earth           Umbra       94            2104.3310001
03 May 2022 13:39:11.324    03 May 2022 13:39:20.284      8.9603589498    Earth           Penumbra    94            2104.3310001
03 May 2022 14:37:43.597    03 May 2022 14:37:52.659      9.0625177952    Earth           Penumbra    95            2105.4204163
03 May 2022 14:37:52.659    03 May 2022 15:12:40.074      2087.4146949    Earth           Umbra       95            2105.4204163
03 May 2022 15:12:40.074    03 May 2022 15:12:49.017      8.9432036038    Earth           Penumbra    95            2105.4204163
03 May 2022 16:11:11.253    03 May 2022 16:11:20.298      9.0452914126    Earth           Penumbra    96            2097.5804474
03 May 2022 16:11:20.298    03 May 2022 16:46:08.833      2088.5351560    Earth           Umbra       96            2097.5804474
03 May 2022 17:44:47.945    03 May 2022 18:19:37.603      2089.6571091    Earth           Umbra       97            2098.5663758
03 May 2022 18:19:37.603    03 May 2022 18:19:46.512      8.9092666400    Earth           Penumbra    97            2098.5663758
03 May 2022 19:18:06.551    03 May 2022 19:18:15.563      9.0116983163    Earth           Penumbra    98            2108.6782529
03 May 2022 19:18:15.563    03 May 2022 19:53:06.337      2090.7740759    Earth           Umbra       98            2108.6782529
03 May 2022 19:53:06.337    03 May 2022 19:53:15.230      8.8924787357    Earth           Penumbra    98            2108.6782529
03 May 2022 20:51:34.155    03 May 2022 20:51:43.150      8.9947567089    Earth           Penumbra    99            2109.7470465
03 May 2022 20:51:43.150    03 May 2022 21:26:35.027      2091.8765719    Earth           Umbra       99            2109.7470465
03 May 2022 21:26:35.027    03 May 2022 21:26:43.902      8.8757178630    Earth           Penumbra    99            2109.7470465
03 May 2022 22:25:01.764    03 May 2022 22:25:10.742      8.9776353096    Earth           Penumbra    100           2110.7945231
03 May 2022 22:25:10.742    03 May 2022 23:00:03.700      2092.9578758    Earth           Umbra       100           2110.7945231
03 May 2022 23:00:03.700    03 May 2022 23:00:12.559      8.8590119965    Earth           Penumbra    100           2110.7945231
03 May 2022 23:58:29.387    03 May 2022 23:58:38.348      8.9606094640    Earth           Penumbra    101           2111.8235792
03 May 2022 23:58:38.348    04 May 2022 00:33:32.368      2094.0205199    Earth           Umbra       101           2111.8235792
04 May 2022 00:33:32.368    04 May 2022 00:33:41.211      8.8424497750    Earth           Penumbra    101           2111.8235792
04 May 2022 01:31:56.977    04 May 2022 01:32:05.920      8.9439004543    Earth           Penumbra    102           2112.8467694
04 May 2022 01:32:05.920    04 May 2022 02:07:00.997      2095.0767284    Earth           Umbra       102           2112.8467694
04 May 2022 02:07:00.997    04 May 2022 02:07:09.823      8.8261405821    Earth           Penumbra    102           2112.8467694
04 May 2022 03:05:24.469    04 May 2022 03:05:33.397      8.9274771628    Earth           Penumbra    103           2113.8727964
04 May 2022 03:05:33.397    04 May 2022 03:40:29.532      2096.1351412    Earth           Umbra       103           2113.8727964
04 May 2022 03:40:29.532    04 May 2022 03:40:38.342      8.8101780857    Earth           Penumbra    103           2113.8727964
04 May 2022 04:38:51.857    04 May 2022 04:39:00.768      8.9112358633    Earth           Penumbra    104           2114.8982237
04 May 2022 04:39:00.768    04 May 2022 05:13:57.960      2097.1924129    Earth           Umbra       104           2114.8982237
04 May 2022 05:13:57.960    04 May 2022 05:14:06.755      8.7945748586    Earth           Penumbra    104           2114.8982237
04 May 2022 06:12:19.211    04 May 2022 06:12:28.107      8.8952702237    Earth           Penumbra    105           2115.9195443
04 May 2022 06:12:28.107    04 May 2022 06:47:26.352      2098.2449957    Earth           Umbra       105           2115.9195443
04 May 2022 06:47:26.352    04 May 2022 06:47:35.131      8.7792784092    Earth           Penumbra    105           2115.9195443
04 May 2022 07:45:46.619    04 May 2022 07:45:55.498      8.8797496632    Earth           Penumbra    106           2116.9421606
04 May 2022 07:45:55.498    04 May 2022 08:20:54.797      2099.2981310    Earth           Umbra       106           2116.9421606
04 May 2022 08:20:54.797    04 May 2022 08:21:03.561      8.7642799364    Earth           Penumbra    106           2116.9421606
04 May 2022 09:19:14.084    04 May 2022 09:19:22.949      8.8645934011    Earth           Penumbra    107           2117.9658946
04 May 2022 09:19:22.949    04 May 2022 09:54:23.300      2100.3517353    Earth           Umbra       107           2117.9658946
04 May 2022 09:54:23.300    04 May 2022 09:54:32.050      8.7495659245    Earth           Penumbra    107           2117.9658946
04 May 2022 10:52:41.528    04 May 2022 10:52:50.378      8.8494638563    Earth           Penumbra    108           2118.9735215
04 May 2022 10:52:50.378    04 May 2022 11:27:51.767      2101.3890628    Earth           Umbra       108           2118.9735215
04 May 2022 11:27:51.767    04 May 2022 11:28:00.502      8.7349949288    Earth           Penumbra    108           2118.9735215
04 May 2022 12:26:17.725    04 May 2022 13:01:20.119      2102.3939237    Earth           Umbra       109           2111.1142901
04 May 2022 13:01:20.119    04 May 2022 13:01:28.839      8.7203664123    Earth           Penumbra    109           2111.1142901
04 May 2022 13:59:36.201    04 May 2022 13:59:45.020      8.8188373251    Earth           Penumbra    110           2112.1898880
04 May 2022 13:59:45.020    04 May 2022 14:34:48.391      2103.3710507    Earth           Umbra       110           2112.1898880
04 May 2022 15:33:03.524    04 May 2022 15:33:12.328      8.8038341375    Earth           Penumbra    111           2121.8325485
04 May 2022 15:33:12.328    04 May 2022 16:08:16.665      2104.3376867    Earth           Umbra       111           2121.8325485
04 May 2022 16:08:16.665    04 May 2022 16:08:25.356      8.6910276557    Earth           Penumbra    111           2121.8325485
04 May 2022 17:06:30.864    04 May 2022 17:06:39.653      8.7892430252    Earth           Penumbra    112           2122.7681889
04 May 2022 17:06:39.653    04 May 2022 17:41:44.956      2105.3023635    Earth           Umbra       112           2122.7681889
04 May 2022 17:41:44.956    04 May 2022 17:41:53.632      8.6765823886    Earth           Penumbra    112           2122.7681889
04 May 2022 18:40:06.958    04 May 2022 19:15:13.218      2106.2605706    Earth           Umbra       113           2114.9228347
04 May 2022 19:15:13.218    04 May 2022 19:15:21.881      8.6622641073    Earth           Penumbra    113           2114.9228347
04 May 2022 20:13:25.470    04 May 2022 20:13:34.231      8.7603568914    Earth           Penumbra    114           2124.6117654
04 May 2022 20:13:34.231    04 May 2022 20:48:41.434      2107.2033983    Earth           Umbra       114           2124.6117654
04 May 2022 20:48:41.434    04 May 2022 20:48:50.082      8.6480102618    Earth           Penumbra    114           2124.6117654
04 May 2022 21:46:52.759    04 May 2022 21:47:01.504      8.7457107729    Earth           Penumbra    115           2125.5036636
04 May 2022 21:47:01.504    04 May 2022 22:22:09.628      2108.1240921    Earth           Umbra       115           2125.5036636
04 May 2022 22:22:09.628    04 May 2022 22:22:18.262      8.6338607711    Earth           Penumbra    115           2125.5036636
04 May 2022 23:20:20.066    04 May 2022 23:20:28.797      8.7311306619    Earth           Penumbra    116           2126.3746903
04 May 2022 23:20:28.797    04 May 2022 23:55:37.820      2109.0236629    Earth           Umbra       116           2126.3746903
04 May 2022 23:55:37.820    04 May 2022 23:55:46.440      8.6198967299    Earth           Penumbra    116           2126.3746903
05 May 2022 00:53:47.353    05 May 2022 00:53:56.070      8.7168629863    Earth           Penumbra    117           2127.2362480
05 May 2022 00:53:56.070    05 May 2022 01:29:05.983      2109.9131968    Earth           Umbra       117           2127.2362480
05 May 2022 01:29:05.983    05 May 2022 01:29:14.589      8.6061882321    Earth           Penumbra    117           2127.2362480
05 May 2022 02:27:14.556    05 May 2022 02:27:23.259      8.7029310060    Earth           Penumbra    118           2128.0989718
05 May 2022 02:27:23.259    05 May 2022 03:02:34.062      2110.8032317    Earth           Umbra       118           2128.0989718
05 May 2022 03:02:34.062    05 May 2022 03:02:42.655      8.5928091430    Earth           Penumbra    118           2128.0989718
05 May 2022 04:00:41.655    05 May 2022 04:00:50.344      8.6892350810    Earth           Penumbra    119           2128.9612855
05 May 2022 04:00:50.344    05 May 2022 04:36:02.037      2111.6922554    Earth           Umbra       119           2128.9612855
05 May 2022 04:36:02.037    05 May 2022 04:36:10.616      8.5797949811    Earth           Penumbra    119           2128.9612855
05 May 2022 05:34:17.387    05 May 2022 06:09:29.961      2112.5744970    Earth           Umbra       120           2121.1416236
05 May 2022 06:09:29.961    05 May 2022 06:09:38.529      8.5671265726    Earth           Penumbra    120           2121.1416236
05 May 2022 07:07:35.815    05 May 2022 07:07:44.478      8.6628474877    Earth           Penumbra    121           2130.6705515
05 May 2022 07:07:44.478    05 May 2022 07:42:57.931      2113.4529247    Earth           Umbra       121           2130.6705515
05 May 2022 07:42:57.931    05 May 2022 07:43:06.485      8.5547794006    Earth           Penumbra    121           2130.6705515
05 May 2022 08:41:02.987    05 May 2022 08:41:11.638      8.6502831196    Earth           Penumbra    122           2131.5236392
05 May 2022 08:41:11.638    05 May 2022 09:16:25.968      2114.3306253    Earth           Umbra       122           2131.5236392
05 May 2022 09:16:25.968    05 May 2022 09:16:34.511      8.5427308339    Earth           Penumbra    122           2131.5236392
05 May 2022 10:14:30.154    05 May 2022 10:14:38.792      8.6378240492    Earth           Penumbra    123           2132.3638665
05 May 2022 10:14:38.792    05 May 2022 10:49:53.987      2115.1951772    Earth           Umbra       123           2132.3638665
05 May 2022 10:49:53.987    05 May 2022 10:50:02.518      8.5308652022    Earth           Penumbra    123           2132.3638665
05 May 2022 11:47:57.245    05 May 2022 11:48:05.870      8.6252222769    Earth           Penumbra    124           2133.1726034
05 May 2022 11:48:05.870    05 May 2022 12:23:21.899      2116.0283831    Earth           Umbra       124           2133.1726034
05 May 2022 12:23:21.899    05 May 2022 12:23:30.418      8.5189979989    Earth           Penumbra    124           2133.1726034
05 May 2022 13:21:24.277    05 May 2022 13:21:32.889      8.6125802714    Earth           Penumbra    125           2133.9488392
05 May 2022 13:21:32.889    05 May 2022 13:56:49.719      2116.8291916    Earth           Umbra       125           2133.9488392
05 May 2022 13:56:49.719    05 May 2022 13:56:58.226      8.5070673027    Earth           Penumbra    125           2133.9488392
05 May 2022 14:54:51.317    05 May 2022 14:54:59.917      8.6002016673    Earth           Penumbra    126           2134.7085546
05 May 2022 14:54:59.917    05 May 2022 15:30:17.530      2117.6131550    Earth           Umbra       126           2134.7085546
05 May 2022 15:30:17.530    05 May 2022 15:30:26.025      8.4951978992    Earth           Penumbra    126           2134.7085546
05 May 2022 16:28:26.971    05 May 2022 17:03:45.363      2118.3916036    Earth           Umbra       127           2126.8751132
05 May 2022 17:03:45.363    05 May 2022 17:03:53.846      8.4835095447    Earth           Penumbra    127           2126.8751132
05 May 2022 18:01:45.438    05 May 2022 18:01:54.014      8.5765499272    Earth           Penumbra    128           2136.2108432
05 May 2022 18:01:54.014    05 May 2022 18:37:13.177      2119.1623196    Earth           Umbra       128           2136.2108432
05 May 2022 18:37:13.177    05 May 2022 18:37:21.649      8.4719736362    Earth           Penumbra    128           2136.2108432
05 May 2022 19:35:12.462    05 May 2022 19:35:21.027      8.5648562293    Earth           Penumbra    129           2136.9424441
05 May 2022 19:35:21.027    05 May 2022 20:10:40.944      2119.9170543    Earth           Umbra       129           2136.9424441
05 May 2022 20:10:40.944    05 May 2022 20:10:49.404      8.4605335956    Earth           Penumbra    129           2136.9424441
05 May 2022 21:08:39.482    05 May 2022 21:08:48.035      8.5530390032    Earth           Penumbra    130           2129.2023747
05 May 2022 21:08:48.035    05 May 2022 21:44:08.685      2120.6493357    Earth           Umbra       130           2129.2023747
05 May 2022 22:42:06.524    05 May 2022 22:42:15.065      8.5412579239    Earth           Penumbra    131           2138.3385857
05 May 2022 22:42:15.065    05 May 2022 23:17:36.424      2121.3592050    Earth           Umbra       131           2138.3385857
05 May 2022 23:17:36.424    05 May 2022 23:17:44.863      8.4381227964    Earth           Penumbra    131           2138.3385857
06 May 2022 00:15:33.559    06 May 2022 00:15:42.089      8.5297638201    Earth           Penumbra    132           2139.0132461
06 May 2022 00:15:42.089    06 May 2022 00:51:04.145      2122.0561884    Earth           Umbra       132           2139.0132461
06 May 2022 00:51:04.145    06 May 2022 00:51:12.572      8.4272937966    Earth           Penumbra    132           2139.0132461
06 May 2022 01:49:00.523    06 May 2022 01:49:09.041      8.5186327575    Earth           Penumbra    133           2139.6872108
06 May 2022 01:49:09.041    06 May 2022 02:24:31.793      2122.7517989    Earth           Umbra       133           2139.6872108
06 May 2022 02:24:31.793    06 May 2022 02:24:40.210      8.4167791181    Earth           Penumbra    133           2139.6872108
06 May 2022 03:22:27.385    06 May 2022 03:22:35.893      8.5077864700    Earth           Penumbra    134           2131.9545713
06 May 2022 03:22:35.893    06 May 2022 03:57:59.339      2123.4467848    Earth           Umbra       134           2131.9545713
06 May 2022 04:55:54.195    06 May 2022 04:56:02.692      8.4972296725    Earth           Penumbra    135           2141.0282673
06 May 2022 04:56:02.692    06 May 2022 05:31:26.826      2124.1342110    Earth           Umbra       135           2141.0282673
06 May 2022 05:31:26.826    06 May 2022 05:31:35.223      8.3968266263    Earth           Penumbra    135           2141.0282673
06 May 2022 06:29:21.046    06 May 2022 06:29:29.533      8.4871031810    Earth           Penumbra    136           2141.6885594
06 May 2022 06:29:29.533    06 May 2022 07:04:54.347      2124.8140790    Earth           Umbra       136           2141.6885594
06 May 2022 07:04:54.347    06 May 2022 07:05:02.735      8.3873771830    Earth           Penumbra    136           2141.6885594
06 May 2022 08:02:47.974    06 May 2022 08:02:56.452      8.4774151677    Earth           Penumbra    137           2142.3467531
06 May 2022 08:02:56.452    06 May 2022 08:38:21.943      2125.4910980    Earth           Umbra       137           2142.3467531
06 May 2022 08:38:21.943    06 May 2022 08:38:30.321      8.3782398608    Earth           Penumbra    137           2142.3467531
06 May 2022 09:36:14.914    06 May 2022 09:36:23.382      8.4679009742    Earth           Penumbra    138           2134.6256228
06 May 2022 09:36:23.382    06 May 2022 10:11:49.540      2126.1577218    Earth           Umbra       138           2134.6256228
06 May 2022 11:09:41.784    06 May 2022 11:09:50.242      8.4582846262    Earth           Penumbra    139           2143.6145519
06 May 2022 11:09:50.242    06 May 2022 11:45:17.038      2126.7958306    Earth           Umbra       139           2143.6145519
06 May 2022 11:45:17.038    06 May 2022 11:45:25.399      8.3604366984    Earth           Penumbra    139           2143.6145519
06 May 2022 12:43:17.037    06 May 2022 13:18:44.436      2127.3989888    Earth           Umbra       140           2135.7505007
06 May 2022 13:18:44.436    06 May 2022 13:18:52.788      8.3515118575    Earth           Penumbra    140           2135.7505007
06 May 2022 14:16:35.396    06 May 2022 14:16:43.835      8.4391226526    Earth           Penumbra    141           2144.7613154
06 May 2022 14:16:43.835    06 May 2022 14:52:11.815      2127.9795649    Earth           Umbra       141           2144.7613154
06 May 2022 14:52:11.815    06 May 2022 14:52:20.157      8.3426278783    Earth           Penumbra    141           2144.7613154
06 May 2022 15:50:02.236    06 May 2022 15:50:10.666      8.4300481947    Earth           Penumbra    142           2136.9808730
06 May 2022 15:50:10.666    06 May 2022 16:25:39.217      2128.5508248    Earth           Umbra       142           2136.9808730
06 May 2022 17:23:37.498    06 May 2022 17:59:06.611      2129.1131052    Earth           Umbra       143           2137.4384793
06 May 2022 17:59:06.611    06 May 2022 17:59:14.936      8.3253741497    Earth           Penumbra    143           2137.4384793
06 May 2022 18:56:55.888    06 May 2022 18:57:04.300      8.4126288188    Earth           Penumbra    144           2146.3884852
06 May 2022 18:57:04.300    06 May 2022 19:32:33.959      2129.6589007    Earth           Umbra       144           2146.3884852
06 May 2022 19:32:33.959    06 May 2022 19:32:42.276      8.3169556805    Earth           Penumbra    144           2146.3884852
06 May 2022 20:30:22.692    06 May 2022 20:30:31.096      8.4038803121    Earth           Penumbra    145           2146.8946208
06 May 2022 20:30:31.096    06 May 2022 21:06:01.278      2130.1820622    Earth           Umbra       145           2146.8946208
06 May 2022 21:06:01.278    06 May 2022 21:06:09.586      8.3086783416    Earth           Penumbra    145           2146.8946208
06 May 2022 22:03:57.913    06 May 2022 22:39:28.595      2130.6822405    Earth           Umbra       146           2130.6822405
06 May 2022 23:37:16.347    06 May 2022 23:37:24.734      8.3866548724    Earth           Penumbra    147           2147.8469498
06 May 2022 23:37:24.734    07 May 2022 00:12:55.901      2131.1674220    Earth           Umbra       147           2147.8469498
07 May 2022 00:12:55.901    07 May 2022 00:13:04.194      8.2928730058    Earth           Penumbra    147           2147.8469498
07 May 2022 01:10:43.120    07 May 2022 01:10:51.498      8.3785444382    Earth           Penumbra    148           2148.3131739
07 May 2022 01:10:51.498    07 May 2022 01:46:23.147      2131.6492075    Earth           Umbra       148           2148.3131739
07 May 2022 01:46:23.147    07 May 2022 01:46:31.433      8.2854220178    Earth           Penumbra    148           2148.3131739
07 May 2022 02:44:09.795    07 May 2022 02:44:18.165      8.3707577549    Earth           Penumbra    149           2148.7796284
07 May 2022 02:44:18.165    07 May 2022 03:19:50.296      2132.1305561    Earth           Umbra       149           2148.7796284
07 May 2022 03:19:50.296    07 May 2022 03:19:58.574      8.2783145830    Earth           Penumbra    149           2148.7796284
07 May 2022 04:17:36.409    07 May 2022 04:17:44.773      8.3632731345    Earth           Penumbra    150           2149.2392609
07 May 2022 04:17:44.773    07 May 2022 04:53:17.377      2132.6044103    Earth           Umbra       150           2149.2392609
07 May 2022 04:53:17.377    07 May 2022 04:53:25.649      8.2715774188    Earth           Penumbra    150           2149.2392609
07 May 2022 05:51:03.057    07 May 2022 05:51:11.414      8.3562075044    Earth           Penumbra    151           2149.6890890
07 May 2022 05:51:11.414    07 May 2022 06:26:44.481      2133.0676769    Earth           Umbra       151           2149.6890890
07 May 2022 06:26:44.481    07 May 2022 06:26:52.747      8.2652045530    Earth           Penumbra    151           2149.6890890
07 May 2022 07:24:29.788    07 May 2022 07:24:38.138      8.3495998406    Earth           Penumbra    152           2150.1338943
07 May 2022 07:24:38.138    07 May 2022 08:00:11.663      2133.5251352    Earth           Umbra       152           2150.1338943
07 May 2022 08:00:11.663    07 May 2022 08:00:19.922      8.2591592101    Earth           Penumbra    152           2150.1338943
07 May 2022 08:57:56.548    07 May 2022 08:58:04.891      8.3432294894    Earth           Penumbra    153           2142.3172062
07 May 2022 08:58:04.891    07 May 2022 09:33:38.865      2133.9739767    Earth           Umbra       153           2142.3172062
07 May 2022 10:31:23.247    07 May 2022 10:31:31.584      8.3368003601    Earth           Penumbra    154           2150.9825255
07 May 2022 10:31:31.584    07 May 2022 11:07:05.982      2134.3980880    Earth           Umbra       154           2150.9825255
07 May 2022 11:07:05.982    07 May 2022 11:07:14.229      8.2476371317    Earth           Penumbra    154           2150.9825255
07 May 2022 12:04:49.875    07 May 2022 12:04:58.205      8.3302832209    Earth           Penumbra    155           2151.3588358
07 May 2022 12:04:58.205    07 May 2022 12:40:32.992      2134.7866581    Earth           Umbra       155           2151.3588358
07 May 2022 12:40:32.992    07 May 2022 12:40:41.234      8.2418944803    Earth           Penumbra    155           2151.3588358
07 May 2022 13:38:16.498    07 May 2022 13:38:24.822      8.3239175845    Earth           Penumbra    156           2151.7078086
07 May 2022 13:38:24.822    07 May 2022 14:13:59.969      2135.1477197    Earth           Umbra       156           2151.7078086
07 May 2022 14:13:59.969    07 May 2022 14:14:08.206      8.2361713168    Earth           Penumbra    156           2151.7078086
07 May 2022 15:11:43.159    07 May 2022 15:11:51.477      8.3179253619    Earth           Penumbra    157           2152.0438709
07 May 2022 15:11:51.477    07 May 2022 15:47:26.972      2135.4953453    Earth           Umbra       157           2152.0438709
07 May 2022 15:47:26.972    07 May 2022 15:47:35.203      8.2306002849    Earth           Penumbra    157           2152.0438709
07 May 2022 16:45:09.831    07 May 2022 16:45:18.143      8.3122961805    Earth           Penumbra    158           2152.3700645
07 May 2022 16:45:18.143    07 May 2022 17:20:53.975      2135.8325442    Earth           Umbra       158           2152.3700645
07 May 2022 17:20:53.975    07 May 2022 17:21:02.201      8.2252241322    Earth           Penumbra    158           2152.3700645
07 May 2022 18:18:36.478    07 May 2022 18:18:44.785      8.3068241598    Earth           Penumbra    159           2152.6795237
07 May 2022 18:18:44.785    07 May 2022 18:54:20.938      2136.1527035    Earth           Umbra       159           2152.6795237
07 May 2022 18:54:20.938    07 May 2022 18:54:29.158      8.2199960249    Earth           Penumbra    159           2152.6795237
07 May 2022 19:52:03.115    07 May 2022 19:52:11.416      8.3013247931    Earth           Penumbra    160           2152.9661146
07 May 2022 19:52:11.416    07 May 2022 20:27:47.866      2136.4498704    Earth           Umbra       160           2152.9661146
07 May 2022 20:27:47.866    07 May 2022 20:27:56.081      8.2149194204    Earth           Penumbra    160           2152.9661146
07 May 2022 21:25:29.773    07 May 2022 21:25:38.069      8.2958235405    Earth           Penumbra    161           2153.2296382
07 May 2022 21:25:38.069    07 May 2022 22:01:14.792      2136.7237320    Earth           Umbra       161           2153.2296382
