GMAT/Constellation/Eclipses/eclipse17.txt

Spacecraft: HSEYE17

Start Time (UTC)            Stop Time (UTC)               Duration (s)    Occ Body        Type        Event Number  Total Duration (s)
27 Apr 2022 12:01:17.638    27 Apr 2022 12:01:27.996      10.358036065    Earth           Penumbra    1             2021.1973712
27 Apr 2022 12:01:27.996    27 Apr 2022 12:34:48.414      2000.4183986    Earth           Umbra       1             2021.1973712
27 Apr 2022 12:34:48.414    27 Apr 2022 12:34:58.835      10.420936486    Earth           Penumbra    1             2021.1973712
27 Apr 2022 13:34:48.047    27 Apr 2022 13:34:58.417      10.369863978    Earth           Penumbra    2             2020.5245069
27 Apr 2022 13:34:58.417    27 Apr 2022 14:08:18.140      1999.7230968    Earth           Umbra       2             2020.5245069
27 Apr 2022 14:08:18.140    27 Apr 2022 14:08:28.571      10.431546089    Earth           Penumbra    2             2020.5245069
27 Apr 2022 15:08:18.454    27 Apr 2022 15:08:28.835      10.381173261    Earth           Penumbra    3             2019.8551093
27 Apr 2022 15:08:28.835    27 Apr 2022 15:41:47.868      1999.0324331    Earth           Umbra       3             2019.8551093
27 Apr 2022 15:41:47.868    27 Apr 2022 15:41:58.309      10.441502847    Earth           Penumbra    3             2019.8551093
27 Apr 2022 16:41:48.818    27 Apr 2022 16:41:59.210      10.391987488    Earth           Penumbra    4             2019.2068689
27 Apr 2022 16:41:59.210    27 Apr 2022 17:15:17.574      1998.3642796    Earth           Umbra       4             2019.2068689
27 Apr 2022 17:15:17.574    27 Apr 2022 17:15:28.025      10.450601822    Earth           Penumbra    4             2019.2068689
27 Apr 2022 18:15:19.160    27 Apr 2022 18:15:29.563      10.402642353    Earth           Penumbra    5             2018.5953476
27 Apr 2022 18:15:29.563    27 Apr 2022 18:48:47.296      1997.7333854    Earth           Umbra       5             2018.5953476
27 Apr 2022 18:48:47.296    27 Apr 2022 18:48:57.756      10.459319840    Earth           Penumbra    5             2018.5953476
27 Apr 2022 19:48:49.514    27 Apr 2022 19:48:59.927      10.413414775    Earth           Penumbra    6             2018.0166885
27 Apr 2022 19:48:59.927    27 Apr 2022 20:22:17.062      1997.1350454    Earth           Umbra       6             2018.0166885
27 Apr 2022 20:22:17.062    27 Apr 2022 20:22:27.531      10.468228336    Earth           Penumbra    6             2018.0166885
27 Apr 2022 21:22:19.874    27 Apr 2022 21:22:30.299      10.424273321    Earth           Penumbra    7             2017.4591666
27 Apr 2022 21:22:30.299    27 Apr 2022 21:55:46.856      1996.5575764    Earth           Umbra       7             2017.4591666
27 Apr 2022 21:55:46.856    27 Apr 2022 21:55:57.334      10.477316938    Earth           Penumbra    7             2017.4591666
27 Apr 2022 22:55:50.230    27 Apr 2022 22:56:00.664      10.434855579    Earth           Penumbra    8             2016.9182683
27 Apr 2022 22:56:00.664    27 Apr 2022 23:29:16.662      1995.9974013    Earth           Umbra       8             2016.9182683
27 Apr 2022 23:29:16.662    27 Apr 2022 23:29:27.148      10.486011382    Earth           Penumbra    8             2016.9182683
28 Apr 2022 00:29:20.607    28 Apr 2022 00:29:31.052      10.444786563    Earth           Penumbra    9             2016.3942411
28 Apr 2022 00:29:31.052    28 Apr 2022 01:02:46.507      1995.4556766    Earth           Umbra       9             2016.3942411
28 Apr 2022 01:02:46.507    28 Apr 2022 01:02:57.001      10.493777948    Earth           Penumbra    9             2016.3942411
28 Apr 2022 02:02:51.040    28 Apr 2022 02:03:01.494      10.454049613    Earth           Penumbra    10            2015.8860344
28 Apr 2022 02:03:01.494    28 Apr 2022 02:36:16.426      1994.9313025    Earth           Umbra       10            2015.8860344
28 Apr 2022 02:36:16.426    28 Apr 2022 02:36:26.926      10.500682332    Earth           Penumbra    10            2015.8860344
28 Apr 2022 03:36:21.510    28 Apr 2022 03:36:31.973      10.462914733    Earth           Penumbra    11            2015.3930386
28 Apr 2022 03:36:31.973    28 Apr 2022 04:09:46.396      1994.4228911    Earth           Umbra       11            2015.3930386
28 Apr 2022 04:09:46.396    28 Apr 2022 04:09:56.903      10.507232789    Earth           Penumbra    11            2015.3930386
28 Apr 2022 05:09:51.944    28 Apr 2022 05:10:02.416      10.471474647    Earth           Penumbra    12            2014.9162257
28 Apr 2022 05:10:02.416    28 Apr 2022 05:43:16.347      1993.9310658    Earth           Umbra       12            2014.9162257
28 Apr 2022 05:43:16.347    28 Apr 2022 05:43:26.860      10.513685178    Earth           Penumbra    12            2014.9162257
28 Apr 2022 06:43:22.286    28 Apr 2022 06:43:32.765      10.479506501    Earth           Penumbra    13            2014.4578533
28 Apr 2022 06:43:32.765    28 Apr 2022 07:16:46.224      1993.4585676    Earth           Umbra       13            2014.4578533
28 Apr 2022 07:16:46.224    28 Apr 2022 07:16:56.744      10.519779241    Earth           Penumbra    13            2014.4578533
28 Apr 2022 08:16:52.542    28 Apr 2022 08:17:03.029      10.486927943    Earth           Penumbra    14            2014.0252638
28 Apr 2022 08:17:03.029    28 Apr 2022 08:50:16.042      1993.0130831    Earth           Umbra       14            2014.0252638
28 Apr 2022 08:50:16.042    28 Apr 2022 08:50:26.567      10.525252833    Earth           Penumbra    14            2014.0252638
28 Apr 2022 09:50:22.778    28 Apr 2022 09:50:33.272      10.494053923    Earth           Penumbra    15            2013.6281829
28 Apr 2022 09:50:33.272    28 Apr 2022 10:23:45.876      1992.6037527    Earth           Umbra       15            2013.6281829
28 Apr 2022 10:23:45.876    28 Apr 2022 10:23:56.406      10.530376271    Earth           Penumbra    15            2013.6281829
28 Apr 2022 11:23:53.063    28 Apr 2022 11:24:03.565      10.501183989    Earth           Penumbra    16            2013.2640372
28 Apr 2022 11:24:03.565    28 Apr 2022 11:57:15.792      1992.2272334    Earth           Umbra       16            2013.2640372
28 Apr 2022 11:57:15.792    28 Apr 2022 11:57:26.327      10.535619780    Earth           Penumbra    16            2013.2640372
28 Apr 2022 12:57:23.405    28 Apr 2022 12:57:33.913      10.508151236    Earth           Penumbra    17            2012.9151597
28 Apr 2022 12:57:33.913    28 Apr 2022 13:30:45.779      1991.8661106    Earth           Umbra       17            2012.9151597
28 Apr 2022 13:30:45.779    28 Apr 2022 13:30:56.320      10.540897865    Earth           Penumbra    17            2012.9151597
28 Apr 2022 14:30:53.745    28 Apr 2022 14:31:04.260      10.514558048    Earth           Penumbra    18            2012.5711648
28 Apr 2022 14:31:04.260    28 Apr 2022 15:04:15.771      1991.5110164    Earth           Umbra       18            2012.5711648
28 Apr 2022 15:04:15.771    28 Apr 2022 15:04:26.316      10.545590369    Earth           Penumbra    18            2012.5711648
28 Apr 2022 16:04:24.034    28 Apr 2022 16:04:34.554      10.520320502    Earth           Penumbra    19            2012.2448209
28 Apr 2022 16:04:34.554    28 Apr 2022 16:37:45.729      1991.1751762    Earth           Umbra       19            2012.2448209
28 Apr 2022 16:37:45.729    28 Apr 2022 16:37:56.279      10.549324192    Earth           Penumbra    19            2012.2448209
28 Apr 2022 17:37:54.286    28 Apr 2022 17:38:04.812      10.525760776    Earth           Penumbra    20            2011.9550999
28 Apr 2022 17:38:04.812    28 Apr 2022 18:11:15.689      1990.8768909    Earth           Umbra       20            2011.9550999
28 Apr 2022 18:11:15.689    28 Apr 2022 18:11:26.241      10.552448232    Earth           Penumbra    20            2011.9550999
28 Apr 2022 19:11:24.542    28 Apr 2022 19:11:35.073      10.531225253    Earth           Penumbra    21            2011.7040150
28 Apr 2022 19:11:35.073    28 Apr 2022 19:44:45.690      1990.6172093    Earth           Umbra       21            2011.7040150
28 Apr 2022 19:44:45.690    28 Apr 2022 19:44:56.246      10.555580445    Earth           Penumbra    21            2011.7040150
28 Apr 2022 20:44:54.803    28 Apr 2022 20:45:05.340      10.536732792    Earth           Penumbra    22            2011.4804429
28 Apr 2022 20:45:05.340    28 Apr 2022 21:18:15.725      1990.3848262    Earth           Umbra       22            2011.4804429
28 Apr 2022 21:18:15.725    28 Apr 2022 21:18:26.284      10.558883962    Earth           Penumbra    22            2011.4804429
28 Apr 2022 22:18:25.051    28 Apr 2022 22:18:35.593      10.541940783    Earth           Penumbra    23            2011.2768941
28 Apr 2022 22:18:35.593    28 Apr 2022 22:51:45.766      1990.1730685    Earth           Umbra       23            2011.2768941
28 Apr 2022 22:51:45.766    28 Apr 2022 22:51:56.328      10.561884788    Earth           Penumbra    23            2011.2768941
28 Apr 2022 23:51:55.301    28 Apr 2022 23:52:05.848      10.546449409    Earth           Penumbra    24            2011.0922375
28 Apr 2022 23:52:05.848    29 Apr 2022 00:25:15.830      1989.9818102    Earth           Umbra       24            2011.0922375
29 Apr 2022 00:25:15.830    29 Apr 2022 00:25:26.394      10.563977854    Earth           Penumbra    24            2011.0922375
29 Apr 2022 01:25:25.592    29 Apr 2022 01:25:36.143      10.550176317    Earth           Penumbra    25            2010.9258169
29 Apr 2022 01:25:36.143    29 Apr 2022 01:58:45.953      1989.8105698    Earth           Umbra       25            2010.9258169
29 Apr 2022 01:58:45.953    29 Apr 2022 01:58:56.518      10.565070750    Earth           Penumbra    25            2010.9258169
29 Apr 2022 02:58:55.917    29 Apr 2022 02:59:06.471      10.553395282    Earth           Penumbra    26            2010.7774107
29 Apr 2022 02:59:06.471    29 Apr 2022 03:32:16.129      1989.6583852    Earth           Umbra       26            2010.7774107
29 Apr 2022 03:32:16.129    29 Apr 2022 03:32:26.695      10.565630242    Earth           Penumbra    26            2010.7774107
29 Apr 2022 04:32:26.212    29 Apr 2022 04:32:36.768      10.556298983    Earth           Penumbra    27            2010.6482727
29 Apr 2022 04:32:36.768    29 Apr 2022 05:05:46.294      1989.5258899    Earth           Umbra       27            2010.6482727
29 Apr 2022 05:05:46.294    29 Apr 2022 05:05:56.860      10.566083807    Earth           Penumbra    27            2010.6482727
29 Apr 2022 06:05:56.410    29 Apr 2022 06:06:06.969      10.558717058    Earth           Penumbra    28            2010.5399176
29 Apr 2022 06:06:06.969    29 Apr 2022 06:39:16.384      1989.4148974    Earth           Umbra       28            2010.5399176
29 Apr 2022 06:39:16.384    29 Apr 2022 06:39:26.950      10.566303204    Earth           Penumbra    28            2010.5399176
29 Apr 2022 07:39:26.506    29 Apr 2022 07:39:37.067      10.560487001    Earth           Penumbra    29            2010.4576758
29 Apr 2022 07:39:37.067    29 Apr 2022 08:12:46.398      1989.3312392    Earth           Umbra       29            2010.4576758
29 Apr 2022 08:12:46.398    29 Apr 2022 08:12:56.964      10.565949592    Earth           Penumbra    29            2010.4576758
29 Apr 2022 09:12:56.561    29 Apr 2022 09:13:07.123      10.561849270    Earth           Penumbra    30            2010.4116575
29 Apr 2022 09:13:07.123    29 Apr 2022 09:46:16.407      1989.2846897    Earth           Umbra       30            2010.4116575
29 Apr 2022 09:46:16.407    29 Apr 2022 09:46:26.972      10.565118527    Earth           Penumbra    30            2010.4116575
29 Apr 2022 10:46:26.650    29 Apr 2022 10:46:37.213      10.563175078    Earth           Penumbra    31            2010.4037105
29 Apr 2022 10:46:37.213    29 Apr 2022 11:19:46.489      1989.2762493    Earth           Umbra       31            2010.4037105
29 Apr 2022 11:19:46.489    29 Apr 2022 11:19:57.054      10.564286204    Earth           Penumbra    31            2010.4037105
29 Apr 2022 12:19:56.794    29 Apr 2022 12:20:07.358      10.564400931    Earth           Penumbra    32            2010.4181656
29 Apr 2022 12:20:07.358    29 Apr 2022 12:53:16.648      1989.2902278    Earth           Umbra       32            2010.4181656
29 Apr 2022 12:53:16.648    29 Apr 2022 12:53:27.212      10.563536861    Earth           Penumbra    32            2010.4181656
29 Apr 2022 13:53:26.938    29 Apr 2022 13:53:37.503      10.565102182    Earth           Penumbra    33            2010.4389064
29 Apr 2022 13:53:37.503    29 Apr 2022 14:26:46.814      1989.3114661    Earth           Umbra       33            2010.4389064
29 Apr 2022 14:26:46.814    29 Apr 2022 14:26:57.377      10.562338040    Earth           Penumbra    33            2010.4389064
29 Apr 2022 15:26:57.024    29 Apr 2022 15:27:07.589      10.565073893    Earth           Penumbra    34            2010.4716810
29 Apr 2022 15:27:07.589    29 Apr 2022 16:00:16.935      1989.3464111    Earth           Umbra       34            2010.4716810
29 Apr 2022 16:00:16.935    29 Apr 2022 16:00:27.495      10.560195940    Earth           Penumbra    34            2010.4716810
29 Apr 2022 17:00:27.059    29 Apr 2022 17:00:37.623      10.564595496    Earth           Penumbra    35            2010.5363410
29 Apr 2022 17:00:37.623    29 Apr 2022 17:33:47.038      1989.4144564    Earth           Umbra       35            2010.5363410
29 Apr 2022 17:33:47.038    29 Apr 2022 17:33:57.595      10.557289096    Earth           Penumbra    35            2010.5363410
29 Apr 2022 18:33:57.087    29 Apr 2022 18:34:07.651      10.564067436    Earth           Penumbra    36            2010.6413042
29 Apr 2022 18:34:07.651    29 Apr 2022 19:07:17.174      1989.5230183    Earth           Umbra       36            2010.6413042
29 Apr 2022 19:07:17.174    29 Apr 2022 19:07:27.729      10.554218490    Earth           Penumbra    36            2010.6413042
29 Apr 2022 20:07:27.119    29 Apr 2022 20:07:37.683      10.563574266    Earth           Penumbra    37            2010.7784061
29 Apr 2022 20:07:37.683    29 Apr 2022 20:40:47.347      1989.6635451    Earth           Umbra       37            2010.7784061
29 Apr 2022 20:40:47.347    29 Apr 2022 20:40:57.898      10.551286815    Earth           Penumbra    37            2010.7784061
29 Apr 2022 21:40:57.133    29 Apr 2022 21:41:07.696      10.562802607    Earth           Penumbra    38            2010.9378959
29 Apr 2022 21:41:07.696    29 Apr 2022 22:14:17.523      1989.8269205    Earth           Umbra       38            2010.9378959
29 Apr 2022 22:14:17.523    29 Apr 2022 22:14:28.071      10.548172833    Earth           Penumbra    38            2010.9378959
29 Apr 2022 23:14:27.132    29 Apr 2022 23:14:37.694      10.561330011    Earth           Penumbra    39            2011.1159615
29 Apr 2022 23:14:37.694    29 Apr 2022 23:47:47.704      1990.0103547    Earth           Umbra       39            2011.1159615
29 Apr 2022 23:47:47.704    29 Apr 2022 23:47:58.248      10.544276820    Earth           Penumbra    39            2011.1159615
30 Apr 2022 00:47:57.155    30 Apr 2022 00:48:07.714      10.559030750    Earth           Penumbra    40            2011.3111686
30 Apr 2022 00:48:07.714    30 Apr 2022 01:21:17.927      1990.2127795    Earth           Umbra       40            2011.3111686
30 Apr 2022 01:21:17.927    30 Apr 2022 01:21:28.466      10.539358319    Earth           Penumbra    40            2011.3111686
30 Apr 2022 02:21:27.208    30 Apr 2022 02:21:37.764      10.556165082    Earth           Penumbra    41            2011.5237501
30 Apr 2022 02:21:37.764    30 Apr 2022 02:54:48.197      1990.4338047    Earth           Umbra       41            2011.5237501
30 Apr 2022 02:54:48.197    30 Apr 2022 02:54:58.731      10.533780372    Earth           Penumbra    41            2011.5237501
30 Apr 2022 03:54:57.235    30 Apr 2022 03:55:07.788      10.552995151    Earth           Penumbra    42            2011.7560625
30 Apr 2022 03:55:07.788    30 Apr 2022 04:28:18.463      1990.6750020    Earth           Umbra       42            2011.7560625
30 Apr 2022 04:28:18.463    30 Apr 2022 04:28:28.992      10.528065381    Earth           Penumbra    42            2011.7560625
30 Apr 2022 05:28:27.168    30 Apr 2022 05:28:37.718      10.549428861    Earth           Penumbra    43            2012.0096708
30 Apr 2022 05:28:37.718    30 Apr 2022 06:01:48.656      1990.9379783    Earth           Umbra       43            2012.0096708
30 Apr 2022 06:01:48.656    30 Apr 2022 06:01:59.178      10.522263637    Earth           Penumbra    43            2012.0096708
30 Apr 2022 07:01:56.985    30 Apr 2022 07:02:07.530      10.545259702    Earth           Penumbra    44            2012.2875033
30 Apr 2022 07:02:07.530    30 Apr 2022 07:35:18.757      1991.2262060    Earth           Umbra       44            2012.2875033
30 Apr 2022 07:35:18.757    30 Apr 2022 07:35:29.273      10.516037559    Earth           Penumbra    44            2012.2875033
30 Apr 2022 08:35:26.739    30 Apr 2022 08:35:37.280      10.540637921    Earth           Penumbra    45            2012.5984626
30 Apr 2022 08:35:37.280    30 Apr 2022 09:08:48.828      1991.5485102    Earth           Umbra       45            2012.5984626
30 Apr 2022 09:08:48.828    30 Apr 2022 09:08:59.338      10.509314539    Earth           Penumbra    45            2012.5984626
30 Apr 2022 10:08:56.513    30 Apr 2022 10:09:07.049      10.535952961    Earth           Penumbra    46            2012.9482744
30 Apr 2022 10:09:07.049    30 Apr 2022 10:42:18.959      1991.9098336    Earth           Umbra       46            2012.9482744
30 Apr 2022 10:42:18.959    30 Apr 2022 10:42:29.461      10.502487794    Earth           Penumbra    46            2012.9482744
30 Apr 2022 11:42:26.340    30 Apr 2022 11:42:36.871      10.531253542    Earth           Penumbra    47            2013.3253060
30 Apr 2022 11:42:36.871    30 Apr 2022 12:15:49.169      1992.2982713    Earth           Umbra       47            2013.3253060
30 Apr 2022 12:15:49.169    30 Apr 2022 12:15:59.665      10.495781119    Earth           Penumbra    47            2013.3253060
30 Apr 2022 13:15:56.171    30 Apr 2022 13:16:06.697      10.526132619    Earth           Penumbra    48            2013.7098125
30 Apr 2022 13:16:06.697    30 Apr 2022 13:49:19.392      1992.6948795    Earth           Umbra       48            2013.7098125
30 Apr 2022 13:49:19.392    30 Apr 2022 13:49:29.881      10.488800355    Earth           Penumbra    48            2013.7098125
30 Apr 2022 14:49:25.940    30 Apr 2022 14:49:36.460      10.520282469    Earth           Penumbra    49            2014.0994192
30 Apr 2022 14:49:36.460    30 Apr 2022 15:22:49.558      1993.0981381    Earth           Umbra       49            2014.0994192
30 Apr 2022 15:22:49.558    30 Apr 2022 15:23:00.039      10.480998585    Earth           Penumbra    49            2014.0994192
30 Apr 2022 16:22:55.645    30 Apr 2022 16:23:06.159      10.513905832    Earth           Penumbra    50            2014.5119304
30 Apr 2022 16:23:06.159    30 Apr 2022 16:56:19.685      1993.5256431    Earth           Umbra       50            2014.5119304
30 Apr 2022 16:56:19.685    30 Apr 2022 16:56:30.157      10.472381464    Earth           Penumbra    50            2014.5119304
30 Apr 2022 17:56:25.333    30 Apr 2022 17:56:35.841      10.507438041    Earth           Penumbra    51            2014.9614455
30 Apr 2022 17:56:35.841    30 Apr 2022 18:29:49.831      1993.9905311    Earth           Umbra       51            2014.9614455
30 Apr 2022 18:29:49.831    30 Apr 2022 18:30:00.295      10.463476426    Earth           Penumbra    51            2014.9614455
30 Apr 2022 19:29:55.024    30 Apr 2022 19:30:05.525      10.501035943    Earth           Penumbra    52            2015.4447250
30 Apr 2022 19:30:05.525    30 Apr 2022 20:03:20.014      1994.4890224    Earth           Umbra       52            2015.4447250
30 Apr 2022 20:03:20.014    30 Apr 2022 20:03:30.468      10.454666626    Earth           Penumbra    52            2015.4447250
30 Apr 2022 21:03:24.693    30 Apr 2022 21:03:35.188      10.494422936    Earth           Penumbra    53            2015.9514029
30 Apr 2022 21:03:35.188    30 Apr 2022 21:36:50.199      1995.0111929    Earth           Umbra       53            2015.9514029
30 Apr 2022 21:36:50.199    30 Apr 2022 21:37:00.645      10.445787048    Earth           Penumbra    53            2015.9514029
30 Apr 2022 22:36:54.336    30 Apr 2022 22:37:04.823      10.487169027    Earth           Penumbra    54            2016.4746228
30 Apr 2022 22:37:04.823    30 Apr 2022 23:10:20.374      1995.5511332    Earth           Umbra       54            2016.4746228
30 Apr 2022 23:10:20.374    30 Apr 2022 23:10:30.811      10.436320631    Earth           Penumbra    54            2016.4746228
01 May 2022 00:10:23.985    01 May 2022 00:10:34.464      10.479108570    Earth           Penumbra    55            2017.0109488
01 May 2022 00:10:34.464    01 May 2022 00:43:50.570      1996.1059019    Earth           Umbra       55            2017.0109488
01 May 2022 00:43:50.570    01 May 2022 00:44:00.996      10.425938282    Earth           Penumbra    55            2017.0109488
01 May 2022 01:43:53.659    01 May 2022 01:44:04.129      10.470476991    Earth           Penumbra    56            2017.5603964
01 May 2022 01:44:04.129    01 May 2022 02:17:20.804      1996.6750619    Earth           Umbra       56            2017.5603964
01 May 2022 02:17:20.804    01 May 2022 02:17:31.219      10.414857510    Earth           Penumbra    56            2017.5603964
01 May 2022 03:17:23.315    01 May 2022 03:17:33.777      10.461582954    Earth           Penumbra    57            2018.1269012
01 May 2022 03:17:33.777    01 May 2022 03:50:51.038      1997.2617201    Earth           Umbra       57            2018.1269012
01 May 2022 03:50:51.038    01 May 2022 03:51:01.442      10.403598205    Earth           Penumbra    57            2018.1269012
01 May 2022 04:50:52.881    01 May 2022 04:51:03.334      10.452417028    Earth           Penumbra    58            2018.7133391
01 May 2022 04:51:03.334    01 May 2022 05:24:21.202      1997.8685423    Earth           Umbra       58            2018.7133391
01 May 2022 05:24:21.202    01 May 2022 05:24:31.595      10.392379761    Earth           Penumbra    58            2018.7133391
01 May 2022 06:24:22.324    01 May 2022 06:24:32.766      10.442761704    Earth           Penumbra    59            2019.3206796
01 May 2022 06:24:32.766    01 May 2022 06:57:51.263      1998.4969681    Earth           Umbra       59            2019.3206796
01 May 2022 06:57:51.263    01 May 2022 06:58:01.644      10.380949778    Earth           Penumbra    59            2019.3206796
01 May 2022 07:57:51.685    01 May 2022 07:58:02.117      10.432681104    Earth           Penumbra    60            2019.9551379
01 May 2022 07:58:02.117    01 May 2022 08:31:21.271      1999.1533431    Earth           Umbra       60            2019.9551379
01 May 2022 08:31:21.271    01 May 2022 08:31:31.640      10.369113693    Earth           Penumbra    60            2019.9551379
01 May 2022 09:31:21.050    01 May 2022 09:31:31.473      10.422539210    Earth           Penumbra    61            2020.6248603
01 May 2022 09:31:31.473    01 May 2022 10:04:51.318      1999.8451950    Earth           Umbra       61            2020.6248603
01 May 2022 10:04:51.318    01 May 2022 10:05:01.675      10.357126105    Earth           Penumbra    61            2020.6248603
01 May 2022 11:04:50.466    01 May 2022 11:05:00.879      10.412479041    Earth           Penumbra    62            2021.3235983
01 May 2022 11:05:00.879    01 May 2022 11:38:21.444      2000.5658427    Earth           Umbra       62            2021.3235983
01 May 2022 11:38:21.444    01 May 2022 11:38:31.790      10.345276503    Earth           Penumbra    62            2021.3235983
01 May 2022 12:38:19.893    01 May 2022 12:38:30.296      10.402147297    Earth           Penumbra    63            2022.0307497
01 May 2022 12:38:30.296    01 May 2022 13:11:51.591      2001.2952701    Earth           Umbra       63            2022.0307497
01 May 2022 13:11:51.591    01 May 2022 13:12:01.924      10.333332291    Earth           Penumbra    63            2022.0307497
01 May 2022 14:11:49.260    01 May 2022 14:11:59.651      10.391164280    Earth           Penumbra    64            2022.7360148
01 May 2022 14:11:59.651    01 May 2022 14:45:21.675      2002.0240889    Earth           Umbra       64            2022.7360148
01 May 2022 14:45:21.675    01 May 2022 14:45:31.996      10.320761637    Earth           Penumbra    64            2022.7360148
01 May 2022 15:45:18.551    01 May 2022 15:45:28.931      10.379637487    Earth           Penumbra    65            2023.4524372
01 May 2022 15:45:28.931    01 May 2022 16:18:51.696      2002.7653703    Earth           Umbra       65            2023.4524372
01 May 2022 16:18:51.696    01 May 2022 16:19:02.004      10.307429382    Earth           Penumbra    65            2023.4524372
01 May 2022 17:18:47.815    01 May 2022 17:18:58.183      10.368004453    Earth           Penumbra    66            2024.1979716
01 May 2022 17:18:58.183    01 May 2022 17:52:21.720      2003.5362277    Earth           Umbra       66            2024.1979716
01 May 2022 17:52:21.720    01 May 2022 17:52:32.013      10.293739429    Earth           Penumbra    66            2024.1979716
01 May 2022 18:52:17.081    01 May 2022 18:52:27.438      10.356495262    Earth           Penumbra    67            2024.9753883
01 May 2022 18:52:27.438    01 May 2022 19:25:51.777      2004.3387870    Earth           Umbra       67            2024.9753883
01 May 2022 19:25:51.777    01 May 2022 19:26:02.057      10.280106054    Earth           Penumbra    67            2024.9753883
01 May 2022 20:25:46.328    01 May 2022 20:25:56.673      10.344888002    Earth           Penumbra    68            2025.7756568
01 May 2022 20:25:56.673    01 May 2022 20:59:21.837      2005.1642741    Earth           Umbra       68            2025.7756568
01 May 2022 20:59:21.837    01 May 2022 20:59:32.104      10.266494681    Earth           Penumbra    68            2025.7756568
01 May 2022 21:59:15.539    01 May 2022 21:59:25.872      10.332750797    Earth           Penumbra    69            2026.5895332
01 May 2022 21:59:25.872    01 May 2022 22:32:51.876      2006.0042769    Earth           Umbra       69            2026.5895332
01 May 2022 22:32:51.876    01 May 2022 22:33:02.128      10.252505494    Earth           Penumbra    69            2026.5895332
01 May 2022 23:32:44.742    01 May 2022 23:32:55.062      10.319879651    Earth           Penumbra    70            2027.4109320
01 May 2022 23:32:55.062    02 May 2022 00:06:21.915      2006.8532571    Earth           Umbra       70            2027.4109320
02 May 2022 00:06:21.915    02 May 2022 00:06:32.153      10.237795254    Earth           Penumbra    70            2027.4109320
02 May 2022 01:06:13.964    02 May 2022 01:06:24.271      10.306474473    Earth           Penumbra    71            2028.2386168
02 May 2022 01:06:24.271    02 May 2022 01:39:51.980      2007.7097008    Earth           Umbra       71            2028.2386168
02 May 2022 01:39:51.980    02 May 2022 01:40:02.203      10.222441598    Earth           Penumbra    71            2028.2386168
02 May 2022 02:39:43.176    02 May 2022 02:39:53.469      10.292870330    Earth           Penumbra    72            2029.0777999
02 May 2022 02:39:53.469    02 May 2022 03:13:22.047      2008.5780447    Earth           Umbra       72            2029.0777999
02 May 2022 03:13:22.047    02 May 2022 03:13:32.254      10.206884891    Earth           Penumbra    72            2029.0777999
02 May 2022 04:13:12.308    02 May 2022 04:13:22.587      10.279130086    Earth           Penumbra    73            2029.9338035
02 May 2022 04:13:22.587    02 May 2022 04:46:52.050      2009.4632214    Earth           Umbra       73            2029.9338035
02 May 2022 04:46:52.050    02 May 2022 04:47:02.242      10.191452026    Earth           Penumbra    73            2029.9338035
02 May 2022 05:46:41.313    02 May 2022 05:46:51.578      10.265063576    Earth           Penumbra    74            2030.8069358
02 May 2022 05:46:51.578    02 May 2022 06:20:21.944      2010.3658477    Earth           Umbra       74            2030.8069358
02 May 2022 06:20:21.944    02 May 2022 06:20:32.120      10.176024504    Earth           Penumbra    74            2030.8069358
02 May 2022 07:20:10.223    02 May 2022 07:20:20.473      10.250650055    Earth           Penumbra    75            2031.6999206
02 May 2022 07:20:20.473    02 May 2022 07:53:51.762      2011.2889115    Earth           Umbra       75            2031.6999206
02 May 2022 07:53:51.762    02 May 2022 07:54:01.922      10.160359042    Earth           Penumbra    75            2031.6999206
02 May 2022 08:53:39.121    02 May 2022 08:53:49.357      10.236207931    Earth           Penumbra    76            2032.6212867
02 May 2022 08:53:49.357    02 May 2022 09:27:21.598      2012.2405213    Earth           Umbra       76            2032.6212867
02 May 2022 09:27:21.598    02 May 2022 09:27:31.742      10.144557478    Earth           Penumbra    76            2032.6212867
02 May 2022 10:27:08.068    02 May 2022 10:27:18.290      10.221938998    Earth           Penumbra    77            2033.5703738
02 May 2022 10:27:18.290    02 May 2022 11:00:51.510      2013.2195328    Earth           Umbra       77            2033.5703738
02 May 2022 11:00:51.510    02 May 2022 11:01:01.638      10.128902073    Earth           Penumbra    77            2033.5703738
02 May 2022 12:00:37.036    02 May 2022 12:00:47.243      10.207571054    Earth           Penumbra    78            2034.5285765
02 May 2022 12:00:47.243    02 May 2022 12:34:21.451      2014.2077026    Earth           Umbra       78            2034.5285765
02 May 2022 12:34:21.451    02 May 2022 12:34:31.564      10.113302933    Earth           Penumbra    78            2034.5285765
02 May 2022 13:34:05.947    02 May 2022 13:34:16.140      10.192683537    Earth           Penumbra    79            2035.4791554
02 May 2022 13:34:16.140    02 May 2022 14:07:51.329      2015.1891751    Earth           Umbra       79            2035.4791554
02 May 2022 14:07:51.329    02 May 2022 14:08:01.427      10.097296746    Earth           Penumbra    79            2035.4791554
02 May 2022 15:07:34.777    02 May 2022 15:07:44.954      10.177279275    Earth           Penumbra    80            2036.4284364
02 May 2022 15:07:44.954    02 May 2022 15:41:21.125      2016.1705066    Earth           Umbra       80            2036.4284364
02 May 2022 15:41:21.125    02 May 2022 15:41:31.205      10.080650600    Earth           Penumbra    80            2036.4284364
02 May 2022 16:41:03.570    02 May 2022 16:41:13.732      10.161768459    Earth           Penumbra    81            2037.3957545
02 May 2022 16:41:13.732    02 May 2022 17:14:50.902      2017.1703481    Earth           Umbra       81            2037.3957545
02 May 2022 17:14:50.902    02 May 2022 17:15:00.966      10.063637956    Earth           Penumbra    81            2037.3957545
02 May 2022 18:14:32.364    02 May 2022 18:14:42.511      10.146451264    Earth           Penumbra    82            2038.3898895
02 May 2022 18:14:42.511    02 May 2022 18:48:20.708      2018.1967821    Earth           Umbra       82            2038.3898895
02 May 2022 18:48:20.708    02 May 2022 18:48:30.754      10.046656115    Earth           Penumbra    82            2038.3898895
02 May 2022 19:48:01.144    02 May 2022 19:48:11.275      10.131170531    Earth           Penumbra    83            2039.4048231
02 May 2022 19:48:11.275    02 May 2022 20:21:50.519      2019.2438919    Earth           Umbra       83            2039.4048231
02 May 2022 20:21:50.519    02 May 2022 20:22:00.549      10.029760713    Earth           Penumbra    83            2039.4048231
02 May 2022 21:21:29.884    02 May 2022 21:21:40.000      10.115507897    Earth           Penumbra    84            2040.4302010
02 May 2022 21:21:40.000    02 May 2022 21:55:20.302      2020.3020265    Earth           Umbra       84            2040.4302010
02 May 2022 21:55:20.302    02 May 2022 21:55:30.315      10.012666660    Earth           Penumbra    84            2040.4302010
02 May 2022 22:54:58.605    02 May 2022 22:55:08.704      10.099215677    Earth           Penumbra    85            2041.4574520
02 May 2022 22:55:08.704    02 May 2022 23:28:50.068      2021.3631635    Earth           Umbra       85            2041.4574520
02 May 2022 23:28:50.068    02 May 2022 23:29:00.063      9.9950728356    Earth           Penumbra    85            2041.4574520
03 May 2022 00:28:27.339    03 May 2022 00:28:37.422      10.082446318    Earth           Penumbra    86            2042.4832847
03 May 2022 00:28:37.422    03 May 2022 01:02:19.846      2022.4238739    Earth           Umbra       86            2042.4832847
03 May 2022 01:02:19.846    03 May 2022 01:02:29.823      9.9769644672    Earth           Penumbra    86            2042.4832847
03 May 2022 02:01:56.071    03 May 2022 02:02:06.137      10.065545887    Earth           Penumbra    87            2043.5131958
03 May 2022 02:02:06.137    03 May 2022 02:35:49.626      2023.4889855    Earth           Umbra       87            2043.5131958
03 May 2022 02:35:49.626    03 May 2022 02:35:59.584      9.9586643628    Earth           Penumbra    87            2043.5131958
03 May 2022 03:35:24.735    03 May 2022 03:35:34.784      10.048646084    Earth           Penumbra    88            2044.5553556
03 May 2022 03:35:34.784    03 May 2022 04:09:19.350      2024.5661868    Earth           Umbra       88            2044.5553556
03 May 2022 04:09:19.350    03 May 2022 04:09:29.290      9.9405226763    Earth           Penumbra    88            2044.5553556
03 May 2022 05:08:53.276    03 May 2022 05:09:03.308      10.031585663    Earth           Penumbra    89            2045.6110985
03 May 2022 05:09:03.308    03 May 2022 05:42:48.965      2025.6569571    Earth           Umbra       89            2045.6110985
03 May 2022 05:42:48.965    03 May 2022 05:42:58.887      9.9225557526    Earth           Penumbra    89            2045.6110985
03 May 2022 06:42:21.710    03 May 2022 06:42:31.724      10.014293902    Earth           Penumbra    90            2046.6799059
03 May 2022 06:42:31.724    03 May 2022 07:16:18.485      2026.7610653    Earth           Umbra       90            2046.6799059
03 May 2022 07:16:18.485    03 May 2022 07:16:28.390      9.9045467097    Earth           Penumbra    90            2046.6799059
03 May 2022 08:15:50.119    03 May 2022 08:16:00.116      9.9970219424    Earth           Penumbra    91            2037.8821618
03 May 2022 08:16:00.116    03 May 2022 08:49:48.001      2027.8851398    Earth           Umbra       91            2037.8821618
03 May 2022 09:49:18.574    03 May 2022 09:49:28.554      9.9800033262    Earth           Penumbra    92            2048.8812157
03 May 2022 09:49:28.554    03 May 2022 10:23:17.587      2029.0326605    Earth           Umbra       92            2048.8812157
03 May 2022 10:23:17.587    03 May 2022 10:23:27.455      9.8685518838    Earth           Penumbra    92            2048.8812157
03 May 2022 11:22:47.060    03 May 2022 11:22:57.023      9.9630444311    Earth           Penumbra    93            2050.0033122
03 May 2022 11:22:57.023    03 May 2022 11:56:47.213      2030.1894728    Earth           Umbra       93            2050.0033122
03 May 2022 11:56:47.213    03 May 2022 11:56:57.064      9.8507949268    Earth           Penumbra    93            2050.0033122
03 May 2022 12:56:15.500    03 May 2022 12:56:25.446      9.9457256380    Earth           Penumbra    94            2051.1141795
03 May 2022 12:56:25.446    03 May 2022 13:30:16.781      2031.3356199    Earth           Umbra       94            2051.1141795
03 May 2022 13:30:16.781    03 May 2022 13:30:26.614      9.8328339751    Earth           Penumbra    94            2051.1141795
03 May 2022 14:29:43.854    03 May 2022 14:29:53.782      9.9279485643    Earth           Penumbra    95            2052.2125558
03 May 2022 14:29:53.782    03 May 2022 15:03:46.252      2032.4702226    Earth           Umbra       95            2052.2125558
03 May 2022 15:03:46.252    03 May 2022 15:03:56.067      9.8143845680    Earth           Penumbra    95            2052.2125558
03 May 2022 16:03:12.162    03 May 2022 16:03:22.072      9.9100699648    Earth           Penumbra    96            2053.3165376
03 May 2022 16:03:22.072    03 May 2022 16:37:15.683      2033.6108647    Earth           Umbra       96            2053.3165376
03 May 2022 16:37:15.683    03 May 2022 16:37:25.479      9.7956029233    Earth           Penumbra    96            2053.3165376
03 May 2022 17:36:40.472    03 May 2022 17:36:50.365      9.8924330785    Earth           Penumbra    97            2054.4399831
03 May 2022 17:36:50.365    03 May 2022 18:10:45.135      2034.7707109    Earth           Umbra       97            2054.4399831
03 May 2022 18:10:45.135    03 May 2022 18:10:54.912      9.7768391948    Earth           Penumbra    97            2054.4399831
03 May 2022 19:10:08.774    03 May 2022 19:10:18.649      9.8749709548    Earth           Penumbra    98            2055.5809663
03 May 2022 19:10:18.649    03 May 2022 19:44:14.597      2035.9477954    Earth           Umbra       98            2055.5809663
03 May 2022 19:44:14.597    03 May 2022 19:44:24.355      9.7581999376    Earth           Penumbra    98            2055.5809663
03 May 2022 20:43:37.038    03 May 2022 20:43:46.895      9.8572897492    Earth           Penumbra    99            2056.7293768
03 May 2022 20:43:46.895    03 May 2022 21:17:44.027      2037.1325886    Earth           Umbra       99            2056.7293768
03 May 2022 21:17:44.027    03 May 2022 21:17:53.767      9.7394984448    Earth           Penumbra    99            2056.7293768
03 May 2022 22:17:05.273    03 May 2022 22:17:15.112      9.8391002859    Earth           Penumbra    100           2057.8749446
03 May 2022 22:17:15.112    03 May 2022 22:51:13.427      2038.3153491    Earth           Umbra       100           2057.8749446
03 May 2022 22:51:13.427    03 May 2022 22:51:23.148      9.7204952035    Earth           Penumbra    100           2057.8749446
03 May 2022 23:50:33.516    03 May 2022 23:50:43.336      9.8204965470    Earth           Penumbra    101           2059.0121222
03 May 2022 23:50:43.336    04 May 2022 00:24:42.827      2039.4904870    Earth           Umbra       101           2059.0121222
04 May 2022 00:24:42.827    04 May 2022 00:24:52.528      9.7011386650    Earth           Penumbra    101           2059.0121222
04 May 2022 01:24:01.764    04 May 2022 01:24:11.566      9.8018164281    Earth           Penumbra    102           2060.1454865
04 May 2022 01:24:11.566    04 May 2022 01:58:12.228      2040.6620363    Earth           Umbra       102           2060.1454865
04 May 2022 01:58:12.228    04 May 2022 01:58:21.909      9.6816337667    Earth           Penumbra    102           2060.1454865
04 May 2022 02:57:29.958    04 May 2022 02:57:39.741      9.7832478932    Earth           Penumbra    103           2061.2855552
04 May 2022 02:57:39.741    04 May 2022 03:31:41.581      2041.8400122    Earth           Umbra       103           2061.2855552
04 May 2022 03:31:41.581    04 May 2022 03:31:51.244      9.6622951445    Earth           Penumbra    103           2061.2855552
04 May 2022 04:31:07.802    04 May 2022 05:05:10.830      2043.0281809    Earth           Umbra       104           2052.6714153
04 May 2022 05:05:10.830    04 May 2022 05:05:20.473      9.6432343824    Earth           Penumbra    104           2052.6714153
04 May 2022 06:04:26.002    04 May 2022 06:04:35.748      9.7459935816    Earth           Penumbra    105           2063.5945151
04 May 2022 06:04:35.748    04 May 2022 06:38:39.972      2044.2242162    Earth           Umbra       105           2063.5945151
04 May 2022 06:38:39.972    04 May 2022 06:38:49.597      9.6243053209    Earth           Penumbra    105           2063.5945151
04 May 2022 07:37:53.930    04 May 2022 07:38:03.657      9.7273826133    Earth           Penumbra    106           2064.7645751
04 May 2022 07:38:03.657    04 May 2022 08:12:09.089      2045.4317773    Earth           Umbra       106           2064.7645751
04 May 2022 08:12:09.089    04 May 2022 08:12:18.694      9.6054152353    Earth           Penumbra    106           2064.7645751
04 May 2022 09:11:21.900    04 May 2022 09:11:31.609      9.7090859665    Earth           Penumbra    107           2056.3662338
04 May 2022 09:11:31.609    04 May 2022 09:45:38.266      2046.6571478    Earth           Umbra       107           2056.3662338
04 May 2022 10:44:49.912    04 May 2022 10:44:59.603      9.6909873420    Earth           Penumbra    108           2067.1507165
04 May 2022 10:44:59.603    04 May 2022 11:19:07.494      2047.8915277    Earth           Umbra       108           2067.1507165
04 May 2022 11:19:07.494    04 May 2022 11:19:17.063      9.5682014711    Earth           Penumbra    108           2067.1507165
04 May 2022 12:18:17.890    04 May 2022 12:18:27.562      9.6726822085    Earth           Penumbra    109           2068.3360287
04 May 2022 12:18:27.562    04 May 2022 12:52:36.676      2049.1136793    Earth           Umbra       109           2068.3360287
04 May 2022 12:52:36.676    04 May 2022 12:52:46.226      9.5496671973    Earth           Penumbra    109           2068.3360287
04 May 2022 13:51:45.782    04 May 2022 13:51:55.436      9.6539936028    Earth           Penumbra    110           2069.5003027
04 May 2022 13:51:55.436    04 May 2022 14:26:05.751      2050.3155128    Earth           Umbra       110           2069.5003027
04 May 2022 14:26:05.751    04 May 2022 14:26:15.282      9.5307962853    Earth           Penumbra    110           2069.5003027
04 May 2022 15:25:13.621    04 May 2022 15:25:23.256      9.6352015855    Earth           Penumbra    111           2070.6580693
04 May 2022 15:25:23.256    04 May 2022 15:59:34.767      2051.5112206    Earth           Umbra       111           2070.6580693
04 May 2022 15:59:34.767    04 May 2022 15:59:44.279      9.5116471988    Earth           Penumbra    111           2070.6580693
04 May 2022 16:58:41.460    04 May 2022 16:58:51.077      9.6166795702    Earth           Penumbra    112           2071.8267093
04 May 2022 16:58:51.077    04 May 2022 17:33:03.794      2052.7175187    Earth           Umbra       112           2071.8267093
04 May 2022 17:33:03.794    04 May 2022 17:33:13.287      9.4925109996    Earth           Penumbra    112           2071.8267093
04 May 2022 18:32:09.299    04 May 2022 18:32:18.898      9.5984413871    Earth           Penumbra    113           2073.0088132
04 May 2022 18:32:18.898    04 May 2022 19:06:32.835      2053.9368489    Earth           Umbra       113           2073.0088132
04 May 2022 19:06:32.835    04 May 2022 19:06:42.308      9.4735228457    Earth           Penumbra    113           2073.0088132
04 May 2022 20:05:37.105    04 May 2022 20:05:46.685      9.5801453688    Earth           Penumbra    114           2074.1956378
04 May 2022 20:05:46.685    04 May 2022 20:40:01.846      2055.1609286    Earth           Umbra       114           2074.1956378
04 May 2022 20:40:01.846    04 May 2022 20:40:11.300      9.4545639236    Earth           Penumbra    114           2074.1956378
04 May 2022 21:39:04.876    04 May 2022 21:39:14.438      9.5614690217    Earth           Penumbra    115           2075.3761736
04 May 2022 21:39:14.438    04 May 2022 22:13:30.817      2056.3792501    Earth           Umbra       115           2075.3761736
04 May 2022 22:13:30.817    04 May 2022 22:13:40.253      9.4354544417    Earth           Penumbra    115           2075.3761736
04 May 2022 23:12:32.650    04 May 2022 23:12:42.193      9.5424371772    Earth           Penumbra    116           2076.5430131
04 May 2022 23:12:42.193    04 May 2022 23:46:59.777      2057.5844321    Earth           Umbra       116           2076.5430131
04 May 2022 23:46:59.777    04 May 2022 23:47:09.193      9.4161437941    Earth           Penumbra    116           2076.5430131
05 May 2022 00:46:00.435    05 May 2022 00:46:09.958      9.5233613276    Earth           Penumbra    117           2077.6989469
05 May 2022 00:46:09.958    05 May 2022 01:20:28.737      2058.7788288    Earth           Umbra       117           2077.6989469
05 May 2022 01:20:28.737    05 May 2022 01:20:38.134      9.3967567664    Earth           Penumbra    117           2077.6989469
05 May 2022 02:19:37.686    05 May 2022 02:53:57.659      2059.9736611    Earth           Umbra       118           2069.3511940
05 May 2022 02:53:57.659    05 May 2022 02:54:07.037      9.3775328714    Earth           Penumbra    118           2069.3511940
05 May 2022 03:52:55.822    05 May 2022 03:53:05.308      9.4857134856    Earth           Penumbra    119           2080.0200424
05 May 2022 03:53:05.308    05 May 2022 04:27:26.484      2061.1756993    Earth           Umbra       119           2080.0200424
05 May 2022 04:27:26.484    05 May 2022 04:27:35.843      9.3586295843    Earth           Penumbra    119           2080.0200424
05 May 2022 05:26:23.348    05 May 2022 05:26:32.815      9.4669566723    Earth           Penumbra    120           2081.1890661
05 May 2022 05:26:32.815    05 May 2022 06:00:55.197      2062.3821273    Earth           Umbra       120           2081.1890661
05 May 2022 06:00:55.197    05 May 2022 06:01:04.537      9.3399821548    Earth           Penumbra    120           2081.1890661
05 May 2022 06:59:50.823    05 May 2022 07:00:00.272      9.4483164721    Earth           Penumbra    121           2082.3628766
05 May 2022 07:00:00.272    05 May 2022 07:34:23.865      2063.5930752    Earth           Umbra       121           2082.3628766
05 May 2022 07:34:23.865    05 May 2022 07:34:33.186      9.3214849709    Earth           Penumbra    121           2082.3628766
05 May 2022 08:33:27.767    05 May 2022 09:07:52.582      2064.8154904    Earth           Umbra       122           2074.1186766
05 May 2022 09:07:52.582    05 May 2022 09:08:01.885      9.3031861237    Earth           Penumbra    122           2074.1186766
05 May 2022 10:06:45.902    05 May 2022 10:06:55.314      9.4120500726    Earth           Penumbra    123           2084.7432198
05 May 2022 10:06:55.314    05 May 2022 10:41:21.360      2066.0460250    Earth           Umbra       123           2084.7432198
05 May 2022 10:41:21.360    05 May 2022 10:41:30.645      9.2851447058    Earth           Penumbra    123           2084.7432198
05 May 2022 11:40:13.448    05 May 2022 11:40:22.842      9.3940007966    Earth           Penumbra    124           2085.9259887
05 May 2022 11:40:22.842    05 May 2022 12:14:50.107      2067.2648067    Earth           Umbra       124           2085.9259887
05 May 2022 12:14:50.107    05 May 2022 12:14:59.374      9.2671812396    Earth           Penumbra    124           2085.9259887
05 May 2022 13:13:40.912    05 May 2022 13:13:50.287      9.3756447430    Earth           Penumbra    125           2077.8334258
05 May 2022 13:13:50.287    05 May 2022 13:48:18.745      2068.4577811    Earth           Umbra       125           2077.8334258
05 May 2022 14:47:17.672    05 May 2022 15:21:47.306      2069.6340182    Earth           Umbra       126           2078.8646426
05 May 2022 15:21:47.306    05 May 2022 15:21:56.536      9.2306244071    Earth           Penumbra    126           2078.8646426
05 May 2022 16:20:35.716    05 May 2022 16:20:45.055      9.3389813555    Earth           Penumbra    127           2089.3631253
05 May 2022 16:20:45.055    05 May 2022 16:55:15.867      2070.8118951    Earth           Umbra       127           2089.3631253
05 May 2022 16:55:15.867    05 May 2022 16:55:25.079      9.2122488655    Earth           Penumbra    127           2089.3631253
05 May 2022 17:54:03.126    05 May 2022 17:54:12.447      9.3211442465    Earth           Penumbra    128           2090.5133699
05 May 2022 17:54:12.447    05 May 2022 18:28:44.445      2071.9981942    Earth           Umbra       128           2090.5133699
05 May 2022 18:28:44.445    05 May 2022 18:28:53.639      9.1940314276    Earth           Penumbra    128           2090.5133699
05 May 2022 19:27:30.509    05 May 2022 19:27:39.812      9.3033916899    Earth           Penumbra    129           2091.6659587
05 May 2022 19:27:39.812    05 May 2022 20:02:12.999      2073.1866644    Earth           Umbra       129           2091.6659587
05 May 2022 20:02:12.999    05 May 2022 20:02:22.175      9.1759026283    Earth           Penumbra    129           2091.6659587
05 May 2022 21:00:57.856    05 May 2022 21:01:07.141      9.2853842187    Earth           Penumbra    130           2092.8099558
05 May 2022 21:01:07.141    05 May 2022 21:35:41.508      2074.3668446    Earth           Umbra       130           2092.8099558
05 May 2022 21:35:41.508    05 May 2022 21:35:50.665      9.1577269952    Earth           Penumbra    130           2092.8099558
05 May 2022 22:34:25.199    05 May 2022 22:34:34.466      9.2670762562    Earth           Penumbra    131           2093.9368180
05 May 2022 22:34:34.466    05 May 2022 23:09:09.996      2075.5302696    Earth           Umbra       131           2093.9368180
05 May 2022 23:09:09.996    05 May 2022 23:09:19.136      9.1394721530    Earth           Penumbra    131           2093.9368180
06 May 2022 00:07:52.557    06 May 2022 00:08:01.806      9.2487343471    Earth           Penumbra    132           2085.9260343
06 May 2022 00:08:01.806    06 May 2022 00:42:38.483      2076.6773000    Earth           Umbra       132           2085.9260343
06 May 2022 01:41:19.891    06 May 2022 01:41:29.122      9.2306203209    Earth           Penumbra    133           2096.1528048
06 May 2022 01:41:29.122    06 May 2022 02:16:06.941      2077.8190510    Earth           Umbra       133           2096.1528048
06 May 2022 02:16:06.941    06 May 2022 02:16:16.044      9.1031334596    Earth           Penumbra    133           2096.1528048
06 May 2022 03:14:47.134    06 May 2022 03:14:56.347      9.2127357493    Earth           Penumbra    134           2097.2632745
06 May 2022 03:14:56.347    06 May 2022 03:49:35.312      2078.9651695    Earth           Umbra       134           2097.2632745
06 May 2022 03:49:35.312    06 May 2022 03:49:44.397      9.0853692731    Earth           Penumbra    134           2097.2632745
06 May 2022 04:48:14.261    06 May 2022 04:48:23.456      9.1949498747    Earth           Penumbra    135           2098.3767815
06 May 2022 04:48:23.456    06 May 2022 05:23:03.570      2080.1138978    Earth           Umbra       135           2098.3767815
06 May 2022 05:23:03.570    06 May 2022 05:23:12.638      9.0679338668    Earth           Penumbra    135           2098.3767815
06 May 2022 06:21:41.328    06 May 2022 06:21:50.505      9.1773224180    Earth           Penumbra    136           2099.4902709
06 May 2022 06:21:50.505    06 May 2022 06:56:31.767      2081.2622061    Earth           Umbra       136           2099.4902709
06 May 2022 06:56:31.767    06 May 2022 06:56:40.818      9.0507423738    Earth           Penumbra    136           2099.4902709
06 May 2022 07:55:17.586    06 May 2022 08:30:00.002      2082.4157778    Earth           Umbra       137           2091.4495635
06 May 2022 08:30:00.002    06 May 2022 08:30:09.036      9.0337856789    Earth           Penumbra    137           2091.4495635
06 May 2022 09:28:35.585    06 May 2022 09:28:44.728      9.1431924608    Earth           Penumbra    138           2092.7190088
06 May 2022 09:28:44.728    06 May 2022 10:03:28.304      2083.5758164    Earth           Umbra       138           2092.7190088
06 May 2022 11:02:02.741    06 May 2022 11:02:11.867      9.1263640090    Earth           Penumbra    139           2102.8528319
06 May 2022 11:02:11.867    06 May 2022 11:36:56.593      2084.7258906    Earth           Umbra       139           2102.8528319
06 May 2022 11:36:56.593    06 May 2022 11:37:05.594      9.0005773120    Earth           Penumbra    139           2102.8528319
06 May 2022 12:35:29.820    06 May 2022 12:35:38.929      9.1093045310    Earth           Penumbra    140           2103.9411715
06 May 2022 12:35:38.929    06 May 2022 13:10:24.777      2085.8479129    Earth           Umbra       140           2103.9411715
06 May 2022 13:10:24.777    06 May 2022 13:10:33.761      8.9839541120    Earth           Penumbra    140           2103.9411715
06 May 2022 14:08:56.832    06 May 2022 14:09:05.924      9.0921281255    Earth           Penumbra    141           2105.0041671
06 May 2022 14:09:05.924    06 May 2022 14:43:52.869      2086.9448769    Earth           Umbra       141           2105.0041671
06 May 2022 14:43:52.869    06 May 2022 14:44:01.836      8.9671621216    Earth           Penumbra    141           2105.0041671
06 May 2022 15:42:23.839    06 May 2022 15:42:32.914      9.0751890326    Earth           Penumbra    142           2106.0604020
06 May 2022 15:42:32.914    06 May 2022 16:17:20.949      2088.0348330    Earth           Umbra       142           2106.0604020
06 May 2022 16:17:20.949    06 May 2022 16:17:29.900      8.9503798750    Earth           Penumbra    142           2106.0604020
06 May 2022 17:15:50.862    06 May 2022 17:15:59.921      9.0586519567    Earth           Penumbra    143           2098.1870540
06 May 2022 17:15:59.921    06 May 2022 17:50:49.050      2089.1284020    Earth           Umbra       143           2098.1870540
06 May 2022 18:49:17.868    06 May 2022 18:49:26.910      9.0423144749    Earth           Penumbra    144           2108.1814812
06 May 2022 18:49:26.910    06 May 2022 19:24:17.132      2090.2219006    Earth           Umbra       144           2108.1814812
06 May 2022 19:24:17.132    06 May 2022 19:24:26.050      8.9172661188    Earth           Penumbra    144           2108.1814812
06 May 2022 20:22:44.837    06 May 2022 20:22:53.863      9.0258437209    Earth           Penumbra    145           2109.2320910
06 May 2022 20:22:53.863    06 May 2022 20:57:45.168      2091.3054541    Earth           Umbra       145           2109.2320910
06 May 2022 20:57:45.168    06 May 2022 20:57:54.069      8.9007931645    Earth           Penumbra    145           2109.2320910
06 May 2022 21:56:11.797    06 May 2022 21:56:20.806      9.0091271675    Earth           Penumbra    146           2110.2636729
06 May 2022 21:56:20.806    06 May 2022 22:31:13.177      2092.3702199    Earth           Umbra       146           2110.2636729
06 May 2022 22:31:13.177    06 May 2022 22:31:22.061      8.8843258680    Earth           Penumbra    146           2110.2636729
06 May 2022 23:29:47.767    07 May 2022 00:04:41.182      2093.4147969    Earth           Umbra       147           2102.2827271
07 May 2022 00:04:41.182    07 May 2022 00:04:50.050      8.8679302367    Earth           Penumbra    147           2102.2827271
07 May 2022 01:03:05.742    07 May 2022 01:03:14.718      8.9758499642    Earth           Penumbra    148           2112.2767108
07 May 2022 01:03:14.718    07 May 2022 01:38:09.167      2094.4491443    Earth           Umbra       148           2112.2767108
07 May 2022 01:38:09.167    07 May 2022 01:38:18.019      8.8517165976    Earth           Penumbra    148           2112.2767108
07 May 2022 02:36:32.632    07 May 2022 02:36:41.591      8.9596246951    Earth           Penumbra    149           2113.2804427
07 May 2022 02:36:41.591    07 May 2022 03:11:37.076      2095.4850064    Earth           Umbra       149           2113.2804427
07 May 2022 03:11:37.076    07 May 2022 03:11:45.912      8.8358116220    Earth           Penumbra    149           2113.2804427
07 May 2022 04:09:59.408    07 May 2022 04:10:08.352      8.9435798465    Earth           Penumbra    150           2114.2866159
07 May 2022 04:10:08.352    07 May 2022 04:45:04.875      2096.5227755    Earth           Umbra       150           2114.2866159
07 May 2022 04:45:04.875    07 May 2022 04:45:13.695      8.8202605722    Earth           Penumbra    150           2114.2866159
07 May 2022 05:43:26.117    07 May 2022 05:43:35.044      8.9277267340    Earth           Penumbra    151           2115.2900095
07 May 2022 05:43:35.044    07 May 2022 06:18:32.602      2097.5572634    Earth           Umbra       151           2115.2900095
07 May 2022 06:18:32.602    07 May 2022 06:18:41.407      8.8050194434    Earth           Penumbra    151           2115.2900095
07 May 2022 07:16:52.849    07 May 2022 07:17:01.761      8.9122526930    Earth           Penumbra    152           2116.2938681
07 May 2022 07:17:01.761    07 May 2022 07:52:00.352      2098.5915605    Earth           Umbra       152           2116.2938681
07 May 2022 07:52:00.352    07 May 2022 07:52:09.142      8.7900549173    Earth           Penumbra    152           2116.2938681
07 May 2022 08:50:19.648    07 May 2022 08:50:28.545      8.8972023572    Earth           Penumbra    153           2108.5270926
07 May 2022 08:50:28.545    07 May 2022 09:25:28.175      2099.6298903    Earth           Umbra       153           2108.5270926
07 May 2022 10:23:46.460    07 May 2022 10:23:55.342      8.8822972379    Earth           Penumbra    154           2118.3037077
07 May 2022 10:23:55.342    07 May 2022 10:58:56.003      2100.6605054    Earth           Umbra       154           2118.3037077
07 May 2022 10:58:56.003    07 May 2022 10:59:04.763      8.7609050679    Earth           Penumbra    154           2118.3037077
07 May 2022 11:57:13.204    07 May 2022 11:57:22.071      8.8672296144    Earth           Penumbra    155           2119.2772009
07 May 2022 11:57:22.071    07 May 2022 12:32:23.735      2101.6635555    Earth           Umbra       155           2119.2772009
07 May 2022 12:32:23.735    07 May 2022 12:32:32.481      8.7464157958    Earth           Penumbra    155           2119.2772009
07 May 2022 13:30:39.876    07 May 2022 13:30:48.728      8.8520368910    Earth           Penumbra    156           2120.2196675
07 May 2022 13:30:48.728    07 May 2022 14:05:51.364      2102.6358248    Earth           Umbra       156           2120.2196675
07 May 2022 14:05:51.364    07 May 2022 14:06:00.095      8.7318058242    Earth           Penumbra    156           2120.2196675
07 May 2022 15:04:06.537    07 May 2022 15:04:15.374      8.8370371610    Earth           Penumbra    157           2112.4302097
07 May 2022 15:04:15.374    07 May 2022 15:39:18.968      2103.5931725    Earth           Umbra       157           2112.4302097
07 May 2022 16:37:33.222    07 May 2022 16:37:42.044      8.8224463630    Earth           Penumbra    158           2122.0743987
07 May 2022 16:37:42.044    07 May 2022 17:12:46.593      2104.5492045    Earth           Umbra       158           2122.0743987
07 May 2022 17:12:46.593    07 May 2022 17:12:55.296      8.7027477566    Earth           Penumbra    158           2122.0743987
07 May 2022 18:10:59.898    07 May 2022 18:11:08.707      8.8081437978    Earth           Penumbra    159           2122.9997328
07 May 2022 18:11:08.707    07 May 2022 18:46:14.210      2105.5031388    Earth           Umbra       159           2122.9997328
07 May 2022 18:46:14.210    07 May 2022 18:46:22.898      8.6884502205    Earth           Penumbra    159           2122.9997328
