GMAT/Constellation/Eclipses/eclipse9.txt

Spacecraft: HSEYE9

Start Time (UTC)            Stop Time (UTC)               Duration (s)    Occ Body        Type        Event Number  Total Duration (s)
27 Apr 2022 11:59:28.000    27 Apr 2022 11:59:37.033      9.0331413201    Earth           Umbra       1             23.360866110
27 Apr 2022 11:59:37.033    27 Apr 2022 11:59:51.361      14.327724790    Earth           Penumbra    1             23.360866110
27 Apr 2022 13:04:07.506    27 Apr 2022 13:04:21.744      14.238405344    Earth           Penumbra    2             1763.7142023
27 Apr 2022 13:04:21.744    27 Apr 2022 13:33:16.776      1735.0316912    Earth           Umbra       2             1763.7142023
27 Apr 2022 13:33:16.776    27 Apr 2022 13:33:31.220      14.444105735    Earth           Penumbra    2             1763.7142023
27 Apr 2022 14:37:53.944    27 Apr 2022 14:38:08.297      14.353361155    Earth           Penumbra    3             1757.1051492
27 Apr 2022 14:38:08.297    27 Apr 2022 15:06:56.486      1728.1883332    Earth           Umbra       3             1757.1051492
27 Apr 2022 15:06:56.486    27 Apr 2022 15:07:11.049      14.563454816    Earth           Penumbra    3             1757.1051492
27 Apr 2022 16:11:40.503    27 Apr 2022 16:11:54.974      14.471057849    Earth           Penumbra    4             1750.3801957
27 Apr 2022 16:11:54.974    27 Apr 2022 16:40:36.198      1721.2237566    Earth           Umbra       4             1750.3801957
27 Apr 2022 16:40:36.198    27 Apr 2022 16:40:50.884      14.685381332    Earth           Penumbra    4             1750.3801957
27 Apr 2022 17:45:27.175    27 Apr 2022 17:45:41.767      14.591571176    Earth           Penumbra    5             1743.5740361
27 Apr 2022 17:45:41.767    27 Apr 2022 18:14:15.940      1714.1726497    Earth           Umbra       5             1743.5740361
27 Apr 2022 18:14:15.940    27 Apr 2022 18:14:30.750      14.809815190    Earth           Penumbra    5             1743.5740361
27 Apr 2022 19:19:13.925    27 Apr 2022 19:19:28.640      14.714926912    Earth           Penumbra    6             1736.6930001
27 Apr 2022 19:19:28.640    27 Apr 2022 19:47:55.681      1707.0408160    Earth           Umbra       6             1736.6930001
27 Apr 2022 19:47:55.681    27 Apr 2022 19:48:10.618      14.937257103    Earth           Penumbra    6             1736.6930001
27 Apr 2022 20:53:00.729    27 Apr 2022 20:53:15.571      14.841201121    Earth           Penumbra    7             1729.7167951
27 Apr 2022 20:53:15.571    27 Apr 2022 21:21:35.378      1699.8075993    Earth           Umbra       7             1729.7167951
27 Apr 2022 21:21:35.378    27 Apr 2022 21:21:50.446      15.067994676    Earth           Penumbra    7             1729.7167951
27 Apr 2022 22:26:47.622    27 Apr 2022 22:27:02.592      14.970350114    Earth           Penumbra    8             1722.6316466
27 Apr 2022 22:27:02.592    27 Apr 2022 22:55:15.052      1692.4597146    Earth           Umbra       8             1722.6316466
27 Apr 2022 22:55:15.052    27 Apr 2022 22:55:30.253      15.201581887    Earth           Penumbra    8             1722.6316466
28 Apr 2022 00:00:34.700    28 Apr 2022 00:00:49.802      15.102183097    Earth           Penumbra    9             1715.4345516
28 Apr 2022 00:00:49.802    28 Apr 2022 00:28:54.797      1684.9949593    Earth           Umbra       9             1715.4345516
28 Apr 2022 00:28:54.797    28 Apr 2022 00:29:10.135      15.337409265    Earth           Penumbra    9             1715.4345516
28 Apr 2022 01:34:22.035    28 Apr 2022 01:34:37.272      15.236739675    Earth           Penumbra    10            1708.1192234
28 Apr 2022 01:34:37.272    28 Apr 2022 02:02:34.678      1677.4068966    Earth           Umbra       10            1708.1192234
28 Apr 2022 02:02:34.678    28 Apr 2022 02:02:50.154      15.475587139    Earth           Penumbra    10            1708.1192234
28 Apr 2022 03:08:09.562    28 Apr 2022 03:08:24.936      15.374430665    Earth           Penumbra    11            1700.6847492
28 Apr 2022 03:08:24.936    28 Apr 2022 03:36:14.630      1669.6934200    Earth           Umbra       11            1700.6847492
28 Apr 2022 03:36:14.630    28 Apr 2022 03:36:30.247      15.616898483    Earth           Penumbra    11            1700.6847492
28 Apr 2022 04:41:57.128    28 Apr 2022 04:42:12.644      15.515361680    Earth           Penumbra    12            1693.1488083
28 Apr 2022 04:42:12.644    28 Apr 2022 05:09:54.515      1661.8716324    Earth           Umbra       12            1693.1488083
28 Apr 2022 05:09:54.515    28 Apr 2022 05:10:10.277      15.761814150    Earth           Penumbra    12            1693.1488083
28 Apr 2022 06:15:44.664    28 Apr 2022 06:16:00.323      15.658823925    Earth           Penumbra    13            1685.5354801
28 Apr 2022 06:16:00.323    28 Apr 2022 06:43:34.290      1653.9669281    Earth           Umbra       13            1685.5354801
28 Apr 2022 06:43:34.290    28 Apr 2022 06:43:50.200      15.909728128    Earth           Penumbra    13            1685.5354801
28 Apr 2022 07:49:32.245    28 Apr 2022 07:49:48.049      15.803957102    Earth           Penumbra    14            1677.8591105
28 Apr 2022 07:49:48.049    28 Apr 2022 08:17:14.045      1645.9957397    Earth           Umbra       14            1677.8591105
28 Apr 2022 08:17:14.045    28 Apr 2022 08:17:30.104      16.059413622    Earth           Penumbra    14            1677.8591105
28 Apr 2022 09:23:19.970    28 Apr 2022 09:23:35.921      15.950763412    Earth           Penumbra    15            1670.1220720
28 Apr 2022 09:23:35.921    28 Apr 2022 09:50:53.882      1637.9609277    Earth           Umbra       15            1670.1220720
28 Apr 2022 09:50:53.882    28 Apr 2022 09:51:10.093      16.210380918    Earth           Penumbra    15            1670.1220720
28 Apr 2022 10:57:07.856    28 Apr 2022 10:57:23.956      16.100049403    Earth           Penumbra    16            1662.3065664
28 Apr 2022 10:57:23.956    28 Apr 2022 11:24:33.799      1629.8428988    Earth           Umbra       16            1662.3065664
28 Apr 2022 11:24:33.799    28 Apr 2022 11:24:50.162      16.363618243    Earth           Penumbra    16            1662.3065664
28 Apr 2022 12:30:55.871    28 Apr 2022 12:31:12.123      16.252616909    Earth           Penumbra    17            1654.3690479
28 Apr 2022 12:31:12.123    28 Apr 2022 12:58:13.719      1621.5957567    Earth           Umbra       17            1654.3690479
28 Apr 2022 12:58:13.719    28 Apr 2022 12:58:30.240      16.520674259    Earth           Penumbra    17            1654.3690479
28 Apr 2022 14:04:44.015    28 Apr 2022 14:05:00.424      16.408889636    Earth           Penumbra    18            1646.2727178
28 Apr 2022 14:05:00.424    28 Apr 2022 14:31:53.606      1613.1816720    Earth           Umbra       18            1646.2727178
28 Apr 2022 14:31:53.606    28 Apr 2022 14:32:10.288      16.682156234    Earth           Penumbra    18            1646.2727178
28 Apr 2022 15:38:32.311    28 Apr 2022 15:38:48.880      16.569154244    Earth           Penumbra    19            1638.0286124
28 Apr 2022 15:38:48.880    28 Apr 2022 16:05:33.492      1604.6118865    Earth           Umbra       19            1638.0286124
28 Apr 2022 16:05:33.492    28 Apr 2022 16:05:50.339      16.847571626    Earth           Penumbra    19            1638.0286124
28 Apr 2022 17:12:20.753    28 Apr 2022 17:12:37.487      16.733649618    Earth           Penumbra    20            1629.6774196
28 Apr 2022 17:12:37.487    28 Apr 2022 17:39:13.414      1595.9271683    Earth           Umbra       20            1629.6774196
28 Apr 2022 17:39:13.414    28 Apr 2022 17:39:30.431      17.016601714    Earth           Penumbra    20            1629.6774196
28 Apr 2022 18:46:09.310    28 Apr 2022 18:46:26.213      16.902500857    Earth           Penumbra    21            1621.2339272
28 Apr 2022 18:46:26.213    28 Apr 2022 19:12:53.354      1587.1416025    Earth           Umbra       21            1621.2339272
28 Apr 2022 19:12:53.354    28 Apr 2022 19:13:10.544      17.189823906    Earth           Penumbra    21            1621.2339272
28 Apr 2022 20:19:57.953    28 Apr 2022 20:20:15.029      17.075668043    Earth           Penumbra    22            1612.6791450
28 Apr 2022 20:20:15.029    28 Apr 2022 20:46:33.265      1578.2356648    Earth           Umbra       22            1612.6791450
28 Apr 2022 20:46:33.265    28 Apr 2022 20:46:50.632      17.367812153    Earth           Penumbra    22            1612.6791450
28 Apr 2022 21:53:46.707    28 Apr 2022 21:54:03.960      17.252885888    Earth           Penumbra    23            1603.9999066
28 Apr 2022 21:54:03.960    28 Apr 2022 22:20:13.157      1569.1969339    Earth           Umbra       23            1603.9999066
28 Apr 2022 22:20:13.157    28 Apr 2022 22:20:30.707      17.550086800    Earth           Penumbra    23            1603.9999066
28 Apr 2022 23:27:35.662    28 Apr 2022 23:27:53.096      17.433813040    Earth           Penumbra    24            1595.2003221
28 Apr 2022 23:27:53.096    28 Apr 2022 23:53:53.126      1560.0308645    Earth           Umbra       24            1595.2003221
28 Apr 2022 23:53:53.126    28 Apr 2022 23:54:10.862      17.735644535    Earth           Penumbra    24            1595.2003221
29 Apr 2022 01:01:24.898    29 Apr 2022 01:01:42.516      17.618562025    Earth           Penumbra    25            1586.2766885
29 Apr 2022 01:01:42.516    29 Apr 2022 01:27:33.250      1550.7337288    Earth           Umbra       25            1586.2766885
29 Apr 2022 01:27:33.250    29 Apr 2022 01:27:51.174      17.924397660    Earth           Penumbra    25            1586.2766885
29 Apr 2022 02:35:14.373    29 Apr 2022 02:35:32.181      17.807940964    Earth           Penumbra    26            1577.2158190
29 Apr 2022 02:35:32.181    29 Apr 2022 03:01:13.471      1541.2903566    Earth           Umbra       26            1577.2158190
29 Apr 2022 03:01:13.471    29 Apr 2022 03:01:31.589      18.117521424    Earth           Penumbra    26            1577.2158190
29 Apr 2022 04:09:03.936    29 Apr 2022 04:09:21.939      18.002478231    Earth           Penumbra    27            1568.0232460
29 Apr 2022 04:09:21.939    29 Apr 2022 04:34:53.644      1531.7046895    Earth           Umbra       27            1568.0232460
29 Apr 2022 04:34:53.644    29 Apr 2022 04:35:11.960      18.316078233    Earth           Penumbra    27            1568.0232460
29 Apr 2022 05:42:53.491    29 Apr 2022 05:43:11.692      18.201354705    Earth           Penumbra    28            1558.7321917
29 Apr 2022 05:43:11.692    29 Apr 2022 06:08:33.703      1522.0113133    Earth           Umbra       28            1558.7321917
29 Apr 2022 06:08:33.703    29 Apr 2022 06:08:52.223      18.519523682    Earth           Penumbra    28            1558.7321917
29 Apr 2022 07:16:43.084    29 Apr 2022 07:17:01.487      18.403004436    Earth           Penumbra    29            1549.3816795
29 Apr 2022 07:17:01.487    29 Apr 2022 07:42:13.739      1512.2526922    Earth           Umbra       29            1549.3816795
29 Apr 2022 07:42:13.739    29 Apr 2022 07:42:32.465      18.725982844    Earth           Penumbra    29            1549.3816795
29 Apr 2022 08:50:32.818    29 Apr 2022 08:50:51.425      18.606945884    Earth           Penumbra    30            1539.9897705
29 Apr 2022 08:50:51.425    29 Apr 2022 09:15:53.874      1502.4485486    Earth           Umbra       30            1539.9897705
29 Apr 2022 09:15:53.874    29 Apr 2022 09:16:12.808      18.934276071    Earth           Penumbra    30            1539.9897705
29 Apr 2022 10:24:22.730    29 Apr 2022 10:24:41.545      18.814344867    Earth           Penumbra    31            1530.5340282
29 Apr 2022 10:24:41.545    29 Apr 2022 10:49:34.119      1492.5742056    Earth           Umbra       31            1530.5340282
29 Apr 2022 10:49:34.119    29 Apr 2022 10:49:53.264      19.145477714    Earth           Penumbra    31            1530.5340282
29 Apr 2022 11:58:12.800    29 Apr 2022 11:58:31.827      19.026722701    Earth           Penumbra    32            1520.9539806
29 Apr 2022 11:58:31.827    29 Apr 2022 12:23:14.392      1482.5652545    Earth           Umbra       32            1520.9539806
29 Apr 2022 12:23:14.392    29 Apr 2022 12:23:33.754      19.362003333    Earth           Penumbra    32            1520.9539806
29 Apr 2022 13:32:03.027    29 Apr 2022 13:32:22.272      19.244802953    Earth           Penumbra    33            1511.1960110
29 Apr 2022 13:32:22.272    29 Apr 2022 13:56:54.638      1472.3659907    Earth           Umbra       33            1511.1960110
29 Apr 2022 13:56:54.638    29 Apr 2022 13:57:14.223      19.585217396    Earth           Penumbra    33            1511.1960110
29 Apr 2022 15:05:53.433    29 Apr 2022 15:06:12.902      19.468786789    Earth           Penumbra    34            1501.2639637
29 Apr 2022 15:06:12.902    29 Apr 2022 15:30:34.883      1461.9806005    Earth           Umbra       34            1501.2639637
29 Apr 2022 15:30:34.883    29 Apr 2022 15:30:54.697      19.814576441    Earth           Penumbra    34            1501.2639637
29 Apr 2022 16:39:44.021    29 Apr 2022 16:40:03.720      19.699032221    Earth           Penumbra    35            1491.2042944
29 Apr 2022 16:40:03.720    29 Apr 2022 17:04:15.176      1451.4559741    Earth           Umbra       35            1491.2042944
29 Apr 2022 17:04:15.176    29 Apr 2022 17:04:35.226      20.049288066    Earth           Penumbra    35            1491.2042944
29 Apr 2022 18:13:34.761    29 Apr 2022 18:13:54.697      19.935980870    Earth           Penumbra    36            1481.0422685
29 Apr 2022 18:13:54.697    29 Apr 2022 18:37:55.513      1440.8163954    Earth           Umbra       36            1481.0422685
29 Apr 2022 18:37:55.513    29 Apr 2022 18:38:15.803      20.289892273    Earth           Penumbra    36            1481.0422685
29 Apr 2022 19:47:25.619    29 Apr 2022 19:47:45.798      20.179590618    Earth           Penumbra    37            1470.7645588
29 Apr 2022 19:47:45.798    29 Apr 2022 20:11:35.846      1430.0475843    Earth           Umbra       37            1470.7645588
29 Apr 2022 20:11:35.846    29 Apr 2022 20:11:56.383      20.537383889    Earth           Penumbra    37            1470.7645588
29 Apr 2022 21:21:16.604    29 Apr 2022 21:21:37.033      20.429107093    Earth           Penumbra    38            1460.3639904
29 Apr 2022 21:21:37.033    29 Apr 2022 21:45:16.177      1419.1435541    Earth           Umbra       38            1460.3639904
29 Apr 2022 21:45:16.177    29 Apr 2022 21:45:36.968      20.791329152    Earth           Penumbra    38            1460.3639904
29 Apr 2022 22:55:07.792    29 Apr 2022 22:55:28.475      20.683624735    Earth           Penumbra    39            1449.8584854
29 Apr 2022 22:55:28.475    29 Apr 2022 23:18:56.600      1408.1247988    Earth           Umbra       39            1449.8584854
29 Apr 2022 23:18:56.600    29 Apr 2022 23:19:17.650      21.050061844    Earth           Penumbra    39            1449.8584854
30 Apr 2022 00:28:59.268    30 Apr 2022 00:29:20.211      20.943243813    Earth           Penumbra    40            1439.2523137
30 Apr 2022 00:29:20.211    30 Apr 2022 00:52:37.207      1396.9960857    Earth           Umbra       40            1439.2523137
30 Apr 2022 00:52:37.207    30 Apr 2022 00:52:58.520      21.312984126    Earth           Penumbra    40            1439.2523137
30 Apr 2022 02:02:51.019    30 Apr 2022 02:03:12.228      21.209521161    Earth           Penumbra    41            1428.5161047
30 Apr 2022 02:03:12.228    30 Apr 2022 02:26:17.953      1385.7247855    Earth           Umbra       41            1428.5161047
30 Apr 2022 02:26:17.953    30 Apr 2022 02:26:39.535      21.581798047    Earth           Penumbra    41            1428.5161047
30 Apr 2022 03:36:42.907    30 Apr 2022 03:37:04.391      21.483963006    Earth           Penumbra    42            1417.6302995
30 Apr 2022 03:37:04.391    30 Apr 2022 03:59:58.679      1374.2876480    Earth           Umbra       42            1417.6302995
30 Apr 2022 03:59:58.679    30 Apr 2022 04:00:20.538      21.858688456    Earth           Penumbra    42            1417.6302995
30 Apr 2022 05:10:34.810    30 Apr 2022 05:10:56.576      21.765770973    Earth           Penumbra    43            1406.6315042
30 Apr 2022 05:10:56.576    30 Apr 2022 05:33:39.298      1362.7222897    Earth           Umbra       43            1406.6315042
30 Apr 2022 05:33:39.298    30 Apr 2022 05:34:01.441      22.143443499    Earth           Penumbra    43            1406.6315042
30 Apr 2022 06:44:26.733    30 Apr 2022 06:44:48.786      22.052079393    Earth           Penumbra    44            1395.5967559
30 Apr 2022 06:44:48.786    30 Apr 2022 07:07:19.897      1351.1115645    Earth           Umbra       44            1395.5967559
30 Apr 2022 07:07:19.897    30 Apr 2022 07:07:42.330      22.433112015    Earth           Penumbra    44            1395.5967559
30 Apr 2022 08:18:18.768    30 Apr 2022 08:18:41.109      22.341089405    Earth           Penumbra    45            1384.5796951
30 Apr 2022 08:18:41.109    30 Apr 2022 08:41:00.622      1339.5135410    Earth           Umbra       45            1384.5796951
30 Apr 2022 08:41:00.622    30 Apr 2022 08:41:23.347      22.725064703    Earth           Penumbra    45            1384.5796951
30 Apr 2022 09:52:10.968    30 Apr 2022 09:52:33.603      22.634252231    Earth           Penumbra    46            1373.5587830
30 Apr 2022 09:52:33.603    30 Apr 2022 10:14:41.507      1327.9043557    Earth           Umbra       46            1373.5587830
30 Apr 2022 10:14:41.507    30 Apr 2022 10:15:04.527      23.020175064    Earth           Penumbra    46            1373.5587830
30 Apr 2022 11:26:03.338    30 Apr 2022 11:26:26.272      22.934607358    Earth           Penumbra    47            1362.4473909
30 Apr 2022 11:26:26.272    30 Apr 2022 11:48:22.463      1316.1905484    Earth           Umbra       47            1362.4473909
30 Apr 2022 11:48:22.463    30 Apr 2022 11:48:45.785      23.322235071    Earth           Penumbra    47            1362.4473909
30 Apr 2022 12:59:55.879    30 Apr 2022 13:00:19.122      23.243826348    Earth           Penumbra    48            1351.1674012
30 Apr 2022 13:00:19.122    30 Apr 2022 13:22:03.412      1304.2894660    Earth           Umbra       48            1351.1674012
30 Apr 2022 13:22:03.412    30 Apr 2022 13:22:27.046      23.634108820    Earth           Penumbra    48            1351.1674012
30 Apr 2022 14:33:48.610    30 Apr 2022 14:34:12.171      23.561724380    Earth           Penumbra    49            1339.7169176
30 Apr 2022 14:34:12.171    30 Apr 2022 14:55:44.371      1292.1998288    Earth           Umbra       49            1339.7169176
30 Apr 2022 14:55:44.371    30 Apr 2022 14:56:08.327      23.955364432    Earth           Penumbra    49            1339.7169176
30 Apr 2022 16:07:41.536    30 Apr 2022 16:08:05.424      23.888188298    Earth           Penumbra    50            1328.1524753
30 Apr 2022 16:08:05.424    30 Apr 2022 16:29:25.404      1279.9800443    Earth           Umbra       50            1328.1524753
30 Apr 2022 16:29:25.404    30 Apr 2022 16:29:49.688      24.284242652    Earth           Penumbra    50            1328.1524753
30 Apr 2022 17:41:34.632    30 Apr 2022 17:41:58.856      24.224056082    Earth           Penumbra    51            1316.5124104
30 Apr 2022 17:41:58.856    30 Apr 2022 18:03:06.524      1267.6675454    Earth           Umbra       51            1316.5124104
30 Apr 2022 18:03:06.524    30 Apr 2022 18:03:31.144      24.620808859    Earth           Penumbra    51            1316.5124104
30 Apr 2022 19:15:27.860    30 Apr 2022 19:15:52.430      24.569719692    Earth           Penumbra    52            1304.7930038
30 Apr 2022 19:15:52.430    30 Apr 2022 19:36:47.687      1255.2567233    Earth           Umbra       52            1304.7930038
30 Apr 2022 19:36:47.687    30 Apr 2022 19:37:12.653      24.966560793    Earth           Penumbra    52            1304.7930038
30 Apr 2022 20:49:21.205    30 Apr 2022 20:49:46.129      24.923655298    Earth           Penumbra    53            1293.0023189
30 Apr 2022 20:49:46.129    30 Apr 2022 21:10:28.886      1242.7574578    Earth           Umbra       53            1293.0023189
30 Apr 2022 21:10:28.886    30 Apr 2022 21:10:54.207      25.321205822    Earth           Penumbra    53            1293.0023189
30 Apr 2022 22:23:14.711    30 Apr 2022 22:23:39.995      25.283320982    Earth           Penumbra    54            1281.1862671
30 Apr 2022 22:23:39.995    30 Apr 2022 22:44:10.216      1230.2210647    Earth           Umbra       54            1281.1862671
30 Apr 2022 22:44:10.216    30 Apr 2022 22:44:35.898      25.681881420    Earth           Penumbra    54            1281.1862671
30 Apr 2022 23:57:08.463    30 Apr 2022 23:57:34.111      25.648041896    Earth           Penumbra    55            1269.3688947
30 Apr 2022 23:57:34.111    01 May 2022 00:17:51.785      1217.6741738    Earth           Umbra       55            1269.3688947
01 May 2022 00:17:51.785    01 May 2022 00:18:17.831      26.046679029    Earth           Penumbra    55            1269.3688947
01 May 2022 01:31:02.476    01 May 2022 01:31:28.497      26.020566782    Earth           Penumbra    56            1257.5019036
01 May 2022 01:31:28.497    01 May 2022 01:51:33.560      1205.0635253    Earth           Umbra       56            1257.5019036
01 May 2022 01:51:33.560    01 May 2022 01:51:59.978      26.417811471    Earth           Penumbra    56            1257.5019036
01 May 2022 03:04:56.649    01 May 2022 03:05:23.054      26.404577913    Earth           Penumbra    57            1245.5216245
01 May 2022 03:05:23.054    01 May 2022 03:25:15.371      1192.3175304    Earth           Umbra       57            1245.5216245
01 May 2022 03:25:15.371    01 May 2022 03:25:42.171      26.799516112    Earth           Penumbra    57            1245.5216245
01 May 2022 04:38:50.841    01 May 2022 04:39:17.641      26.799857151    Earth           Penumbra    58            1233.4538549
01 May 2022 04:39:17.641    01 May 2022 04:58:57.102      1179.4614385    Earth           Umbra       58            1233.4538549
01 May 2022 04:58:57.102    01 May 2022 04:59:24.295      27.192559268    Earth           Penumbra    58            1233.4538549
01 May 2022 06:12:45.001    01 May 2022 06:13:12.202      27.201125468    Earth           Penumbra    59            1221.4275711
01 May 2022 06:13:12.202    01 May 2022 06:32:38.836      1166.6343383    Earth           Umbra       59            1221.4275711
01 May 2022 06:32:38.836    01 May 2022 06:33:06.428      27.592107304    Earth           Penumbra    59            1221.4275711
01 May 2022 07:46:39.176    01 May 2022 07:47:06.779      27.603157586    Earth           Penumbra    60            1209.5650688
01 May 2022 07:47:06.779    01 May 2022 08:06:20.749      1153.9696250    Earth           Umbra       60            1209.5650688
01 May 2022 08:06:20.749    01 May 2022 08:06:48.741      27.992286184    Earth           Penumbra    60            1209.5650688
01 May 2022 09:20:33.434    01 May 2022 09:21:01.440      28.006610437    Earth           Penumbra    61            1197.8636599
01 May 2022 09:21:01.440    01 May 2022 09:40:02.905      1141.4643544    Earth           Umbra       61            1197.8636599
01 May 2022 09:40:02.905    01 May 2022 09:40:31.298      28.392695147    Earth           Penumbra    61            1197.8636599
01 May 2022 10:54:27.813    01 May 2022 10:54:56.230      28.417225729    Earth           Penumbra    62            1186.1998330
01 May 2022 10:54:56.230    01 May 2022 11:13:45.214      1128.9834958    Earth           Umbra       62            1186.1998330
01 May 2022 11:13:45.214    01 May 2022 11:14:14.013      28.799111419    Earth           Penumbra    62            1186.1998330
01 May 2022 12:28:22.332    01 May 2022 12:28:51.172      28.839288605    Earth           Penumbra    63            1174.4548469
01 May 2022 12:28:51.172    01 May 2022 12:47:27.570      1116.3983222    Earth           Umbra       63            1174.4548469
01 May 2022 12:47:27.570    01 May 2022 12:47:56.787      29.217236163    Earth           Penumbra    63            1174.4548469
01 May 2022 14:02:17.000    01 May 2022 14:02:46.272      29.272081156    Earth           Penumbra    64            1162.6235753
01 May 2022 14:02:46.272    01 May 2022 14:21:09.976      1103.7044163    Earth           Umbra       64            1162.6235753
01 May 2022 14:21:09.976    01 May 2022 14:21:39.623      29.647077865    Earth           Penumbra    64            1162.6235753
01 May 2022 15:36:11.807    01 May 2022 15:36:41.520      29.713096039    Earth           Penumbra    65            1150.7881835
01 May 2022 15:36:41.520    01 May 2022 15:54:52.511      1090.9903567    Earth           Umbra       65            1150.7881835
01 May 2022 15:54:52.511    01 May 2022 15:55:22.595      30.084730766    Earth           Penumbra    65            1150.7881835
01 May 2022 17:10:06.733    01 May 2022 17:10:36.895      30.162314395    Earth           Penumbra    66            1139.0099147
01 May 2022 17:10:36.895    01 May 2022 17:28:35.215      1078.3192706    Earth           Umbra       66            1139.0099147
01 May 2022 17:28:35.215    01 May 2022 17:29:05.743      30.528329685    Earth           Penumbra    66            1139.0099147
01 May 2022 18:44:01.739    01 May 2022 18:44:32.360      30.620967736    Earth           Penumbra    67            1127.2961140
01 May 2022 18:44:32.360    01 May 2022 19:02:18.056      1065.6958113    Earth           Umbra       67            1127.2961140
01 May 2022 19:02:18.056    01 May 2022 19:02:49.035      30.979334959    Earth           Penumbra    67            1127.2961140
01 May 2022 20:17:56.780    01 May 2022 20:18:27.867      31.086794205    Earth           Penumbra    68            1115.6762326
01 May 2022 20:18:27.867    01 May 2022 20:36:01.019      1053.1519820    Earth           Umbra       68            1115.6762326
01 May 2022 20:36:01.019    01 May 2022 20:36:32.456      31.437456468    Earth           Penumbra    68            1115.6762326
01 May 2022 21:51:51.852    01 May 2022 21:52:23.406      31.553644105    Earth           Penumbra    69            1104.2430270
01 May 2022 21:52:23.406    01 May 2022 22:09:44.197      1040.7918681    Earth           Umbra       69            1104.2430270
01 May 2022 22:09:44.197    01 May 2022 22:10:16.095      31.897514826    Earth           Penumbra    69            1104.2430270
01 May 2022 23:25:47.011    01 May 2022 23:26:19.029      32.017426542    Earth           Penumbra    70            1093.0620555
01 May 2022 23:26:19.029    01 May 2022 23:43:27.719      1028.6902691    Earth           Umbra       70            1093.0620555
01 May 2022 23:43:27.719    01 May 2022 23:44:00.074      32.354359876    Earth           Penumbra    70            1093.0620555
02 May 2022 00:59:42.310    02 May 2022 01:00:14.791      32.481583650    Earth           Penumbra    71            1082.0699619
02 May 2022 01:00:14.791    02 May 2022 01:17:11.570      1016.7784834    Earth           Umbra       71            1082.0699619
02 May 2022 01:17:11.570    02 May 2022 01:17:44.380      32.809894835    Earth           Penumbra    71            1082.0699619
02 May 2022 02:33:37.701    02 May 2022 02:34:10.654      32.953827933    Earth           Penumbra    72            1071.1358599
02 May 2022 02:34:10.654    02 May 2022 02:50:55.565      1004.9104537    Earth           Umbra       72            1071.1358599
02 May 2022 02:50:55.565    02 May 2022 02:51:28.836      33.271578234    Earth           Penumbra    72            1071.1358599
02 May 2022 04:07:33.050    02 May 2022 04:08:06.487      33.436071407    Earth           Penumbra    73            1060.2455775
02 May 2022 04:08:06.487    02 May 2022 04:24:39.554      993.06711468    Earth           Umbra       73            1060.2455775
02 May 2022 04:24:39.554    02 May 2022 04:25:13.296      33.742391411    Earth           Penumbra    73            1060.2455775
02 May 2022 05:41:28.243    02 May 2022 05:42:02.162      33.919112000    Earth           Penumbra    74            1049.5798123
02 May 2022 05:42:02.162    02 May 2022 05:58:23.609      981.44636890    Earth           Umbra       74            1049.5798123
02 May 2022 05:58:23.609    02 May 2022 05:58:57.823      34.214331431    Earth           Penumbra    74            1049.5798123
02 May 2022 07:15:23.250    02 May 2022 07:15:57.640      34.390069451    Earth           Penumbra    75            1039.3644631
02 May 2022 07:15:57.640    02 May 2022 07:32:07.940      970.29971718    Earth           Umbra       75            1039.3644631
02 May 2022 07:32:07.940    02 May 2022 07:32:42.615      34.674676450    Earth           Penumbra    75            1039.3644631
02 May 2022 08:49:18.123    02 May 2022 08:49:52.969      34.845402616    Earth           Penumbra    76            1029.6494148
02 May 2022 08:49:52.969    02 May 2022 09:05:52.654      959.68516596    Earth           Umbra       76            1029.6494148
02 May 2022 09:05:52.654    02 May 2022 09:06:27.773      35.118846176    Earth           Penumbra    76            1029.6494148
02 May 2022 10:23:12.948    02 May 2022 10:23:48.242      35.293794307    Earth           Penumbra    77            1020.2720793
02 May 2022 10:23:48.242    02 May 2022 10:39:37.665      949.42367433    Earth           Umbra       77            1020.2720793
02 May 2022 10:39:37.665    02 May 2022 10:40:13.220      35.554610635    Earth           Penumbra    77            1020.2720793
02 May 2022 11:57:07.784    02 May 2022 11:57:43.529      35.744947311    Earth           Penumbra    78            1011.0471739
02 May 2022 11:57:43.529    02 May 2022 12:13:22.839      939.30992726    Earth           Umbra       78            1011.0471739
02 May 2022 12:13:22.839    02 May 2022 12:13:58.832      35.992299370    Earth           Penumbra    78            1011.0471739
02 May 2022 13:31:02.635    02 May 2022 13:31:38.833      36.198468099    Earth           Penumbra    79            1001.9553777
02 May 2022 13:31:38.833    02 May 2022 13:47:08.157      929.32392888    Earth           Umbra       79            1001.9553777
02 May 2022 13:47:08.157    02 May 2022 13:47:44.590      36.432980758    Earth           Penumbra    79            1001.9553777
02 May 2022 15:04:57.457    02 May 2022 15:05:34.104      36.646382022    Earth           Penumbra    80            993.12087558
02 May 2022 15:05:34.104    02 May 2022 15:20:53.709      919.60586936    Earth           Umbra       80            993.12087558
02 May 2022 15:20:53.709    02 May 2022 15:21:30.578      36.868624203    Earth           Penumbra    80            993.12087558
02 May 2022 16:38:52.215    02 May 2022 16:39:29.299      37.083721859    Earth           Penumbra    81            984.64697327
02 May 2022 16:39:29.299    02 May 2022 16:54:39.570      910.27096978    Earth           Umbra       81            984.64697327
02 May 2022 16:54:39.570    02 May 2022 16:55:16.862      37.292281631    Earth           Penumbra    81            984.64697327
02 May 2022 18:12:46.877    02 May 2022 18:13:24.388      37.511239783    Earth           Penumbra    82            976.55045337
02 May 2022 18:13:24.388    02 May 2022 18:28:25.724      901.33585335    Earth           Umbra       82            976.55045337
02 May 2022 18:28:25.724    02 May 2022 18:29:03.428      37.703360233    Earth           Penumbra    82            976.55045337
02 May 2022 19:46:41.387    02 May 2022 19:47:19.314      37.926887989    Earth           Penumbra    83            968.86570451
02 May 2022 19:47:19.314    02 May 2022 20:02:12.151      892.83769297    Earth           Umbra       83            968.86570451
02 May 2022 20:02:12.151    02 May 2022 20:02:50.253      38.101123553    Earth           Penumbra    83            968.86570451
02 May 2022 21:20:35.687    02 May 2022 21:21:14.008      38.320318388    Earth           Penumbra    84            961.72313865
02 May 2022 21:21:14.008    02 May 2022 21:35:58.933      884.92521137    Earth           Umbra       84            961.72313865
02 May 2022 21:35:58.933    02 May 2022 21:36:37.410      38.477608887    Earth           Penumbra    84            961.72313865
02 May 2022 22:54:29.791    02 May 2022 22:55:08.472      38.681175036    Earth           Penumbra    85            955.23706125
02 May 2022 22:55:08.472    02 May 2022 23:09:46.205      877.73292018    Earth           Umbra       85            955.23706125
02 May 2022 23:09:46.205    02 May 2022 23:10:25.028      38.822966034    Earth           Penumbra    85            955.23706125
03 May 2022 00:28:23.771    03 May 2022 00:29:02.783      39.011641208    Earth           Penumbra    86            949.33734440
03 May 2022 00:29:02.783    03 May 2022 00:43:33.971      871.18803326    Earth           Umbra       86            949.33734440
03 May 2022 00:43:33.971    03 May 2022 00:44:13.108      39.137669932    Earth           Penumbra    86            949.33734440
03 May 2022 02:02:17.658    03 May 2022 02:02:56.983      39.325009554    Earth           Penumbra    87            943.81059405
03 May 2022 02:02:56.983    03 May 2022 02:17:22.036      865.05219819    Earth           Umbra       87            943.81059405
03 May 2022 02:17:22.036    03 May 2022 02:18:01.469      39.433386305    Earth           Penumbra    87            943.81059405
03 May 2022 03:36:11.367    03 May 2022 03:36:50.996      39.628740179    Earth           Penumbra    88            938.55726526
03 May 2022 03:36:50.996    03 May 2022 03:51:10.207      859.21076249    Earth           Umbra       88            938.55726526
03 May 2022 03:51:10.207    03 May 2022 03:51:49.925      39.717762591    Earth           Penumbra    88            938.55726526
03 May 2022 05:10:04.746    03 May 2022 05:10:44.658      39.911726536    Earth           Penumbra    89            933.75869599
03 May 2022 05:10:44.658    03 May 2022 05:24:58.523      853.86574898    Earth           Umbra       89            933.75869599
03 May 2022 05:24:58.523    03 May 2022 05:25:38.505      39.981220476    Earth           Penumbra    89            933.75869599
03 May 2022 06:43:57.686    03 May 2022 06:44:37.838      40.152849059    Earth           Penumbra    90            929.72194743
03 May 2022 06:44:37.838    03 May 2022 06:58:47.204      849.36521861    Earth           Umbra       90            929.72194743
03 May 2022 06:58:47.204    03 May 2022 06:59:27.408      40.203879762    Earth           Penumbra    90            929.72194743
03 May 2022 08:17:50.202    03 May 2022 08:18:30.545      40.342552692    Earth           Penumbra    91            926.56140426
03 May 2022 08:18:30.545    03 May 2022 08:32:36.387      845.84277588    Earth           Umbra       91            926.56140426
03 May 2022 08:32:36.387    03 May 2022 08:33:16.763      40.376075695    Earth           Penumbra    91            926.56140426
03 May 2022 09:51:42.419    03 May 2022 09:52:22.911      40.491994587    Earth           Penumbra    92            924.09012039
03 May 2022 09:52:22.911    03 May 2022 10:06:26.001      843.09034820    Earth           Umbra       92            924.09012039
03 May 2022 10:06:26.001    03 May 2022 10:07:06.509      40.507777606    Earth           Penumbra    92            924.09012039
03 May 2022 11:25:34.463    03 May 2022 11:26:15.082      40.618636552    Earth           Penumbra    93            922.04169935
03 May 2022 11:26:15.082    03 May 2022 11:40:15.889      840.80730323    Earth           Umbra       93            922.04169935
03 May 2022 11:40:15.889    03 May 2022 11:40:56.505      40.615759569    Earth           Penumbra    93            922.04169935
03 May 2022 12:59:26.361    03 May 2022 13:00:07.088      40.726759017    Earth           Penumbra    94            920.34335341
03 May 2022 13:00:07.088    03 May 2022 13:14:05.999      838.91147389    Earth           Umbra       94            920.34335341
03 May 2022 13:14:05.999    03 May 2022 13:14:46.705      40.705120505    Earth           Penumbra    94            920.34335341
03 May 2022 14:33:18.047    03 May 2022 14:33:58.853      40.806127049    Earth           Penumbra    95            919.12796949
03 May 2022 14:33:58.853    03 May 2022 14:47:56.408      837.55501688    Earth           Umbra       95            919.12796949
03 May 2022 14:47:56.408    03 May 2022 14:48:37.175      40.766825562    Earth           Penumbra    95            919.12796949
03 May 2022 16:07:09.460    03 May 2022 16:07:50.307      40.847251285    Earth           Penumbra    96            918.52822263
03 May 2022 16:07:50.307    03 May 2022 16:21:47.197      836.89013195    Earth           Umbra       96            918.52822263
03 May 2022 16:21:47.197    03 May 2022 16:22:27.988      40.790839400    Earth           Penumbra    96            918.52822263
03 May 2022 17:41:00.581    03 May 2022 17:41:41.431      40.850631183    Earth           Penumbra    97            918.55644649
03 May 2022 17:41:41.431    03 May 2022 17:55:38.361      836.93011928    Earth           Umbra       97            918.55644649
03 May 2022 17:55:38.361    03 May 2022 17:56:19.137      40.775696025    Earth           Penumbra    97            918.55644649
03 May 2022 19:14:51.376    03 May 2022 19:15:32.195      40.818817460    Earth           Penumbra    98            919.20682266
03 May 2022 19:15:32.195    03 May 2022 19:29:29.860      837.66468141    Earth           Umbra       98            919.20682266
03 May 2022 19:29:29.860    03 May 2022 19:30:10.583      40.723323799    Earth           Penumbra    98            919.20682266
03 May 2022 20:48:41.787    03 May 2022 20:49:22.533      40.746047348    Earth           Penumbra    99            920.57578809
03 May 2022 20:49:22.533    03 May 2022 21:03:21.732      839.19975248    Earth           Umbra       99            920.57578809
03 May 2022 21:03:21.732    03 May 2022 21:04:02.362      40.629988268    Earth           Penumbra    99            920.57578809
03 May 2022 22:22:31.801    03 May 2022 22:23:12.425      40.623577998    Earth           Penumbra    100           922.77204705
03 May 2022 22:23:12.425    03 May 2022 22:37:14.084      841.65921158    Earth           Umbra       100           922.77204705
03 May 2022 22:37:14.084    03 May 2022 22:37:54.573      40.489257476    Earth           Penumbra    100           922.77204705
03 May 2022 23:56:21.505    03 May 2022 23:57:01.960      40.454663581    Earth           Penumbra    101           925.71659172
03 May 2022 23:57:01.960    04 May 2022 00:11:06.917      844.95773743    Earth           Umbra       101           925.71659172
04 May 2022 00:11:06.917    04 May 2022 00:11:47.222      40.304190712    Earth           Penumbra    101           925.71659172
04 May 2022 01:30:10.993    04 May 2022 01:30:51.250      40.256774391    Earth           Penumbra    102           929.14019264
04 May 2022 01:30:51.250    04 May 2022 01:45:00.043      848.79331025    Earth           Umbra       102           929.14019264
04 May 2022 01:45:00.043    04 May 2022 01:45:40.133      40.090107999    Earth           Penumbra    102           929.14019264
04 May 2022 03:04:00.251    04 May 2022 03:04:40.296      40.044649900    Earth           Penumbra    103           932.84664697
04 May 2022 03:04:40.296    04 May 2022 03:18:53.237      852.94158946    Earth           Umbra       103           932.84664697
04 May 2022 03:18:53.237    04 May 2022 03:19:33.098      39.860407601    Earth           Penumbra    103           932.84664697
04 May 2022 04:37:49.149    04 May 2022 04:38:28.964      39.814389695    Earth           Penumbra    104           936.93508976
04 May 2022 04:38:28.964    04 May 2022 04:52:46.473      857.50874119    Earth           Umbra       104           936.93508976
04 May 2022 04:52:46.473    04 May 2022 04:53:26.084      39.611958875    Earth           Penumbra    104           936.93508976
04 May 2022 06:11:37.555    04 May 2022 06:12:17.104      39.549213729    Earth           Penumbra    105           941.68972570
04 May 2022 06:12:17.104    04 May 2022 06:26:39.915      862.81087875    Earth           Umbra       105           941.68972570
04 May 2022 06:26:39.915    04 May 2022 06:27:19.245      39.329633221    Earth           Penumbra    105           941.68972570
04 May 2022 07:45:25.455    04 May 2022 07:46:04.695      39.240532857    Earth           Penumbra    106           947.25077762
04 May 2022 07:46:04.695    04 May 2022 08:00:33.700      869.00455712    Earth           Umbra       106           947.25077762
04 May 2022 08:00:33.700    04 May 2022 08:01:12.706      39.005687647    Earth           Penumbra    106           947.25077762
04 May 2022 09:19:12.979    04 May 2022 09:19:51.878      38.899000688    Earth           Penumbra    107           953.45371496
04 May 2022 09:19:51.878    04 May 2022 09:34:27.783      875.90445494    Earth           Umbra       107           953.45371496
04 May 2022 09:34:27.783    04 May 2022 09:35:06.433      38.650259329    Earth           Penumbra    107           953.45371496
04 May 2022 10:53:00.297    04 May 2022 10:53:38.840      38.543417410    Earth           Penumbra    108           960.01117411
04 May 2022 10:53:38.840    04 May 2022 11:08:22.027      883.18679575    Earth           Umbra       108           960.01117411
04 May 2022 11:08:22.027    04 May 2022 11:09:00.308      38.280960952    Earth           Penumbra    108           960.01117411
04 May 2022 12:26:47.474    04 May 2022 12:27:25.657      38.182513299    Earth           Penumbra    109           966.79587692
04 May 2022 12:27:25.657    04 May 2022 12:42:16.364      890.70723311    Earth           Umbra       109           966.79587692
04 May 2022 12:42:16.364    04 May 2022 12:42:54.270      37.906130520    Earth           Penumbra    109           966.79587692
04 May 2022 14:00:34.455    04 May 2022 14:01:12.266      37.811045791    Earth           Penumbra    110           973.89695960
04 May 2022 14:01:12.266    04 May 2022 14:16:10.831      898.56449347    Earth           Umbra       110           973.89695960
04 May 2022 14:16:10.831    04 May 2022 14:16:48.352      37.521420338    Earth           Penumbra    110           973.89695960
04 May 2022 15:34:21.168    04 May 2022 15:34:58.589      37.421336956    Earth           Penumbra    111           981.43794917
04 May 2022 15:34:58.589    04 May 2022 15:50:05.486      906.89665696    Earth           Umbra       111           981.43794917
04 May 2022 15:50:05.486    04 May 2022 15:50:42.606      37.119955255    Earth           Penumbra    111           981.43794917
04 May 2022 17:08:07.593    04 May 2022 17:08:44.607      37.013394025    Earth           Penumbra    112           989.42900263
04 May 2022 17:08:44.607    04 May 2022 17:24:00.321      915.71478046    Earth           Umbra       112           989.42900263
04 May 2022 17:24:00.321    04 May 2022 17:24:37.022      36.700828141    Earth           Penumbra    112           989.42900263
04 May 2022 18:41:53.725    04 May 2022 18:42:30.317      36.591845693    Earth           Penumbra    113           997.82835703
04 May 2022 18:42:30.317    04 May 2022 18:57:55.286      924.96954286    Earth           Umbra       113           997.82835703
04 May 2022 18:57:55.286    04 May 2022 18:58:31.553      36.266968469    Earth           Penumbra    113           997.82835703
04 May 2022 20:15:39.530    04 May 2022 20:16:15.687      36.157249252    Earth           Penumbra    114           1006.6712572
04 May 2022 20:16:15.687    04 May 2022 20:31:50.382      934.69490156    Earth           Umbra       114           1006.6712572
04 May 2022 20:31:50.382    04 May 2022 20:32:26.201      35.819106409    Earth           Penumbra    114           1006.6712572
04 May 2022 21:49:25.002    04 May 2022 21:50:00.708      35.706178285    Earth           Penumbra    115           1016.0337266
04 May 2022 21:50:00.708    04 May 2022 22:05:45.680      944.97143693    Earth           Umbra       115           1016.0337266
04 May 2022 22:05:45.680    04 May 2022 22:06:21.036      35.356111347    Earth           Penumbra    115           1016.0337266
04 May 2022 23:23:10.218    04 May 2022 23:23:45.459      35.240366275    Earth           Penumbra    116           1025.8595163
04 May 2022 23:23:45.459    04 May 2022 23:39:41.197      955.73791475    Earth           Umbra       116           1025.8595163
04 May 2022 23:39:41.197    04 May 2022 23:40:16.078      34.881235252    Earth           Penumbra    116           1025.8595163
05 May 2022 00:56:55.282    05 May 2022 00:57:30.053      34.770802211    Earth           Penumbra    117           1035.9145384
05 May 2022 00:57:30.053    05 May 2022 01:13:36.792      966.73938017    Earth           Umbra       117           1035.9145384
05 May 2022 01:13:36.792    05 May 2022 01:14:11.197      34.404355986    Earth           Penumbra    117           1035.9145384
05 May 2022 02:30:40.214    05 May 2022 02:31:14.523      34.308922989    Earth           Penumbra    118           1045.9849229
05 May 2022 02:31:14.523    05 May 2022 02:47:32.264      977.74113446    Earth           Umbra       118           1045.9849229
05 May 2022 02:47:32.264    05 May 2022 02:48:06.199      33.934865473    Earth           Penumbra    118           1045.9849229
05 May 2022 04:04:24.922    05 May 2022 04:04:58.777      33.855273644    Earth           Penumbra    119           1056.0920548
05 May 2022 04:04:58.777    05 May 2022 04:21:27.541      988.76388698    Earth           Umbra       119           1056.0920548
05 May 2022 04:21:27.541    05 May 2022 04:22:01.014      33.472894155    Earth           Penumbra    119           1056.0920548
05 May 2022 05:38:09.286    05 May 2022 05:38:42.687      33.400417620    Earth           Penumbra    120           1066.4485202
05 May 2022 05:38:42.687    05 May 2022 05:55:22.725      1000.0378885    Earth           Umbra       120           1066.4485202
05 May 2022 05:55:22.725    05 May 2022 05:55:55.735      33.010214043    Earth           Penumbra    120           1066.4485202
05 May 2022 07:11:53.274    05 May 2022 07:12:26.211      32.937217306    Earth           Penumbra    121           1077.2003902
05 May 2022 07:12:26.211    05 May 2022 07:29:17.933      1011.7224123    Earth           Umbra       121           1077.2003902
05 May 2022 07:29:17.933    05 May 2022 07:29:50.474      32.540760620    Earth           Penumbra    121           1077.2003902
05 May 2022 08:45:36.982    05 May 2022 08:46:09.452      32.469451160    Earth           Penumbra    122           1088.2619526
05 May 2022 08:46:09.452    05 May 2022 09:03:13.176      1023.7242133    Earth           Umbra       122           1088.2619526
05 May 2022 09:03:13.176    05 May 2022 09:03:45.244      32.068288140    Earth           Penumbra    122           1088.2619526
05 May 2022 10:19:20.568    05 May 2022 10:19:52.575      32.007267675    Earth           Penumbra    123           1099.4184756
05 May 2022 10:19:52.575    05 May 2022 10:37:08.384      1035.8090370    Earth           Umbra       123           1099.4184756
05 May 2022 10:37:08.384    05 May 2022 10:37:39.986      31.602170924    Earth           Penumbra    123           1099.4184756
05 May 2022 11:53:04.113    05 May 2022 11:53:35.669      31.556559750    Earth           Penumbra    124           1110.5468640
05 May 2022 11:53:35.669    05 May 2022 12:11:03.512      1047.8427593    Earth           Umbra       124           1110.5468640
05 May 2022 12:11:03.512    05 May 2022 12:11:34.660      31.147544982    Earth           Penumbra    124           1110.5468640
05 May 2022 13:26:47.581    05 May 2022 13:27:18.696      31.114812498    Earth           Penumbra    125           1121.6961136
05 May 2022 13:27:18.696    05 May 2022 13:44:58.575      1059.8792853    Earth           Umbra       125           1121.6961136
05 May 2022 13:44:58.575    05 May 2022 13:45:29.277      30.702015816    Earth           Penumbra    125           1121.6961136
05 May 2022 15:00:30.896    05 May 2022 15:01:01.572      30.676445458    Earth           Penumbra    126           1132.9710861
05 May 2022 15:01:01.572    05 May 2022 15:18:53.606      1072.0338330    Earth           Umbra       126           1132.9710861
05 May 2022 15:18:53.606    05 May 2022 15:19:23.867      30.260807625    Earth           Penumbra    126           1132.9710861
05 May 2022 16:34:14.025    05 May 2022 16:34:44.265      30.239452631    Earth           Penumbra    127           1144.3973770
05 May 2022 16:34:44.265    05 May 2022 16:52:48.601      1084.3358329    Earth           Umbra       127           1144.3973770
05 May 2022 16:52:48.601    05 May 2022 16:53:18.423      29.822091374    Earth           Penumbra    127           1144.3973770
05 May 2022 18:07:56.964    05 May 2022 18:08:26.770      29.805682856    Earth           Penumbra    128           1155.9356354
05 May 2022 18:08:26.770    05 May 2022 18:26:43.513      1096.7434499    Earth           Umbra       128           1155.9356354
05 May 2022 18:26:43.513    05 May 2022 18:27:12.900      29.386502621    Earth           Penumbra    128           1155.9356354
05 May 2022 19:41:39.697    05 May 2022 19:42:09.073      29.376225569    Earth           Penumbra    129           1167.5905457
05 May 2022 19:42:09.073    05 May 2022 20:00:38.333      1109.2601735    Earth           Umbra       129           1167.5905457
05 May 2022 20:00:38.333    05 May 2022 20:01:07.287      28.954146663    Earth           Penumbra    129           1167.5905457
05 May 2022 21:15:22.225    05 May 2022 21:15:51.175      28.949535883    Earth           Penumbra    130           1179.4231626
05 May 2022 21:15:51.175    05 May 2022 21:34:33.124      1121.9491376    Earth           Umbra       130           1179.4231626
05 May 2022 21:34:33.124    05 May 2022 21:35:01.648      28.524489154    Earth           Penumbra    130           1179.4231626
05 May 2022 22:49:04.608    05 May 2022 22:49:33.133      28.525148914    Earth           Penumbra    131           1191.4245312
05 May 2022 22:49:33.133    05 May 2022 23:08:27.933      1134.8004361    Earth           Umbra       131           1191.4245312
05 May 2022 23:08:27.933    05 May 2022 23:08:56.032      28.098946111    Earth           Penumbra    131           1191.4245312
06 May 2022 00:22:46.926    06 May 2022 00:23:15.033      28.107186675    Earth           Penumbra    132           1203.4398304
06 May 2022 00:23:15.033    06 May 2022 00:42:22.684      1147.6508024    Earth           Umbra       132           1203.4398304
06 May 2022 00:42:22.684    06 May 2022 00:42:50.366      27.681841340    Earth           Penumbra    132           1203.4398304
06 May 2022 01:56:29.202    06 May 2022 01:56:56.904      27.701562806    Earth           Penumbra    133           1215.2893908
06 May 2022 01:56:56.904    06 May 2022 02:16:17.214      1160.3103149    Earth           Umbra       133           1215.2893908
06 May 2022 02:16:17.214    06 May 2022 02:16:44.492      27.277513104    Earth           Penumbra    133           1215.2893908
06 May 2022 03:30:11.370    06 May 2022 03:30:38.679      27.309624490    Earth           Penumbra    134           1226.9526439
06 May 2022 03:30:38.679    06 May 2022 03:50:11.436      1172.7567314    Earth           Umbra       134           1226.9526439
06 May 2022 03:50:11.436    06 May 2022 03:50:38.322      26.886287984    Earth           Penumbra    134           1226.9526439
06 May 2022 05:03:53.330    06 May 2022 05:04:20.257      26.926694310    Earth           Penumbra    135           1238.5762789
06 May 2022 05:04:20.257    06 May 2022 05:24:05.402      1185.1455086    Earth           Umbra       135           1238.5762789
06 May 2022 05:24:05.402    06 May 2022 05:24:31.906      26.504076028    Earth           Penumbra    135           1238.5762789
06 May 2022 06:37:35.040    06 May 2022 06:38:01.588      26.547600422    Earth           Penumbra    136           1250.2960850
06 May 2022 06:38:01.588    06 May 2022 06:57:59.210      1197.6218774    Earth           Umbra       136           1250.2960850
06 May 2022 06:57:59.210    06 May 2022 06:58:25.336      26.126607182    Earth           Penumbra    136           1250.2960850
06 May 2022 08:11:16.563    06 May 2022 08:11:42.736      26.172339998    Earth           Penumbra    137           1262.0932854
06 May 2022 08:11:42.736    06 May 2022 08:31:52.903      1210.1670281    Earth           Umbra       137           1262.0932854
06 May 2022 08:31:52.903    06 May 2022 08:32:18.657      25.753917277    Earth           Penumbra    137           1262.0932854
06 May 2022 09:44:58.025    06 May 2022 09:45:23.830      25.805241556    Earth           Penumbra    138           1273.8375391
06 May 2022 09:45:23.830    06 May 2022 10:05:46.473      1222.6424574    Earth           Umbra       138           1273.8375391
06 May 2022 10:05:46.473    06 May 2022 10:06:11.862      25.389840093    Earth           Penumbra    138           1273.8375391
06 May 2022 11:18:39.508    06 May 2022 11:19:04.957      25.449566811    Earth           Penumbra    139           1285.4351354
06 May 2022 11:19:04.957    06 May 2022 11:39:39.906      1234.9483968    Earth           Umbra       139           1285.4351354
06 May 2022 11:39:39.906    06 May 2022 11:40:04.943      25.037171831    Earth           Penumbra    139           1285.4351354
06 May 2022 12:52:20.994    06 May 2022 12:52:46.098      25.104286044    Earth           Penumbra    140           1296.9074156
06 May 2022 12:52:46.098    06 May 2022 13:13:33.206      1247.1083404    Earth           Umbra       140           1296.9074156
06 May 2022 13:13:33.206    06 May 2022 13:13:57.901      24.694789108    Earth           Penumbra    140           1296.9074156
06 May 2022 14:26:02.412    06 May 2022 14:26:27.178      24.765944865    Earth           Penumbra    141           1308.3337611
06 May 2022 14:26:27.178    06 May 2022 14:47:26.386      1259.2082129    Earth           Umbra       141           1308.3337611
06 May 2022 14:47:26.386    06 May 2022 14:47:50.746      24.359603401    Earth           Penumbra    141           1308.3337611
06 May 2022 15:59:43.717    06 May 2022 16:00:08.150      24.432406202    Earth           Penumbra    142           1319.7489643
06 May 2022 16:00:08.150    06 May 2022 16:21:19.436      1271.2866643    Earth           Umbra       142           1319.7489643
06 May 2022 16:21:19.436    06 May 2022 16:21:43.466      24.029893801    Earth           Penumbra    142           1319.7489643
06 May 2022 17:33:24.898    06 May 2022 17:33:49.002      24.104011094    Earth           Penumbra    143           1331.1253941
06 May 2022 17:33:49.002    06 May 2022 17:55:12.318      1283.3158063    Earth           Umbra       143           1331.1253941
06 May 2022 17:55:12.318    06 May 2022 17:55:36.023      23.705576698    Earth           Penumbra    143           1331.1253941
06 May 2022 19:07:05.947    06 May 2022 19:07:29.729      23.781574261    Earth           Penumbra    144           1342.4515444
06 May 2022 19:07:29.729    06 May 2022 19:29:05.012      1295.2834783    Earth           Umbra       144           1342.4515444
06 May 2022 19:29:05.012    06 May 2022 19:29:28.399      23.386491789    Earth           Penumbra    144           1342.4515444
06 May 2022 20:40:46.874    06 May 2022 20:41:10.338      23.464570160    Earth           Penumbra    145           1353.7749365
06 May 2022 20:41:10.338    06 May 2022 21:02:57.576      1307.2382311    Earth           Umbra       145           1353.7749365
06 May 2022 21:02:57.576    06 May 2022 21:03:20.648      23.072135216    Earth           Penumbra    145           1353.7749365
06 May 2022 22:14:27.725    06 May 2022 22:14:50.877      23.152234987    Earth           Penumbra    146           1365.1218257
06 May 2022 22:14:50.877    06 May 2022 22:36:50.083      1319.2065286    Earth           Umbra       146           1365.1218257
06 May 2022 22:36:50.083    06 May 2022 22:37:12.847      22.763062071    Earth           Penumbra    146           1365.1218257
06 May 2022 23:48:08.562    06 May 2022 23:48:31.408      22.845869721    Earth           Penumbra    147           1376.4062130
06 May 2022 23:48:31.408    07 May 2022 00:10:42.507      1331.0989719    Earth           Umbra       147           1376.4062130
07 May 2022 00:10:42.507    07 May 2022 00:11:04.968      22.461371392    Earth           Penumbra    147           1376.4062130
07 May 2022 01:21:49.400    07 May 2022 01:22:11.949      22.548459470    Earth           Penumbra    148           1387.4872247
07 May 2022 01:22:11.949    07 May 2022 01:44:34.718      1342.7695156    Earth           Umbra       148           1387.4872247
07 May 2022 01:44:34.718    07 May 2022 01:44:56.887      22.169249598    Earth           Penumbra    148           1387.4872247
07 May 2022 02:55:30.188    07 May 2022 02:55:52.449      22.261413338    Earth           Penumbra    149           1398.3208604
07 May 2022 02:55:52.449    07 May 2022 03:18:26.621      1354.1723641    Earth           Umbra       149           1398.3208604
07 May 2022 03:18:26.621    07 May 2022 03:18:48.509      21.887082991    Earth           Penumbra    149           1398.3208604
07 May 2022 04:29:10.847    07 May 2022 04:29:32.829      21.982685721    Earth           Penumbra    150           1409.0023633
07 May 2022 04:29:32.829    07 May 2022 04:52:18.236      1365.4066788    Earth           Umbra       150           1409.0023633
07 May 2022 04:52:18.236    07 May 2022 04:52:39.849      21.612998843    Earth           Penumbra    150           1409.0023633
07 May 2022 06:02:51.334    07 May 2022 06:03:13.043      21.708997304    Earth           Penumbra    151           1419.6465912
07 May 2022 06:03:13.043    07 May 2022 06:26:09.636      1376.5931509    Earth           Umbra       151           1419.6465912
07 May 2022 06:26:09.636    07 May 2022 06:26:30.981      21.344442980    Earth           Penumbra    151           1419.6465912
07 May 2022 07:36:31.688    07 May 2022 07:36:53.127      21.439379978    Earth           Penumbra    152           1430.2680685
07 May 2022 07:36:53.127    07 May 2022 08:00:00.875      1387.7482079    Earth           Umbra       152           1430.2680685
07 May 2022 08:00:00.875    07 May 2022 08:00:21.956      21.080480609    Earth           Penumbra    152           1430.2680685
07 May 2022 09:10:12.006    07 May 2022 09:10:33.182      21.175658063    Earth           Penumbra    153           1440.7932940
07 May 2022 09:10:33.182    07 May 2022 09:33:51.977      1398.7951855    Earth           Umbra       153           1440.7932940
07 May 2022 09:33:51.977    07 May 2022 09:34:12.800      20.822450425    Earth           Penumbra    153           1440.7932940
07 May 2022 10:43:52.370    07 May 2022 10:44:13.290      20.919758035    Earth           Penumbra    154           1451.1572987
07 May 2022 10:44:13.290    07 May 2022 11:07:42.955      1409.6655286    Earth           Umbra       154           1451.1572987
07 May 2022 11:07:42.955    07 May 2022 11:08:03.527      20.572012046    Earth           Penumbra    154           1451.1572987
07 May 2022 12:17:32.775    07 May 2022 12:17:53.446      20.671407378    Earth           Penumbra    155           1461.3654550
07 May 2022 12:17:53.446    07 May 2022 12:41:33.811      1420.3651277    Earth           Umbra       155           1461.3654550
