GMAT/Constellation/Eclipses/eclipse3.txt

Spacecraft: HSEYE3

Start Time (UTC)            Stop Time (UTC)               Duration (s)    Occ Body        Type        Event Number  Total Duration (s)
27 Apr 2022 12:27:41.895    27 Apr 2022 12:27:50.362      8.4673153935    Earth           Penumbra    1             2137.6593112
27 Apr 2022 12:27:50.362    27 Apr 2022 13:03:11.076      2120.7131596    Earth           Umbra       1             2137.6593112
27 Apr 2022 13:03:11.076    27 Apr 2022 13:03:19.554      8.4788362146    Earth           Penumbra    1             2137.6593112
27 Apr 2022 14:01:17.238    27 Apr 2022 14:36:38.746      2121.5083147    Earth           Umbra       2             2121.5083147
27 Apr 2022 15:34:35.655    27 Apr 2022 15:34:44.099      8.4445965593    Earth           Penumbra    3             2139.1780583
27 Apr 2022 15:34:44.099    27 Apr 2022 16:10:06.375      2122.2757837    Earth           Umbra       3             2139.1780583
27 Apr 2022 16:10:06.375    27 Apr 2022 16:10:14.833      8.4576779860    Earth           Penumbra    3             2139.1780583
27 Apr 2022 17:08:02.567    27 Apr 2022 17:08:11.000      8.4335940541    Earth           Penumbra    4             2139.9031065
27 Apr 2022 17:08:11.000    27 Apr 2022 17:43:34.022      2123.0218676    Earth           Umbra       4             2139.9031065
27 Apr 2022 17:43:34.022    27 Apr 2022 17:43:42.470      8.4476448479    Earth           Penumbra    4             2139.9031065
27 Apr 2022 18:41:37.962    27 Apr 2022 19:17:01.716      2123.7542726    Earth           Umbra       5             2132.1920587
27 Apr 2022 19:17:01.716    27 Apr 2022 19:17:10.154      8.4377861582    Earth           Penumbra    5             2132.1920587
27 Apr 2022 20:14:56.538    27 Apr 2022 20:15:04.951      8.4122126573    Earth           Penumbra    6             2132.8866558
27 Apr 2022 20:15:04.951    27 Apr 2022 20:50:29.425      2124.4744432    Earth           Umbra       6             2132.8866558
27 Apr 2022 21:48:23.521    27 Apr 2022 21:48:31.923      8.4019902977    Earth           Penumbra    7             2141.9972487
27 Apr 2022 21:48:31.923    27 Apr 2022 22:23:57.099      2125.1766384    Earth           Umbra       7             2141.9972487
27 Apr 2022 22:23:57.099    27 Apr 2022 22:24:05.518      8.4186200984    Earth           Penumbra    7             2141.9972487
27 Apr 2022 23:21:50.471    27 Apr 2022 23:21:58.864      8.3922856255    Earth           Penumbra    8             2142.6626243
27 Apr 2022 23:21:58.864    27 Apr 2022 23:57:24.724      2125.8606139    Earth           Umbra       8             2142.6626243
27 Apr 2022 23:57:24.724    27 Apr 2022 23:57:33.134      8.4097248036    Earth           Penumbra    8             2142.6626243
28 Apr 2022 00:55:17.394    28 Apr 2022 00:55:25.777      8.3830901538    Earth           Penumbra    9             2143.3206659
28 Apr 2022 00:55:25.777    28 Apr 2022 01:30:52.313      2126.5362068    Earth           Umbra       9             2143.3206659
28 Apr 2022 01:30:52.313    28 Apr 2022 01:31:00.715      8.4013688844    Earth           Penumbra    9             2143.3206659
28 Apr 2022 02:28:44.291    28 Apr 2022 02:28:52.665      8.3742347779    Earth           Penumbra    10            2143.9761026
28 Apr 2022 02:28:52.665    28 Apr 2022 03:04:19.874      2127.2084532    Earth           Umbra       10            2143.9761026
28 Apr 2022 03:04:19.874    28 Apr 2022 03:04:28.267      8.3934146678    Earth           Penumbra    10            2143.9761026
28 Apr 2022 04:02:11.183    28 Apr 2022 04:02:19.548      8.3656192292    Earth           Penumbra    11            2144.6199673
28 Apr 2022 04:02:19.548    28 Apr 2022 04:37:47.417      2127.8686223    Earth           Umbra       11            2144.6199673
28 Apr 2022 04:37:47.417    28 Apr 2022 04:37:55.803      8.3857257385    Earth           Penumbra    11            2144.6199673
28 Apr 2022 05:35:46.473    28 Apr 2022 06:11:14.980      2128.5073806    Earth           Umbra       12            2136.8856245
28 Apr 2022 06:11:14.980    28 Apr 2022 06:11:23.359      8.3782439469    Earth           Penumbra    12            2136.8856245
28 Apr 2022 07:09:05.118    28 Apr 2022 07:09:13.468      8.3493776154    Earth           Penumbra    13            2145.8463522
28 Apr 2022 07:09:13.468    28 Apr 2022 07:44:42.594      2129.1260002    Earth           Umbra       13            2145.8463522
28 Apr 2022 07:44:42.594    28 Apr 2022 07:44:50.964      8.3709743223    Earth           Penumbra    13            2145.8463522
28 Apr 2022 08:42:32.167    28 Apr 2022 08:42:40.509      8.3417044021    Earth           Penumbra    14            2146.4327489
28 Apr 2022 08:42:40.509    28 Apr 2022 09:18:10.236      2129.7271493    Earth           Umbra       14            2146.4327489
28 Apr 2022 09:18:10.236    28 Apr 2022 09:18:18.600      8.3638951764    Earth           Penumbra    14            2146.4327489
28 Apr 2022 10:16:07.546    28 Apr 2022 10:51:37.851      2130.3053026    Earth           Umbra       15            2138.6622013
28 Apr 2022 10:51:37.851    28 Apr 2022 10:51:46.208      8.3568986971    Earth           Penumbra    15            2138.6622013
28 Apr 2022 11:49:26.214    28 Apr 2022 11:49:34.540      8.3264871617    Earth           Penumbra    16            2147.5301991
28 Apr 2022 11:49:34.540    28 Apr 2022 12:25:05.394      2130.8538176    Earth           Umbra       16            2147.5301991
28 Apr 2022 12:25:05.394    28 Apr 2022 12:25:13.744      8.3498943597    Earth           Penumbra    16            2147.5301991
28 Apr 2022 13:22:53.167    28 Apr 2022 13:23:01.486      8.3189654513    Earth           Penumbra    17            2148.0351058
28 Apr 2022 13:23:01.486    28 Apr 2022 13:58:32.859      2131.3731459    Earth           Umbra       17            2148.0351058
28 Apr 2022 13:58:32.859    28 Apr 2022 13:58:41.202      8.3429943770    Earth           Penumbra    17            2148.0351058
28 Apr 2022 14:56:20.102    28 Apr 2022 14:56:28.413      8.3116395632    Earth           Penumbra    18            2148.5154800
28 Apr 2022 14:56:28.413    28 Apr 2022 15:32:00.281      2131.8674113    Earth           Umbra       18            2148.5154800
28 Apr 2022 15:32:00.281    28 Apr 2022 15:32:08.617      8.3364291466    Earth           Penumbra    18            2148.5154800
28 Apr 2022 16:29:47.073    28 Apr 2022 16:29:55.377      8.3045330714    Earth           Penumbra    19            2148.9754525
28 Apr 2022 16:29:55.377    28 Apr 2022 17:05:27.718      2132.3406721    Earth           Umbra       19            2148.9754525
28 Apr 2022 17:05:27.718    28 Apr 2022 17:05:36.048      8.3302473882    Earth           Penumbra    19            2148.9754525
28 Apr 2022 18:03:14.107    28 Apr 2022 18:03:22.404      8.2976114005    Earth           Penumbra    20            2149.4201956
28 Apr 2022 18:03:22.404    28 Apr 2022 18:38:55.202      2132.7983306    Earth           Umbra       20            2149.4201956
28 Apr 2022 18:38:55.202    28 Apr 2022 18:39:03.527      8.3242535940    Earth           Penumbra    20            2149.4201956
28 Apr 2022 19:36:41.176    28 Apr 2022 19:36:49.467      8.2908729790    Earth           Penumbra    21            2149.8533996
28 Apr 2022 19:36:49.467    28 Apr 2022 20:12:22.711      2133.2442008    Earth           Umbra       21            2149.8533996
28 Apr 2022 20:12:22.711    28 Apr 2022 20:12:31.029      8.3183258073    Earth           Penumbra    21            2149.8533996
28 Apr 2022 21:10:16.518    28 Apr 2022 21:45:50.195      2133.6765721    Earth           Umbra       22            2141.9891905
28 Apr 2022 21:45:50.195    28 Apr 2022 21:45:58.507      8.3126183599    Earth           Penumbra    22            2141.9891905
28 Apr 2022 22:43:35.262    28 Apr 2022 22:43:43.541      8.2784437691    Earth           Penumbra    23            2150.6804853
28 Apr 2022 22:43:43.541    28 Apr 2022 23:19:17.636      2134.0946629    Earth           Umbra       23            2150.6804853
28 Apr 2022 23:19:17.636    28 Apr 2022 23:19:25.943      8.3073786227    Earth           Penumbra    23            2150.6804853
29 Apr 2022 00:17:02.267    29 Apr 2022 00:17:10.540      8.2729506888    Earth           Penumbra    24            2151.0808151
29 Apr 2022 00:17:10.540    29 Apr 2022 00:52:45.046      2134.5051940    Earth           Umbra       24            2151.0808151
29 Apr 2022 00:52:45.046    29 Apr 2022 00:52:53.348      8.3026704029    Earth           Penumbra    24            2151.0808151
29 Apr 2022 01:50:37.518    29 Apr 2022 02:26:12.432      2134.9134085    Earth           Umbra       25            2143.2117746
29 Apr 2022 02:26:12.432    29 Apr 2022 02:26:20.730      8.2983660861    Earth           Penumbra    25            2143.2117746
29 Apr 2022 03:23:56.225    29 Apr 2022 03:24:04.488      8.2629090641    Earth           Penumbra    26            2151.8698123
29 Apr 2022 03:24:04.488    29 Apr 2022 03:59:39.801      2135.3125916    Earth           Umbra       26            2151.8698123
29 Apr 2022 03:59:39.801    29 Apr 2022 03:59:48.095      8.2943116548    Earth           Penumbra    26            2151.8698123
29 Apr 2022 04:57:23.237    29 Apr 2022 04:57:31.495      8.2582621370    Earth           Penumbra    27            2152.2411051
29 Apr 2022 04:57:31.495    29 Apr 2022 05:33:07.187      2135.6924059    Earth           Umbra       27            2152.2411051
29 Apr 2022 05:33:07.187    29 Apr 2022 05:33:15.478      8.2904370152    Earth           Penumbra    27            2152.2411051
29 Apr 2022 06:30:50.319    29 Apr 2022 06:30:58.573      8.2539474475    Earth           Penumbra    28            2152.5926415
29 Apr 2022 06:30:58.573    29 Apr 2022 07:06:34.625      2136.0519465    Earth           Umbra       28            2152.5926415
29 Apr 2022 07:06:34.625    29 Apr 2022 07:06:42.911      8.2867475110    Earth           Penumbra    28            2152.5926415
29 Apr 2022 08:04:17.456    29 Apr 2022 08:04:25.706      8.2498901873    Earth           Penumbra    29            2152.9277448
29 Apr 2022 08:04:25.706    29 Apr 2022 08:40:02.101      2136.3946184    Earth           Umbra       29            2152.9277448
29 Apr 2022 08:40:02.101    29 Apr 2022 08:40:10.384      8.2832362270    Earth           Penumbra    29            2152.9277448
29 Apr 2022 09:37:44.597    29 Apr 2022 09:37:52.843      8.2459027064    Earth           Penumbra    30            2144.9625562
29 Apr 2022 09:37:52.843    29 Apr 2022 10:13:29.560      2136.7166535    Earth           Umbra       30            2144.9625562
29 Apr 2022 11:11:11.700    29 Apr 2022 11:11:19.942      8.2418941660    Earth           Penumbra    31            2153.5294225
29 Apr 2022 11:11:19.942    29 Apr 2022 11:46:56.953      2137.0111679    Earth           Umbra       31            2153.5294225
29 Apr 2022 11:46:56.953    29 Apr 2022 11:47:05.229      8.2763604471    Earth           Penumbra    31            2153.5294225
29 Apr 2022 12:44:46.991    29 Apr 2022 13:20:24.270      2137.2782763    Earth           Umbra       32            2145.5512481
29 Apr 2022 13:20:24.270    29 Apr 2022 13:20:32.543      8.2729717484    Earth           Penumbra    32            2145.5512481
29 Apr 2022 14:18:05.785    29 Apr 2022 14:18:14.019      8.2341665751    Earth           Penumbra    33            2154.0268437
29 Apr 2022 14:18:14.019    29 Apr 2022 14:53:51.542      2137.5227967    Earth           Umbra       33            2154.0268437
29 Apr 2022 14:53:51.542    29 Apr 2022 14:53:59.812      8.2698803977    Earth           Penumbra    33            2154.0268437
29 Apr 2022 15:51:32.848    29 Apr 2022 15:51:41.078      8.2305939985    Earth           Penumbra    34            2145.9781503
29 Apr 2022 15:51:41.078    29 Apr 2022 16:27:18.826      2137.7475563    Earth           Umbra       34            2145.9781503
29 Apr 2022 17:24:59.976    29 Apr 2022 17:25:08.203      8.2271876978    Earth           Penumbra    35            2154.4470800
29 Apr 2022 17:25:08.203    29 Apr 2022 18:00:46.158      2137.9551768    Earth           Umbra       35            2154.4470800
29 Apr 2022 18:00:46.158    29 Apr 2022 18:00:54.423      8.2647154690    Earth           Penumbra    35            2154.4470800
29 Apr 2022 18:58:27.148    29 Apr 2022 18:58:35.372      8.2239388721    Earth           Penumbra    36            2154.6363232
29 Apr 2022 18:58:35.372    29 Apr 2022 19:34:13.522      2138.1501051    Earth           Umbra       36            2154.6363232
29 Apr 2022 19:34:13.522    29 Apr 2022 19:34:21.784      8.2622791640    Earth           Penumbra    36            2154.6363232
29 Apr 2022 20:31:54.314    29 Apr 2022 20:32:02.535      8.2209364744    Earth           Penumbra    37            2154.8153499
29 Apr 2022 20:32:02.535    29 Apr 2022 21:07:40.869      2138.3344405    Earth           Umbra       37            2154.8153499
29 Apr 2022 21:07:40.869    29 Apr 2022 21:07:49.129      8.2599729882    Earth           Penumbra    37            2154.8153499
29 Apr 2022 22:05:21.453    29 Apr 2022 22:05:29.672      8.2183338935    Earth           Penumbra    38            2146.7266415
29 Apr 2022 22:05:29.672    29 Apr 2022 22:41:08.180      2138.5083076    Earth           Umbra       38            2146.7266415
29 Apr 2022 23:38:56.789    30 Apr 2022 00:14:35.465      2138.6757906    Earth           Umbra       39            2146.9324793
30 Apr 2022 00:14:35.465    30 Apr 2022 00:14:43.722      8.2566886442    Earth           Penumbra    39            2146.9324793
30 Apr 2022 01:12:15.674    30 Apr 2022 01:12:23.889      8.2144545391    Earth           Penumbra    40            2155.3116747
30 Apr 2022 01:12:23.889    30 Apr 2022 01:48:02.730      2138.8414921    Earth           Umbra       40            2155.3116747
30 Apr 2022 01:48:02.730    30 Apr 2022 01:48:10.986      8.2557280781    Earth           Penumbra    40            2155.3116747
30 Apr 2022 02:45:42.767    30 Apr 2022 02:45:50.980      8.2129385672    Earth           Penumbra    41            2155.4686135
30 Apr 2022 02:45:50.980    30 Apr 2022 03:21:29.981      2139.0006685    Earth           Umbra       41            2155.4686135
30 Apr 2022 03:21:29.981    30 Apr 2022 03:21:38.236      8.2550063962    Earth           Penumbra    41            2155.4686135
30 Apr 2022 04:19:09.890    30 Apr 2022 04:19:18.102      8.2116410485    Earth           Penumbra    42            2155.6088366
30 Apr 2022 04:19:18.102    30 Apr 2022 04:54:57.244      2139.1427556    Earth           Umbra       42            2155.6088366
30 Apr 2022 04:54:57.244    30 Apr 2022 04:55:05.499      8.2544399891    Earth           Penumbra    42            2155.6088366
30 Apr 2022 05:52:37.084    30 Apr 2022 05:52:45.295      8.2106355345    Earth           Penumbra    43            2155.7291808
30 Apr 2022 05:52:45.295    30 Apr 2022 06:28:24.559      2139.2645136    Earth           Umbra       43            2155.7291808
30 Apr 2022 06:28:24.559    30 Apr 2022 06:28:32.813      8.2540316856    Earth           Penumbra    43            2155.7291808
30 Apr 2022 07:26:04.342    30 Apr 2022 07:26:12.551      8.2098839921    Earth           Penumbra    44            2155.8330568
30 Apr 2022 07:26:12.551    30 Apr 2022 08:01:51.921      2139.3693810    Earth           Umbra       44            2155.8330568
30 Apr 2022 08:01:51.921    30 Apr 2022 08:02:00.175      8.2537918584    Earth           Penumbra    44            2155.8330568
30 Apr 2022 08:59:31.612    30 Apr 2022 08:59:39.821      8.2092104014    Earth           Penumbra    45            2147.6647987
30 Apr 2022 08:59:39.821    30 Apr 2022 09:35:19.277      2139.4555883    Earth           Umbra       45            2147.6647987
30 Apr 2022 10:33:07.057    30 Apr 2022 11:08:46.574      2139.5164893    Earth           Umbra       46            2147.7699556
30 Apr 2022 11:08:46.574    30 Apr 2022 11:08:54.827      8.2534662215    Earth           Penumbra    46            2147.7699556
30 Apr 2022 12:06:26.036    30 Apr 2022 12:06:34.244      8.2078217296    Earth           Penumbra    47            2156.0126271
30 Apr 2022 12:06:34.244    30 Apr 2022 12:42:13.795      2139.5514985    Earth           Umbra       47            2156.0126271
30 Apr 2022 12:42:13.795    30 Apr 2022 12:42:22.049      8.2533068606    Earth           Penumbra    47            2156.0126271
30 Apr 2022 13:39:53.197    30 Apr 2022 13:40:01.405      8.2072949270    Earth           Penumbra    48            2156.0268190
30 Apr 2022 13:40:01.405    30 Apr 2022 14:15:40.971      2139.5661232    Earth           Umbra       48            2156.0268190
30 Apr 2022 14:15:40.971    30 Apr 2022 14:15:49.224      8.2534008427    Earth           Penumbra    48            2156.0268190
30 Apr 2022 15:13:20.385    30 Apr 2022 15:13:28.592      8.2069623750    Earth           Penumbra    49            2147.7699138
30 Apr 2022 15:13:28.592    30 Apr 2022 15:49:08.155      2139.5629514    Earth           Umbra       49            2147.7699138
30 Apr 2022 16:46:47.639    30 Apr 2022 16:46:55.846      8.2067854120    Earth           Penumbra    50            2156.0033442
30 Apr 2022 16:46:55.846    30 Apr 2022 17:22:35.388      2139.5418878    Earth           Umbra       50            2156.0033442
30 Apr 2022 17:22:35.388    30 Apr 2022 17:22:43.642      8.2546710153    Earth           Penumbra    50            2156.0033442
30 Apr 2022 18:20:14.945    30 Apr 2022 18:20:23.151      8.2067439216    Earth           Penumbra    51            2155.9686588
30 Apr 2022 18:20:23.151    30 Apr 2022 18:56:02.658      2139.5064512    Earth           Umbra       51            2155.9686588
30 Apr 2022 18:56:02.658    30 Apr 2022 18:56:10.913      8.2554637338    Earth           Penumbra    51            2155.9686588
30 Apr 2022 19:53:42.251    30 Apr 2022 19:53:50.458      8.2069051685    Earth           Penumbra    52            2155.9250031
30 Apr 2022 19:53:50.458    30 Apr 2022 20:29:29.920      2139.4617908    Earth           Umbra       52            2155.9250031
30 Apr 2022 20:29:29.920    30 Apr 2022 20:29:38.176      8.2563070580    Earth           Penumbra    52            2155.9250031
30 Apr 2022 21:27:17.741    30 Apr 2022 22:02:57.151      2139.4101265    Earth           Umbra       53            2147.6676028
30 Apr 2022 22:02:57.151    30 Apr 2022 22:03:05.409      8.2574763335    Earth           Penumbra    53            2147.6676028
30 Apr 2022 23:00:36.799    30 Apr 2022 23:00:45.008      8.2083790214    Earth           Penumbra    54            2155.8212673
30 Apr 2022 23:00:45.008    30 Apr 2022 23:36:24.361      2139.3537293    Earth           Umbra       54            2155.8212673
30 Apr 2022 23:36:24.361    30 Apr 2022 23:36:32.621      8.2591588958    Earth           Penumbra    54            2155.8212673
01 May 2022 00:34:04.052    01 May 2022 00:34:12.261      8.2097412902    Earth           Penumbra    55            2155.7668856
01 May 2022 00:34:12.261    01 May 2022 01:09:51.557      2139.2958618    Earth           Umbra       55            2155.7668856
01 May 2022 01:09:51.557    01 May 2022 01:09:59.818      8.2612824510    Earth           Penumbra    55            2155.7668856
01 May 2022 02:07:31.295    01 May 2022 02:07:39.506      8.2113528159    Earth           Penumbra    56            2147.4447574
01 May 2022 02:07:39.506    01 May 2022 02:43:18.739      2139.2334046    Earth           Umbra       56            2147.4447574
01 May 2022 03:41:06.776    01 May 2022 04:16:45.932      2139.1563362    Earth           Umbra       57            2147.4224796
01 May 2022 04:16:45.932    01 May 2022 04:16:54.198      8.2661434310    Earth           Penumbra    57            2147.4224796
01 May 2022 05:14:25.901    01 May 2022 05:14:34.116      8.2152032526    Earth           Penumbra    58            2155.5432135
01 May 2022 05:14:34.116    01 May 2022 05:50:13.175      2139.0592476    Earth           Umbra       58            2155.5432135
01 May 2022 05:50:13.175    01 May 2022 05:50:21.444      8.2687626709    Earth           Penumbra    58            2155.5432135
01 May 2022 06:47:53.310    01 May 2022 06:48:01.527      8.2174971700    Earth           Penumbra    59            2155.4339048
01 May 2022 06:48:01.527    01 May 2022 07:23:40.472      2138.9448642    Earth           Umbra       59            2155.4339048
01 May 2022 07:23:40.472    01 May 2022 07:23:48.743      8.2715434721    Earth           Penumbra    59            2155.4339048
01 May 2022 08:21:20.741    01 May 2022 08:21:28.961      8.2198872697    Earth           Penumbra    60            2155.3076680
01 May 2022 08:21:28.961    01 May 2022 08:57:07.774      2138.8133568    Earth           Umbra       60            2155.3076680
01 May 2022 08:57:07.774    01 May 2022 08:57:16.049      8.2744239131    Earth           Penumbra    60            2155.3076680
01 May 2022 09:54:56.366    01 May 2022 10:30:35.025      2138.6588858    Earth           Umbra       61            2146.9361638
01 May 2022 10:30:35.025    01 May 2022 10:30:43.302      8.2772779511    Earth           Penumbra    61            2146.9361638
01 May 2022 11:28:15.498    01 May 2022 11:28:23.722      8.2245684578    Earth           Penumbra    62            2154.9846833
01 May 2022 11:28:23.722    01 May 2022 12:04:02.202      2138.4800061    Earth           Umbra       62            2154.9846833
01 May 2022 12:04:02.202    01 May 2022 12:04:10.482      8.2801087294    Earth           Penumbra    62            2154.9846833
01 May 2022 13:01:42.821    01 May 2022 13:01:51.048      8.2270396524    Earth           Penumbra    63            2146.5096919
01 May 2022 13:01:51.048    01 May 2022 13:37:29.331      2138.2826522    Earth           Umbra       63            2146.5096919
01 May 2022 14:35:10.166    01 May 2022 14:35:18.396      8.2297028974    Earth           Penumbra    64            2154.5862876
01 May 2022 14:35:18.396    01 May 2022 15:10:56.466      2138.0699997    Earth           Umbra       64            2154.5862876
01 May 2022 15:10:56.466    01 May 2022 15:11:04.752      8.2865850069    Earth           Penumbra    64            2154.5862876
01 May 2022 16:08:37.577    01 May 2022 16:08:45.810      8.2325135591    Earth           Penumbra    65            2154.3626247
01 May 2022 16:08:45.810    01 May 2022 16:44:23.650      2137.8397697    Earth           Umbra       65            2154.3626247
01 May 2022 16:44:23.650    01 May 2022 16:44:31.940      8.2903414615    Earth           Penumbra    65            2154.3626247
01 May 2022 17:42:05.047    01 May 2022 17:42:13.283      8.2354354905    Earth           Penumbra    66            2154.1228720
01 May 2022 17:42:13.283    01 May 2022 18:17:50.876      2137.5933024    Earth           Umbra       66            2154.1228720
01 May 2022 18:17:50.876    01 May 2022 18:17:59.170      8.2941340632    Earth           Penumbra    66            2154.1228720
01 May 2022 19:15:32.526    01 May 2022 19:15:40.764      8.2385249552    Earth           Penumbra    67            2145.5761430
01 May 2022 19:15:40.764    01 May 2022 19:51:18.102      2137.3376180    Earth           Umbra       67            2145.5761430
01 May 2022 20:48:59.983    01 May 2022 20:49:08.225      8.2419174258    Earth           Penumbra    68            2153.6216476
01 May 2022 20:49:08.225    01 May 2022 21:24:45.303      2137.0778129    Earth           Umbra       68            2153.6216476
01 May 2022 21:24:45.303    01 May 2022 21:24:53.605      8.3019172889    Earth           Penumbra    68            2153.6216476
01 May 2022 22:22:27.425    01 May 2022 22:22:35.671      8.2457367447    Earth           Penumbra    69            2153.3676105
01 May 2022 22:22:35.671    01 May 2022 22:58:12.486      2136.8154535    Earth           Umbra       69            2153.3676105
01 May 2022 22:58:12.486    01 May 2022 22:58:20.793      8.3064202568    Earth           Penumbra    69            2153.3676105
01 May 2022 23:55:54.859    01 May 2022 23:56:03.109      8.2499712822    Earth           Penumbra    70            2144.8019971
01 May 2022 23:56:03.109    02 May 2022 00:31:39.661      2136.5520258    Earth           Umbra       70            2144.8019971
02 May 2022 01:29:22.285    02 May 2022 01:29:30.539      8.2544795936    Earth           Penumbra    71            2152.8565296
02 May 2022 01:29:30.539    02 May 2022 02:05:06.825      2136.2854222    Earth           Umbra       71            2152.8565296
02 May 2022 02:05:06.825    02 May 2022 02:05:15.141      8.3166278433    Earth           Penumbra    71            2152.8565296
02 May 2022 03:02:57.989    02 May 2022 03:38:33.996      2136.0067908    Earth           Umbra       72            2144.3287482
02 May 2022 03:38:33.996    02 May 2022 03:38:42.318      8.3219574764    Earth           Penumbra    72            2144.3287482
02 May 2022 04:36:17.243    02 May 2022 04:36:25.507      8.2640409353    Earth           Penumbra    73            2152.3004546
02 May 2022 04:36:25.507    02 May 2022 05:12:01.216      2135.7090385    Earth           Umbra       73            2152.3004546
02 May 2022 05:12:01.216    02 May 2022 05:12:09.544      8.3273751196    Earth           Penumbra    73            2152.3004546
02 May 2022 06:09:44.833    02 May 2022 06:09:53.102      8.2691470860    Earth           Penumbra    74            2143.6626764
02 May 2022 06:09:53.102    02 May 2022 06:45:28.496      2135.3935294    Earth           Umbra       74            2143.6626764
02 May 2022 07:43:12.456    02 May 2022 07:43:20.731      8.2743670209    Earth           Penumbra    75            2151.6749859
02 May 2022 07:43:20.731    02 May 2022 08:18:55.793      2135.0620064    Earth           Umbra       75            2151.6749859
02 May 2022 08:18:55.793    02 May 2022 08:19:04.131      8.3386124228    Earth           Penumbra    75            2151.6749859
02 May 2022 09:16:40.057    02 May 2022 09:16:48.336      8.2795366645    Earth           Penumbra    76            2151.3337844
02 May 2022 09:16:48.336    02 May 2022 09:52:23.046      2134.7099788    Earth           Umbra       76            2151.3337844
02 May 2022 09:52:23.046    02 May 2022 09:52:31.390      8.3442689502    Earth           Penumbra    76            2151.3337844
02 May 2022 10:50:07.608    02 May 2022 10:50:15.893      8.2846654463    Earth           Penumbra    77            2150.9697471
02 May 2022 10:50:15.893    02 May 2022 11:25:50.228      2134.3352184    Earth           Umbra       77            2150.9697471
02 May 2022 11:25:50.228    02 May 2022 11:25:58.578      8.3498632419    Earth           Penumbra    77            2150.9697471
02 May 2022 12:23:35.126    02 May 2022 12:23:43.416      8.2899017259    Earth           Penumbra    78            2150.5891809
02 May 2022 12:23:43.416    02 May 2022 12:59:17.359      2133.9436765    Earth           Umbra       78            2150.5891809
02 May 2022 12:59:17.359    02 May 2022 12:59:25.715      8.3556027501    Earth           Penumbra    78            2150.5891809
02 May 2022 13:57:02.659    02 May 2022 13:57:10.954      8.2953275414    Earth           Penumbra    79            2150.1967686
02 May 2022 13:57:10.954    02 May 2022 14:32:44.494      2133.5397018    Earth           Umbra       79            2150.1967686
02 May 2022 14:32:44.494    02 May 2022 14:32:52.856      8.3617392462    Earth           Penumbra    79            2150.1967686
02 May 2022 15:30:30.257    02 May 2022 15:30:38.558      8.3009004593    Earth           Penumbra    80            2149.7888175
02 May 2022 15:30:38.558    02 May 2022 16:06:11.677      2133.1196795    Earth           Umbra       80            2149.7888175
02 May 2022 16:06:11.677    02 May 2022 16:06:20.046      8.3682375262    Earth           Penumbra    80            2149.7888175
02 May 2022 17:03:57.920    02 May 2022 17:04:06.227      8.3065642160    Earth           Penumbra    81            2140.9885340
02 May 2022 17:04:06.227    02 May 2022 17:39:38.908      2132.6819697    Earth           Umbra       81            2140.9885340
02 May 2022 18:37:25.600    02 May 2022 18:37:33.913      8.3123577875    Earth           Penumbra    82            2148.9276342
02 May 2022 18:37:33.913    02 May 2022 19:13:06.147      2132.2339908    Earth           Umbra       82            2148.9276342
02 May 2022 19:13:06.147    02 May 2022 19:13:14.528      8.3812856348    Earth           Penumbra    82            2148.9276342
02 May 2022 20:10:53.262    02 May 2022 20:11:01.580      8.3184059593    Earth           Penumbra    83            2148.4903160
02 May 2022 20:11:01.580    02 May 2022 20:46:33.364      2131.7839982    Earth           Umbra       83            2148.4903160
02 May 2022 20:46:33.364    02 May 2022 20:46:41.752      8.3879118436    Earth           Penumbra    83            2148.4903160
02 May 2022 21:44:20.909    02 May 2022 21:44:29.234      8.3248526906    Earth           Penumbra    84            2148.0539682
02 May 2022 21:44:29.234    02 May 2022 22:20:00.568      2131.3341254    Earth           Umbra       84            2148.0539682
02 May 2022 22:20:00.568    02 May 2022 22:20:08.963      8.3949900465    Earth           Penumbra    84            2148.0539682
02 May 2022 23:17:56.885    02 May 2022 23:53:27.769      2130.8840207    Earth           Umbra       85            2139.2865894
02 May 2022 23:53:27.769    02 May 2022 23:53:36.172      8.4025686490    Earth           Penumbra    85            2139.2865894
03 May 2022 00:51:16.193    03 May 2022 00:51:24.531      8.3389044274    Earth           Penumbra    86            2147.1811210
03 May 2022 00:51:24.531    03 May 2022 01:26:54.963      2130.4317814    Earth           Umbra       86            2147.1811210
03 May 2022 01:26:54.963    03 May 2022 01:27:03.374      8.4104351699    Earth           Penumbra    86            2147.1811210
03 May 2022 02:24:43.847    03 May 2022 02:24:52.193      8.3462441457    Earth           Penumbra    87            2146.7347102
03 May 2022 02:24:52.193    03 May 2022 03:00:22.163      2129.9700908    Earth           Umbra       87            2146.7347102
03 May 2022 03:00:22.163    03 May 2022 03:00:30.581      8.4183752420    Earth           Penumbra    87            2146.7347102
03 May 2022 03:58:11.563    03 May 2022 03:58:19.917      8.3537309663    Earth           Penumbra    88            2137.8446476
03 May 2022 03:58:19.917    03 May 2022 04:33:49.408      2129.4909167    Earth           Umbra       88            2137.8446476
03 May 2022 05:31:47.724    03 May 2022 06:07:16.718      2128.9938347    Earth           Umbra       89            2137.4282758
03 May 2022 06:07:16.718    03 May 2022 06:07:25.152      8.4344411502    Earth           Penumbra    89            2137.4282758
03 May 2022 07:05:07.206    03 May 2022 07:05:15.575      8.3692276385    Earth           Penumbra    90            2145.2934351
03 May 2022 07:05:15.575    03 May 2022 07:40:44.056      2128.4815509    Earth           Umbra       90            2145.2934351
03 May 2022 07:40:44.056    03 May 2022 07:40:52.499      8.4426565678    Earth           Penumbra    90            2145.2934351
03 May 2022 08:38:35.032    03 May 2022 08:38:43.409      8.3769935765    Earth           Penumbra    91            2144.7791635
03 May 2022 08:38:43.409    03 May 2022 09:14:11.360      2127.9513043    Earth           Umbra       91            2144.7791635
03 May 2022 09:14:11.360    03 May 2022 09:14:19.811      8.4508656990    Earth           Penumbra    91            2144.7791635
03 May 2022 10:12:02.811    03 May 2022 10:12:11.195      8.3846812486    Earth           Penumbra    92            2135.7850616
03 May 2022 10:12:11.195    03 May 2022 10:47:38.596      2127.4003803    Earth           Umbra       92            2135.7850616
03 May 2022 11:45:30.551    03 May 2022 11:45:38.944      8.3924327279    Earth           Penumbra    93            2143.6939357
03 May 2022 11:45:38.944    03 May 2022 12:21:05.778      2126.8343287    Earth           Umbra       93            2143.6939357
03 May 2022 12:21:05.778    03 May 2022 12:21:14.245      8.4671742632    Earth           Penumbra    93            2143.6939357
03 May 2022 13:19:06.701    03 May 2022 13:54:32.960      2126.2589298    Earth           Umbra       94            2134.7346627
03 May 2022 13:54:32.960    03 May 2022 13:54:41.436      8.4757329198    Earth           Penumbra    94            2134.7346627
03 May 2022 14:52:26.113    03 May 2022 14:52:34.521      8.4084719187    Earth           Penumbra    95            2142.5634346
03 May 2022 14:52:34.521    03 May 2022 15:28:00.192      2125.6702662    Earth           Umbra       95            2142.5634346
03 May 2022 15:28:00.192    03 May 2022 15:28:08.676      8.4846964222    Earth           Penumbra    95            2142.5634346
03 May 2022 16:25:53.996    03 May 2022 16:26:02.412      8.4166408167    Earth           Penumbra    96            2141.9738563
03 May 2022 16:26:02.412    03 May 2022 17:01:27.476      2125.0634449    Earth           Umbra       96            2141.9738563
03 May 2022 17:01:27.476    03 May 2022 17:01:35.970      8.4937705658    Earth           Penumbra    96            2141.9738563
03 May 2022 17:59:21.904    03 May 2022 17:59:30.329      8.4248923813    Earth           Penumbra    97            2141.3723188
03 May 2022 17:59:30.329    03 May 2022 18:34:54.774      2124.4447052    Earth           Umbra       97            2141.3723188
03 May 2022 18:34:54.774    03 May 2022 18:35:03.277      8.5027211811    Earth           Penumbra    97            2141.3723188
03 May 2022 19:32:49.797    03 May 2022 19:32:58.230      8.4333539126    Earth           Penumbra    98            2140.7702110
03 May 2022 19:32:58.230    03 May 2022 20:08:22.055      2123.8251523    Earth           Umbra       98            2140.7702110
03 May 2022 20:08:22.055    03 May 2022 20:08:30.567      8.5117048002    Earth           Penumbra    98            2140.7702110
03 May 2022 21:06:17.676    03 May 2022 21:06:26.118      8.4421734558    Earth           Penumbra    99            2131.6509406
03 May 2022 21:06:26.118    03 May 2022 21:41:49.327      2123.2087672    Earth           Umbra       99            2131.6509406
03 May 2022 22:39:45.557    03 May 2022 22:39:54.008      8.4514223621    Earth           Penumbra    100           2139.5761359
03 May 2022 22:39:54.008    03 May 2022 23:15:16.602      2122.5937424    Earth           Umbra       100           2139.5761359
03 May 2022 23:15:16.602    03 May 2022 23:15:25.133      8.5309711285    Earth           Penumbra    100           2139.5761359
04 May 2022 00:13:13.435    04 May 2022 00:13:21.896      8.4610079066    Earth           Penumbra    101           2138.9797397
04 May 2022 00:13:21.896    04 May 2022 00:48:43.874      2121.9775383    Earth           Umbra       101           2138.9797397
04 May 2022 00:48:43.874    04 May 2022 00:48:52.415      8.5411934881    Earth           Penumbra    101           2138.9797397
04 May 2022 01:46:41.325    04 May 2022 01:46:49.796      8.4707565838    Earth           Penumbra    102           2138.3765875
04 May 2022 01:46:49.796    04 May 2022 02:22:11.150      2121.3543566    Earth           Umbra       102           2138.3765875
04 May 2022 02:22:11.150    04 May 2022 02:22:19.702      8.5514743114    Earth           Penumbra    102           2138.3765875
04 May 2022 03:20:17.753    04 May 2022 03:55:38.469      2120.7161060    Earth           Umbra       103           2120.7161060
04 May 2022 04:53:37.304    04 May 2022 04:53:45.795      8.4905952914    Earth           Penumbra    104           2137.1231433
04 May 2022 04:53:45.795    04 May 2022 05:29:05.856      2120.0605074    Earth           Umbra       104           2137.1231433
04 May 2022 05:29:05.856    04 May 2022 05:29:14.428      8.5720406729    Earth           Penumbra    104           2137.1231433
04 May 2022 06:27:05.391    04 May 2022 06:27:13.892      8.5007142392    Earth           Penumbra    105           2136.4736624
04 May 2022 06:27:13.892    04 May 2022 07:02:33.282      2119.3904654    Earth           Umbra       105           2136.4736624
04 May 2022 07:02:33.282    04 May 2022 07:02:41.864      8.5824827431    Earth           Penumbra    105           2136.4736624
04 May 2022 08:00:33.469    04 May 2022 08:00:41.979      8.5108026979    Earth           Penumbra    106           2135.8087988
04 May 2022 08:00:41.979    04 May 2022 08:36:00.684      2118.7050549    Earth           Umbra       106           2135.8087988
04 May 2022 08:36:00.684    04 May 2022 08:36:09.277      8.5929411580    Earth           Penumbra    106           2135.8087988
04 May 2022 09:34:01.499    04 May 2022 09:34:10.020      8.5207748576    Earth           Penumbra    107           2126.5223151
04 May 2022 09:34:10.020    04 May 2022 10:09:28.021      2118.0015402    Earth           Umbra       107           2126.5223151
04 May 2022 11:07:29.487    04 May 2022 11:07:38.018      8.5307580186    Earth           Penumbra    108           2134.4291160
04 May 2022 11:07:38.018    04 May 2022 11:42:55.303      2117.2847404    Earth           Umbra       108           2134.4291160
04 May 2022 11:42:55.303    04 May 2022 11:43:03.916      8.6136175320    Earth           Penumbra    108           2134.4291160
04 May 2022 12:40:57.478    04 May 2022 12:41:06.019      8.5409146850    Earth           Penumbra    109           2133.7270100
04 May 2022 12:41:06.019    04 May 2022 13:16:22.580      2116.5618277    Earth           Umbra       109           2133.7270100
04 May 2022 13:16:22.580    04 May 2022 13:16:31.205      8.6242676829    Earth           Penumbra    109           2133.7270100
04 May 2022 14:14:25.527    04 May 2022 14:14:34.078      8.5512401420    Earth           Penumbra    110           2133.0162266
04 May 2022 14:14:34.078    04 May 2022 14:49:49.907      2115.8296343    Earth           Umbra       110           2133.0162266
04 May 2022 14:49:49.907    04 May 2022 14:49:58.543      8.6353522260    Earth           Penumbra    110           2133.0162266
04 May 2022 15:47:53.650    04 May 2022 15:48:02.212      8.5616256343    Earth           Penumbra    111           2132.2884975
04 May 2022 15:48:02.212    04 May 2022 16:23:17.292      2115.0802685    Earth           Umbra       111           2132.2884975
04 May 2022 16:23:17.292    04 May 2022 16:23:25.939      8.6466033594    Earth           Penumbra    111           2132.2884975
04 May 2022 17:21:21.808    04 May 2022 17:21:30.380      8.5720482166    Earth           Penumbra    112           2131.5470647
04 May 2022 17:21:30.380    04 May 2022 17:56:44.698      2114.3173128    Earth           Umbra       112           2131.5470647
04 May 2022 17:56:44.698    04 May 2022 17:56:53.355      8.6577036185    Earth           Penumbra    112           2131.5470647
04 May 2022 18:54:49.954    04 May 2022 18:54:58.537      8.5826153867    Earth           Penumbra    113           2130.8051823
04 May 2022 18:54:58.537    04 May 2022 19:30:12.090      2113.5538454    Earth           Umbra       113           2130.8051823
04 May 2022 19:30:12.090    04 May 2022 19:30:20.759      8.6687215255    Earth           Penumbra    113           2130.8051823
04 May 2022 20:28:26.679    04 May 2022 21:03:39.476      2112.7967527    Earth           Umbra       114           2121.4767851
04 May 2022 21:03:39.476    04 May 2022 21:03:48.156      8.6800323799    Earth           Penumbra    114           2121.4767851
04 May 2022 22:01:46.222    04 May 2022 22:01:54.827      8.6047961027    Earth           Penumbra    115           2129.3402920
04 May 2022 22:01:54.827    04 May 2022 22:37:06.871      2112.0436252    Earth           Umbra       115           2129.3402920
04 May 2022 22:37:06.871    04 May 2022 22:37:15.562      8.6918706656    Earth           Penumbra    115           2129.3402920
04 May 2022 23:35:14.361    04 May 2022 23:35:22.978      8.6164574255    Earth           Penumbra    116           2128.6111227
04 May 2022 23:35:22.978    05 May 2022 00:10:34.268      2111.2905816    Earth           Umbra       116           2128.6111227
05 May 2022 00:10:34.268    05 May 2022 00:10:42.972      8.7040836224    Earth           Penumbra    116           2128.6111227
05 May 2022 01:08:42.508    05 May 2022 01:08:51.137      8.6282947683    Earth           Penumbra    117           2127.8775682
05 May 2022 01:08:51.137    05 May 2022 01:44:01.670      2110.5329216    Earth           Umbra       117           2127.8775682
05 May 2022 01:44:01.670    05 May 2022 01:44:10.386      8.7163518998    Earth           Penumbra    117           2127.8775682
05 May 2022 02:42:10.706    05 May 2022 02:42:19.346      8.6401789449    Earth           Penumbra    118           2118.4034988
05 May 2022 02:42:19.346    05 May 2022 03:17:29.109      2109.7633198    Earth           Umbra       118           2118.4034988
05 May 2022 04:15:47.641    05 May 2022 04:50:56.619      2108.9779703    Earth           Umbra       119           2117.7186381
05 May 2022 04:50:56.619    05 May 2022 04:51:05.360      8.7406678009    Earth           Penumbra    119           2117.7186381
05 May 2022 05:49:07.336    05 May 2022 05:49:16.000      8.6642106995    Earth           Penumbra    120           2125.5963699
05 May 2022 05:49:16.000    05 May 2022 06:24:24.179      2108.1792313    Earth           Umbra       120           2125.5963699
05 May 2022 06:24:24.179    05 May 2022 06:24:32.932      8.7529279059    Earth           Penumbra    120           2125.5963699
05 May 2022 07:22:35.682    05 May 2022 07:22:44.359      8.6762602092    Earth           Penumbra    121           2124.8093098
05 May 2022 07:22:44.359    05 May 2022 07:57:51.727      2107.3678217    Earth           Umbra       121           2124.8093098
05 May 2022 07:57:51.727    05 May 2022 07:58:00.492      8.7652279297    Earth           Penumbra    121           2124.8093098
05 May 2022 08:56:03.983    05 May 2022 08:56:12.671      8.6881651310    Earth           Penumbra    122           2115.2296256
05 May 2022 08:56:12.671    05 May 2022 09:31:19.212      2106.5414604    Earth           Umbra       122           2115.2296256
05 May 2022 10:29:32.236    05 May 2022 10:29:40.936      8.7000100175    Earth           Penumbra    123           2123.1935688
05 May 2022 10:29:40.936    05 May 2022 11:04:46.640      2105.7040857    Earth           Umbra       123           2123.1935688
05 May 2022 11:04:46.640    05 May 2022 11:04:55.429      8.7894731085    Earth           Penumbra    123           2123.1935688
05 May 2022 12:03:00.484    05 May 2022 12:03:09.196      8.7119979202    Earth           Penumbra    124           2122.3777656
05 May 2022 12:03:09.196    05 May 2022 12:38:14.060      2104.8639836    Earth           Umbra       124           2122.3777656
05 May 2022 12:38:14.060    05 May 2022 12:38:22.862      8.8017841335    Earth           Penumbra    124           2122.3777656
05 May 2022 13:36:37.509    05 May 2022 14:11:41.529      2104.0196356    Earth           Umbra       125           2112.8341736
05 May 2022 14:11:41.529    05 May 2022 14:11:50.344      8.8145380374    Earth           Penumbra    125           2112.8341736
05 May 2022 15:09:57.164    05 May 2022 15:10:05.900      8.7363873725    Earth           Penumbra    126           2111.8972929
05 May 2022 15:10:05.900    05 May 2022 15:45:09.061      2103.1609055    Earth           Umbra       126           2111.8972929
05 May 2022 16:43:25.584    05 May 2022 16:43:34.333      8.7485949858    Earth           Penumbra    127           2119.8764914
05 May 2022 16:43:34.333    05 May 2022 17:18:36.620      2102.2875576    Earth           Umbra       127           2119.8764914
05 May 2022 17:18:36.620    05 May 2022 17:18:45.461      8.8403387927    Earth           Penumbra    127           2119.8764914
05 May 2022 18:16:53.996    05 May 2022 18:17:02.757      8.7608736358    Earth           Penumbra    128           2119.0270753
05 May 2022 18:17:02.757    05 May 2022 18:52:04.170      2101.4132448    Earth           Umbra       128           2119.0270753
05 May 2022 18:52:04.170    05 May 2022 18:52:13.023      8.8529569097    Earth           Penumbra    128           2119.0270753
05 May 2022 19:50:22.393    05 May 2022 19:50:31.167      8.7734002853    Earth           Penumbra    129           2118.1875408
05 May 2022 19:50:31.167    05 May 2022 20:25:31.715      2100.5483967    Earth           Umbra       129           2118.1875408
05 May 2022 20:25:31.715    05 May 2022 20:25:40.581      8.8657438173    Earth           Penumbra    129           2118.1875408
05 May 2022 21:23:50.796    05 May 2022 21:23:59.583      8.7863220368    Earth           Penumbra    130           2117.3566021
05 May 2022 21:23:59.583    05 May 2022 21:58:59.274      2099.6912521    Earth           Umbra       130           2117.3566021
05 May 2022 21:58:59.274    05 May 2022 21:59:08.153      8.8790279813    Earth           Penumbra    130           2117.3566021
05 May 2022 22:57:19.207    05 May 2022 22:57:28.007      8.7996212882    Earth           Penumbra    131           2116.5285866
05 May 2022 22:57:28.007    05 May 2022 23:32:26.843      2098.8362301    Earth           Umbra       131           2116.5285866
05 May 2022 23:32:26.843    05 May 2022 23:32:35.736      8.8927352219    Earth           Penumbra    131           2116.5285866
06 May 2022 00:30:47.624    06 May 2022 00:30:56.437      8.8131141616    Earth           Penumbra    132           2115.6985764
06 May 2022 00:30:56.437    06 May 2022 01:05:54.416      2097.9789528    Earth           Umbra       132           2115.6985764
06 May 2022 01:05:54.416    06 May 2022 01:06:03.323      8.9065094129    Earth           Penumbra    132           2115.6985764
06 May 2022 02:04:16.083    06 May 2022 02:04:24.909      8.8266013772    Earth           Penumbra    133           2114.8601141
06 May 2022 02:04:24.909    06 May 2022 02:39:22.023      2097.1134105    Earth           Umbra       133           2114.8601141
06 May 2022 02:39:22.023    06 May 2022 02:39:30.943      8.9201022405    Earth           Penumbra    133           2114.8601141
06 May 2022 03:37:44.625    06 May 2022 03:37:53.465      8.8400807348    Earth           Penumbra    134           2114.0086093
06 May 2022 03:37:53.465    06 May 2022 04:12:49.700      2096.2349558    Earth           Umbra       134           2114.0086093
06 May 2022 04:12:49.700    06 May 2022 04:12:58.633      8.9335727971    Earth           Penumbra    134           2114.0086093
06 May 2022 05:11:13.239    06 May 2022 05:11:22.092      8.8536226423    Earth           Penumbra    135           2113.1456061
06 May 2022 05:11:22.092    06 May 2022 05:46:17.437      2095.3448788    Earth           Umbra       135           2113.1456061
06 May 2022 05:46:17.437    06 May 2022 05:46:26.384      8.9471046464    Earth           Penumbra    135           2113.1456061
06 May 2022 06:44:41.862    06 May 2022 06:44:50.729      8.8671535486    Earth           Penumbra    136           2112.2728786
06 May 2022 06:44:50.729    06 May 2022 07:19:45.174      2094.4450286    Earth           Umbra       136           2112.2728786
06 May 2022 07:19:45.174    06 May 2022 07:19:54.134      8.9606965310    Earth           Penumbra    136           2112.2728786
06 May 2022 08:18:10.439    06 May 2022 08:18:19.320      8.8805140927    Earth           Penumbra    137           2111.3886360
06 May 2022 08:18:19.320    06 May 2022 08:53:12.854      2093.5339703    Earth           Umbra       137           2111.3886360
06 May 2022 08:53:12.854    06 May 2022 08:53:21.828      8.9741516858    Earth           Penumbra    137           2111.3886360
06 May 2022 09:51:47.858    06 May 2022 10:26:40.473      2092.6147843    Earth           Umbra       138           2101.6022160
06 May 2022 10:26:40.473    06 May 2022 10:26:49.460      8.9874317637    Earth           Penumbra    138           2101.6022160
06 May 2022 11:25:07.476    06 May 2022 11:25:16.383      8.9070327580    Earth           Penumbra    139           2100.6034910
06 May 2022 11:25:16.383    06 May 2022 12:00:08.079      2091.6964582    Earth           Umbra       139           2100.6034910
06 May 2022 12:58:36.033    06 May 2022 12:58:44.954      8.9205180877    Earth           Penumbra    140           2108.7149358
06 May 2022 12:58:44.954    06 May 2022 13:33:35.734      2090.7797601    Earth           Umbra       140           2108.7149358
06 May 2022 13:33:35.734    06 May 2022 13:33:44.748      9.0146576520    Earth           Penumbra    140           2108.7149358
06 May 2022 14:32:04.669    06 May 2022 14:32:13.603      8.9340640814    Earth           Penumbra    141           2107.8162555
06 May 2022 14:32:13.603    06 May 2022 15:07:03.456      2089.8534277    Earth           Umbra       141           2107.8162555
06 May 2022 15:07:03.456    06 May 2022 15:07:12.485      9.0287637664    Earth           Penumbra    141           2107.8162555
06 May 2022 16:05:33.353    06 May 2022 16:05:42.301      8.9475421817    Earth           Penumbra    142           2106.9030051
06 May 2022 16:05:42.301    06 May 2022 16:40:31.213      2088.9127436    Earth           Umbra       142           2106.9030051
06 May 2022 16:40:31.213    06 May 2022 16:40:40.256      9.0427193209    Earth           Penumbra    142           2106.9030051
06 May 2022 17:39:02.033    06 May 2022 17:39:10.994      8.9610026800    Earth           Penumbra    143           2105.9875536
06 May 2022 17:39:10.994    06 May 2022 18:13:58.964      2087.9701941    Earth           Umbra       143           2105.9875536
06 May 2022 18:13:58.964    06 May 2022 18:14:08.020      9.0563567821    Earth           Penumbra    143           2105.9875536
06 May 2022 19:12:30.695    06 May 2022 19:12:39.670      8.9746263111    Earth           Penumbra    144           2105.0844058
06 May 2022 19:12:39.670    06 May 2022 19:47:26.710      2087.0397765    Earth           Umbra       144           2105.0844058
06 May 2022 19:47:26.710    06 May 2022 19:47:35.780      9.0700030443    Earth           Penumbra    144           2105.0844058
06 May 2022 20:45:59.363    06 May 2022 20:46:08.352      8.9885947527    Earth           Penumbra    145           2104.1945039
06 May 2022 20:46:08.352    06 May 2022 21:20:54.473      2086.1218311    Earth           Umbra       145           2104.1945039
06 May 2022 21:20:54.473    06 May 2022 21:21:03.558      9.0840780409    Earth           Penumbra    145           2104.1945039
06 May 2022 22:19:37.046    06 May 2022 22:54:22.255      2085.2092681    Earth           Umbra       146           2094.3078785
06 May 2022 22:54:22.255    06 May 2022 22:54:31.354      9.0986103751    Earth           Penumbra    146           2094.3078785
06 May 2022 23:52:56.729    06 May 2022 23:53:05.746      9.0175013174    Earth           Penumbra    147           2102.4278047
06 May 2022 23:53:05.746    07 May 2022 00:27:50.043      2084.2970641    Earth           Umbra       147           2102.4278047
07 May 2022 00:27:50.043    07 May 2022 00:27:59.157      9.1132392059    Earth           Penumbra    147           2102.4278047
07 May 2022 01:26:25.447    07 May 2022 01:26:34.479      9.0320094489    Earth           Penumbra    148           2101.5402287
07 May 2022 01:26:34.479    07 May 2022 02:01:17.859      2083.3806071    Earth           Umbra       148           2101.5402287
07 May 2022 02:01:17.859    07 May 2022 02:01:26.987      9.1276121791    Earth           Penumbra    148           2101.5402287
07 May 2022 02:59:54.242    07 May 2022 03:00:03.289      9.0464056819    Earth           Penumbra    149           2100.6434016
07 May 2022 03:00:03.289    07 May 2022 03:34:45.744      2082.4552692    Earth           Umbra       149           2100.6434016
07 May 2022 03:34:45.744    07 May 2022 03:34:54.886      9.1417267802    Earth           Penumbra    149           2100.6434016
07 May 2022 04:33:23.115    07 May 2022 04:33:32.176      9.0607861988    Earth           Penumbra    150           2099.7377280
07 May 2022 04:33:32.176    07 May 2022 05:08:13.697      2081.5211271    Earth           Umbra       150           2099.7377280
07 May 2022 05:08:13.697    07 May 2022 05:08:22.853      9.1558146640    Earth           Penumbra    150           2099.7377280
07 May 2022 06:06:52.007    07 May 2022 06:07:01.082      9.0751484851    Earth           Penumbra    151           2098.8256111
07 May 2022 06:07:01.082    07 May 2022 06:41:41.662      2080.5804997    Earth           Umbra       151           2098.8256111
07 May 2022 06:41:41.662    07 May 2022 06:41:50.832      9.1699628974    Earth           Penumbra    151           2098.8256111
07 May 2022 07:40:20.855    07 May 2022 07:40:29.944      9.0893243789    Earth           Penumbra    152           2097.9062396
07 May 2022 07:40:29.944    07 May 2022 08:15:09.577      2079.6329264    Earth           Umbra       152           2097.9062396
07 May 2022 08:15:09.577    07 May 2022 08:15:18.761      9.1839888599    Earth           Penumbra    152           2097.9062396
07 May 2022 09:13:49.644    07 May 2022 09:13:58.747      9.1032752185    Earth           Penumbra    153           2096.9818465
07 May 2022 09:13:58.747    07 May 2022 09:48:37.428      2078.6808098    Earth           Umbra       153           2096.9818465
07 May 2022 09:48:37.428    07 May 2022 09:48:46.625      9.1977614793    Earth           Penumbra    153           2096.9818465
07 May 2022 10:47:27.526    07 May 2022 11:22:05.259      2077.7333685    Earth           Umbra       154           2086.9448891
07 May 2022 11:22:05.259    07 May 2022 11:22:14.471      9.2115205829    Earth           Penumbra    154           2086.9448891
07 May 2022 12:20:47.211    07 May 2022 12:20:56.342      9.1313161422    Earth           Penumbra    155           2095.1509346
07 May 2022 12:20:56.342    07 May 2022 12:55:33.136      2076.7939842    Earth           Umbra       155           2095.1509346
07 May 2022 12:55:33.136    07 May 2022 12:55:42.362      9.2256342410    Earth           Penumbra    155           2095.1509346
07 May 2022 13:54:16.090    07 May 2022 13:54:25.235      9.1454989510    Earth           Penumbra    156           2094.2371461
07 May 2022 13:54:25.235    07 May 2022 14:29:01.087      2075.8515730    Earth           Umbra       156           2094.2371461
07 May 2022 14:29:01.087    07 May 2022 14:29:10.327      9.2400741647    Earth           Penumbra    156           2094.2371461
07 May 2022 15:27:45.023    07 May 2022 15:27:54.183      9.1595667182    Earth           Penumbra    157           2093.3108502
07 May 2022 15:27:54.183    07 May 2022 16:02:29.079      2074.8968904    Earth           Umbra       157           2093.3108502
07 May 2022 16:02:29.079    07 May 2022 16:02:38.334      9.2543930747    Earth           Penumbra    157           2093.3108502
07 May 2022 17:01:13.955    07 May 2022 17:01:23.128      9.1735112714    Earth           Penumbra    158           2092.3812262
07 May 2022 17:01:23.128    07 May 2022 17:35:57.068      2073.9394254    Earth           Umbra       158           2092.3812262
07 May 2022 17:35:57.068    07 May 2022 17:36:06.336      9.2682895367    Earth           Penumbra    158           2092.3812262
07 May 2022 18:34:42.866    07 May 2022 18:34:52.054      9.1875083162    Earth           Penumbra    159           2091.4655313
07 May 2022 18:34:52.054    07 May 2022 19:09:25.050      2072.9960134    Earth           Umbra       159           2091.4655313
07 May 2022 19:09:25.050    07 May 2022 19:09:34.332      9.2820096645    Earth           Penumbra    159           2091.4655313
07 May 2022 20:08:11.780    07 May 2022 20:08:20.982      9.2017822783    Earth           Penumbra    160           2090.5683079
07 May 2022 20:08:20.982    07 May 2022 20:42:53.053      2072.0704869    Earth           Umbra       160           2090.5683079
07 May 2022 20:42:53.053    07 May 2022 20:43:02.349      9.2960387701    Earth           Penumbra    160           2090.5683079
07 May 2022 21:41:40.710    07 May 2022 21:41:49.926      9.2164151953    Earth           Penumbra    161           2089.6820464
07 May 2022 21:41:49.926    07 May 2022 22:16:21.081      2071.1550966    Earth           Umbra       161           2089.6820464
07 May 2022 22:16:21.081    07 May 2022 22:16:30.392      9.3105346430    Earth           Penumbra    161           2089.6820464
07 May 2022 23:15:09.645    07 May 2022 23:15:18.876      9.2312580789    Earth           Penumbra    162           2088.7997080
07 May 2022 23:15:18.876    07 May 2022 23:49:49.119      2070.2432868    Earth           Umbra       162           2088.7997080
07 May 2022 23:49:49.119    07 May 2022 23:49:58.445      9.3251631595    Earth           Penumbra    162           2088.7997080
08 May 2022 00:48:47.849    08 May 2022 01:23:17.180      2069.3313481    Earth           Umbra       163           2078.6708349
08 May 2022 01:23:17.180    08 May 2022 01:23:26.520      9.3394867843    Earth           Penumbra    163           2078.6708349
08 May 2022 02:22:07.629    08 May 2022 02:22:16.889      9.2605556594    Earth           Penumbra    164           2087.0293881
08 May 2022 02:22:16.889    08 May 2022 02:56:45.305      2068.4154363    Earth           Umbra       164           2087.0293881
08 May 2022 02:56:45.305    08 May 2022 02:56:54.658      9.3533961335    Earth           Penumbra    164           2087.0293881
08 May 2022 03:55:36.734    08 May 2022 03:55:46.009      9.2749644653    Earth           Penumbra    165           2086.1368022
08 May 2022 03:55:46.009    08 May 2022 04:30:13.504      2067.4946982    Earth           Umbra       165           2086.1368022
08 May 2022 04:30:13.504    08 May 2022 04:30:22.871      9.3671395211    Earth           Penumbra    165           2086.1368022
08 May 2022 05:29:05.866    08 May 2022 05:29:15.156      9.2893220368    Earth           Penumbra    166           2085.2415584
08 May 2022 05:29:15.156    08 May 2022 06:03:41.727      2066.5713151    Earth           Umbra       166           2085.2415584
08 May 2022 06:03:41.727    08 May 2022 06:03:51.108      9.3809212558    Earth           Penumbra    166           2085.2415584
08 May 2022 07:02:34.958    08 May 2022 07:02:44.262      9.3034847290    Earth           Penumbra    167           2084.3437528
08 May 2022 07:02:44.262    08 May 2022 07:37:09.907      2065.6456641    Earth           Umbra       167           2084.3437528
08 May 2022 07:37:09.907    08 May 2022 07:37:19.302      9.3946039793    Earth           Penumbra    167           2084.3437528
08 May 2022 08:36:03.984    08 May 2022 08:36:13.301      9.3173400150    Earth           Penumbra    168           2074.0369885
08 May 2022 08:36:13.301    08 May 2022 09:10:38.021      2064.7196485    Earth           Umbra       168           2074.0369885
08 May 2022 10:09:32.973    08 May 2022 10:09:42.304      9.3310642289    Earth           Penumbra    169           2082.5545297
08 May 2022 10:09:42.304    08 May 2022 10:44:06.107      2063.8022840    Earth           Umbra       169           2082.5545297
08 May 2022 10:44:06.107    08 May 2022 10:44:15.528      9.4211814227    Earth           Penumbra    169           2082.5545297
08 May 2022 11:43:01.989    08 May 2022 11:43:11.334      9.3449059990    Earth           Penumbra    170           2081.6790915
08 May 2022 11:43:11.334    08 May 2022 12:17:34.234      2062.8995524    Earth           Umbra       170           2081.6790915
08 May 2022 12:17:34.234    08 May 2022 12:17:43.669      9.4346331200    Earth           Penumbra    170           2081.6790915
