GMAT/Constellation/Eclipses/eclipse6.txt

Spacecraft: HSEYE6

Start Time (UTC)            Stop Time (UTC)               Duration (s)    Occ Body        Type        Event Number  Total Duration (s)
27 Apr 2022 12:07:39.356    27 Apr 2022 12:07:57.700      18.344163476    Earth           Penumbra    1             1572.0975129
27 Apr 2022 12:07:57.700    27 Apr 2022 12:33:33.426      1535.7257918    Earth           Umbra       1             1572.0975129
27 Apr 2022 12:33:33.426    27 Apr 2022 12:33:51.453      18.027557619    Earth           Penumbra    1             1572.0975129
27 Apr 2022 13:41:16.843    27 Apr 2022 13:41:35.023      18.179869582    Earth           Penumbra    2             1579.6654030
27 Apr 2022 13:41:35.023    27 Apr 2022 14:07:18.642      1543.6188188    Earth           Umbra       2             1579.6654030
27 Apr 2022 14:07:18.642    27 Apr 2022 14:07:36.508      17.866714660    Earth           Penumbra    2             1579.6654030
27 Apr 2022 15:14:54.252    27 Apr 2022 15:15:12.268      18.016763823    Earth           Penumbra    3             1587.2126542
27 Apr 2022 15:15:12.268    27 Apr 2022 15:41:03.757      1551.4885653    Earth           Umbra       3             1587.2126542
27 Apr 2022 15:41:03.757    27 Apr 2022 15:41:21.464      17.707325122    Earth           Penumbra    3             1587.2126542
27 Apr 2022 16:48:31.561    27 Apr 2022 16:48:49.416      17.854805966    Earth           Penumbra    4             1594.7260828
27 Apr 2022 16:48:49.416    27 Apr 2022 17:14:48.738      1559.3220230    Earth           Umbra       4             1594.7260828
27 Apr 2022 17:14:48.738    27 Apr 2022 17:15:06.287      17.549253849    Earth           Penumbra    4             1594.7260828
27 Apr 2022 18:22:08.762    27 Apr 2022 18:22:26.457      17.694589449    Earth           Penumbra    5             1602.1898094
27 Apr 2022 18:22:26.457    27 Apr 2022 18:48:33.559      1567.1026496    Earth           Umbra       5             1602.1898094
27 Apr 2022 18:48:33.559    27 Apr 2022 18:48:50.952      17.392570304    Earth           Penumbra    5             1602.1898094
27 Apr 2022 19:55:45.868    27 Apr 2022 19:56:03.404      17.536167707    Earth           Penumbra    6             1609.6298100
27 Apr 2022 19:56:03.404    27 Apr 2022 20:22:18.260      1574.8565511    Earth           Umbra       6             1609.6298100
27 Apr 2022 20:22:18.260    27 Apr 2022 20:22:35.497      17.237091239    Earth           Penumbra    6             1609.6298100
27 Apr 2022 21:29:22.923    27 Apr 2022 21:29:40.302      17.379067058    Earth           Penumbra    7             1617.0832001
27 Apr 2022 21:29:40.302    27 Apr 2022 21:56:02.923      1582.6211558    Earth           Umbra       7             1617.0832001
27 Apr 2022 21:56:02.923    27 Apr 2022 21:56:20.006      17.082977272    Earth           Penumbra    7             1617.0832001
27 Apr 2022 23:02:59.974    27 Apr 2022 23:03:17.197      17.223465093    Earth           Penumbra    8             1624.5219623
27 Apr 2022 23:03:17.197    27 Apr 2022 23:29:47.565      1590.3673604    Earth           Umbra       8             1624.5219623
27 Apr 2022 23:29:47.565    27 Apr 2022 23:30:04.496      16.931136791    Earth           Penumbra    8             1624.5219623
28 Apr 2022 00:36:37.024    28 Apr 2022 00:36:54.094      17.070698936    Earth           Penumbra    9             1631.8563337
28 Apr 2022 00:36:54.094    28 Apr 2022 01:03:32.097      1598.0029548    Earth           Umbra       9             1631.8563337
28 Apr 2022 01:03:32.097    28 Apr 2022 01:03:48.880      16.782679979    Earth           Penumbra    9             1631.8563337
28 Apr 2022 02:10:14.025    28 Apr 2022 02:10:30.947      16.921986896    Earth           Penumbra    10            1639.0341809
28 Apr 2022 02:10:30.947    28 Apr 2022 02:37:16.421      1605.4741244    Earth           Umbra       10            1639.0341809
28 Apr 2022 02:37:16.421    28 Apr 2022 02:37:33.059      16.638069518    Earth           Penumbra    10            1639.0341809
28 Apr 2022 03:43:50.921    28 Apr 2022 03:44:07.698      16.776958702    Earth           Penumbra    11            1646.0991323
28 Apr 2022 03:44:07.698    28 Apr 2022 04:11:00.523      1612.8253177    Earth           Umbra       11            1646.0991323
28 Apr 2022 04:11:00.523    28 Apr 2022 04:11:17.020      16.496855929    Earth           Penumbra    11            1646.0991323
28 Apr 2022 05:17:27.681    28 Apr 2022 05:17:44.315      16.634043062    Earth           Penumbra    12            1653.1288392
28 Apr 2022 05:17:44.315    28 Apr 2022 05:44:44.452      1620.1367807    Earth           Umbra       12            1653.1288392
28 Apr 2022 05:44:44.452    28 Apr 2022 05:45:00.810      16.358015465    Earth           Penumbra    12            1653.1288392
28 Apr 2022 06:51:04.324    28 Apr 2022 06:51:20.816      16.492306755    Earth           Penumbra    13            1660.1477089
28 Apr 2022 06:51:20.816    28 Apr 2022 07:18:28.251      1627.4346008    Earth           Umbra       13            1660.1477089
28 Apr 2022 07:18:28.251    28 Apr 2022 07:18:44.472      16.220801300    Earth           Penumbra    13            1660.1477089
28 Apr 2022 08:24:40.919    28 Apr 2022 08:24:57.272      16.352377797    Earth           Penumbra    14            1667.1215867
28 Apr 2022 08:24:57.272    28 Apr 2022 08:52:11.956      1634.6837921    Earth           Umbra       14            1667.1215867
28 Apr 2022 08:52:11.956    28 Apr 2022 08:52:28.041      16.085416800    Earth           Penumbra    14            1667.1215867
28 Apr 2022 09:58:17.538    28 Apr 2022 09:58:33.753      16.215432377    Earth           Penumbra    15            1674.0121340
28 Apr 2022 09:58:33.753    28 Apr 2022 10:25:55.597      1641.8439970    Earth           Umbra       15            1674.0121340
28 Apr 2022 10:25:55.597    28 Apr 2022 10:26:11.550      15.952704661    Earth           Penumbra    15            1674.0121340
28 Apr 2022 11:31:54.194    28 Apr 2022 11:32:10.276      16.081717552    Earth           Penumbra    16            1680.8140249
28 Apr 2022 11:32:10.276    28 Apr 2022 11:59:39.185      1648.9093269    Earth           Umbra       16            1680.8140249
28 Apr 2022 11:59:39.185    28 Apr 2022 11:59:55.008      15.822980460    Earth           Penumbra    16            1680.8140249
28 Apr 2022 13:05:30.847    28 Apr 2022 13:05:46.797      15.950344736    Earth           Penumbra    17            1687.5499293
28 Apr 2022 13:05:46.797    28 Apr 2022 13:33:22.701      1655.9040451    Earth           Umbra       17            1687.5499293
28 Apr 2022 13:33:22.701    28 Apr 2022 13:33:38.397      15.695539489    Earth           Penumbra    17            1687.5499293
28 Apr 2022 14:39:07.447    28 Apr 2022 14:39:23.267      15.820292698    Earth           Penumbra    18            1694.2398432
28 Apr 2022 14:39:23.267    28 Apr 2022 15:07:06.117      1662.8500491    Earth           Umbra       18            1694.2398432
28 Apr 2022 15:07:06.117    28 Apr 2022 15:07:21.686      15.569501335    Earth           Penumbra    18            1694.2398432
28 Apr 2022 16:12:43.966    28 Apr 2022 16:12:59.658      15.691323497    Earth           Penumbra    19            1700.8762278
28 Apr 2022 16:12:59.658    28 Apr 2022 16:40:49.398      1669.7402643    Earth           Umbra       19            1700.8762278
28 Apr 2022 16:40:49.398    28 Apr 2022 16:41:04.843      15.444640000    Earth           Penumbra    19            1700.8762278
28 Apr 2022 17:46:20.399    28 Apr 2022 17:46:35.963      15.563829092    Earth           Penumbra    20            1707.4408503
28 Apr 2022 17:46:35.963    28 Apr 2022 18:14:32.519      1676.5559256    Earth           Umbra       20            1707.4408503
28 Apr 2022 18:14:32.519    28 Apr 2022 18:14:47.840      15.321095672    Earth           Penumbra    20            1707.4408503
28 Apr 2022 19:19:56.759    28 Apr 2022 19:20:12.197      15.438041766    Earth           Penumbra    21            1713.9473809
28 Apr 2022 19:20:12.197    28 Apr 2022 19:48:15.507      1683.3105255    Earth           Umbra       21            1713.9473809
28 Apr 2022 19:48:15.507    28 Apr 2022 19:48:30.706      15.198813658    Earth           Penumbra    21            1713.9473809
28 Apr 2022 20:53:33.089    28 Apr 2022 20:53:48.402      15.313699062    Earth           Penumbra    22            1720.4349278
28 Apr 2022 20:53:48.402    28 Apr 2022 21:21:58.446      1690.0434436    Earth           Umbra       22            1720.4349278
28 Apr 2022 21:21:58.446    28 Apr 2022 21:22:13.523      15.077785158    Earth           Penumbra    22            1720.4349278
28 Apr 2022 22:27:09.431    28 Apr 2022 22:27:24.622      15.190721140    Earth           Penumbra    23            1726.9018718
28 Apr 2022 22:27:24.622    28 Apr 2022 22:55:41.374      1696.7526385    Earth           Umbra       23            1726.9018718
28 Apr 2022 22:55:41.374    28 Apr 2022 22:55:56.333      14.958512143    Earth           Penumbra    23            1726.9018718
29 Apr 2022 00:00:45.787    29 Apr 2022 00:01:00.857      15.069826541    Earth           Penumbra    24            1733.2827902
29 Apr 2022 00:01:00.857    29 Apr 2022 00:29:24.228      1703.3712008    Earth           Umbra       24            1733.2827902
29 Apr 2022 00:29:24.228    29 Apr 2022 00:29:39.070      14.841762814    Earth           Penumbra    24            1733.2827902
29 Apr 2022 01:34:22.114    29 Apr 2022 01:34:37.066      14.951975516    Earth           Penumbra    25            1739.5219342
29 Apr 2022 01:34:37.066    29 Apr 2022 02:03:06.908      1709.8419796    Earth           Umbra       25            1739.5219342
29 Apr 2022 02:03:06.908    29 Apr 2022 02:03:21.636      14.727979107    Earth           Penumbra    25            1739.5219342
29 Apr 2022 03:07:58.365    29 Apr 2022 03:08:13.202      14.837209554    Earth           Penumbra    26            1745.6411674
29 Apr 2022 03:08:13.202    29 Apr 2022 03:36:49.389      1716.1869713    Earth           Umbra       26            1745.6411674
29 Apr 2022 03:36:49.389    29 Apr 2022 03:37:04.006      14.616986574    Earth           Penumbra    26            1745.6411674
29 Apr 2022 04:41:34.508    29 Apr 2022 04:41:49.233      14.724529115    Earth           Penumbra    27            1751.7046815
29 Apr 2022 04:41:49.233    29 Apr 2022 05:10:31.705      1722.4719475    Earth           Umbra       27            1751.7046815
29 Apr 2022 05:10:31.705    29 Apr 2022 05:10:46.213      14.508204977    Earth           Penumbra    27            1751.7046815
29 Apr 2022 06:15:10.556    29 Apr 2022 06:15:25.169      14.613071072    Earth           Penumbra    28            1757.7410502
29 Apr 2022 06:15:25.169    29 Apr 2022 06:44:13.896      1728.7269660    Earth           Umbra       28            1757.7410502
29 Apr 2022 06:44:13.896    29 Apr 2022 06:44:28.297      14.401013218    Earth           Penumbra    28            1757.7410502
29 Apr 2022 07:48:46.562    29 Apr 2022 07:49:01.065      14.503033762    Earth           Penumbra    29            1763.7294196
29 Apr 2022 07:49:01.065    29 Apr 2022 08:17:55.996      1734.9311166    Earth           Umbra       29            1763.7294196
29 Apr 2022 08:17:55.996    29 Apr 2022 08:18:10.291      14.295269223    Earth           Penumbra    29            1763.7294196
29 Apr 2022 09:22:22.594    29 Apr 2022 09:22:36.989      14.395200158    Earth           Penumbra    30            1769.6424401
29 Apr 2022 09:22:36.989    29 Apr 2022 09:51:38.045      1741.0558570    Earth           Umbra       30            1769.6424401
29 Apr 2022 09:51:38.045    29 Apr 2022 09:51:52.236      14.191382867    Earth           Penumbra    30            1769.6424401
29 Apr 2022 10:55:58.677    29 Apr 2022 10:56:12.967      14.289869496    Earth           Penumbra    31            1775.4752574
29 Apr 2022 10:56:12.967    29 Apr 2022 11:25:20.062      1747.0956908    Earth           Umbra       31            1775.4752574
29 Apr 2022 11:25:20.062    29 Apr 2022 11:25:34.152      14.089697076    Earth           Penumbra    31            1775.4752574
29 Apr 2022 12:29:34.776    29 Apr 2022 12:29:48.963      14.186493284    Earth           Penumbra    32            1781.2414037
29 Apr 2022 12:29:48.963    29 Apr 2022 12:59:02.028      1753.0650365    Earth           Umbra       32            1781.2414037
29 Apr 2022 12:59:02.028    29 Apr 2022 12:59:16.017      13.989873952    Earth           Penumbra    32            1781.2414037
29 Apr 2022 14:03:10.841    29 Apr 2022 14:03:24.925      14.084274718    Earth           Penumbra    33            1786.9545208
29 Apr 2022 14:03:24.925    29 Apr 2022 14:32:43.904      1758.9790207    Earth           Umbra       33            1786.9545208
29 Apr 2022 14:32:43.904    29 Apr 2022 14:32:57.795      13.891225448    Earth           Penumbra    33            1786.9545208
29 Apr 2022 15:36:46.840    29 Apr 2022 15:37:00.823      13.982910162    Earth           Penumbra    34            1792.6102882
29 Apr 2022 15:37:00.823    29 Apr 2022 16:06:25.657      1764.8339219    Earth           Umbra       34            1792.6102882
29 Apr 2022 16:06:25.657    29 Apr 2022 16:06:39.450      13.793456100    Earth           Penumbra    34            1792.6102882
29 Apr 2022 17:10:22.763    29 Apr 2022 17:10:36.646      13.882641331    Earth           Penumbra    35            1798.1917738
29 Apr 2022 17:10:36.646    29 Apr 2022 17:40:07.258      1770.6124078    Earth           Umbra       35            1798.1917738
29 Apr 2022 17:40:07.258    29 Apr 2022 17:40:20.955      13.696724642    Earth           Penumbra    35            1798.1917738
29 Apr 2022 18:43:58.627    29 Apr 2022 18:44:12.411      13.783744513    Earth           Penumbra    36            1803.7035801
29 Apr 2022 18:44:12.411    29 Apr 2022 19:13:48.730      1776.3187375    Earth           Umbra       36            1803.7035801
29 Apr 2022 19:13:48.730    29 Apr 2022 19:14:02.331      13.601098023    Earth           Penumbra    36            1803.7035801
29 Apr 2022 20:17:34.474    29 Apr 2022 20:17:48.160      13.686124154    Earth           Penumbra    37            1809.1806343
29 Apr 2022 20:17:48.160    29 Apr 2022 20:47:30.148      1781.9879936    Earth           Umbra       37            1809.1806343
29 Apr 2022 20:47:30.148    29 Apr 2022 20:47:43.655      13.506516523    Earth           Penumbra    37            1809.1806343
29 Apr 2022 21:51:10.345    29 Apr 2022 21:51:23.934      13.589628437    Earth           Penumbra    38            1814.6374466
29 Apr 2022 21:51:23.934    29 Apr 2022 22:21:11.569      1787.6346095    Earth           Umbra       38            1814.6374466
29 Apr 2022 22:21:11.569    29 Apr 2022 22:21:24.982      13.413208653    Earth           Penumbra    38            1814.6374466
29 Apr 2022 23:24:46.238    29 Apr 2022 23:24:59.733      13.494615059    Earth           Penumbra    39            1820.0304013
29 Apr 2022 23:24:59.733    29 Apr 2022 23:54:52.947      1793.2140810    Earth           Umbra       39            1820.0304013
29 Apr 2022 23:54:52.947    29 Apr 2022 23:55:06.269      13.321705302    Earth           Penumbra    39            1820.0304013
30 Apr 2022 00:58:22.116    30 Apr 2022 00:58:35.518      13.401809474    Earth           Penumbra    40            1825.3058621
30 Apr 2022 00:58:35.518    30 Apr 2022 01:28:34.190      1798.6716489    Earth           Umbra       40            1825.3058621
30 Apr 2022 01:28:34.190    30 Apr 2022 01:28:47.422      13.232403772    Earth           Penumbra    40            1825.3058621
30 Apr 2022 02:31:57.935    30 Apr 2022 02:32:11.246      13.311450568    Earth           Penumbra    41            1830.4695201
30 Apr 2022 02:32:11.246    30 Apr 2022 03:02:15.259      1804.0127632    Earth           Umbra       41            1830.4695201
30 Apr 2022 03:02:15.259    30 Apr 2022 03:02:28.404      13.145306264    Earth           Penumbra    41            1830.4695201
30 Apr 2022 04:05:33.668    30 Apr 2022 04:05:46.891      13.222937356    Earth           Penumbra    42            1835.5730782
30 Apr 2022 04:05:46.891    30 Apr 2022 04:35:56.181      1809.2900587    Earth           Umbra       42            1835.5730782
30 Apr 2022 04:35:56.181    30 Apr 2022 04:36:09.241      13.060082111    Earth           Penumbra    42            1835.5730782
30 Apr 2022 05:39:09.320    30 Apr 2022 05:39:22.456      13.135538099    Earth           Penumbra    43            1840.6462631
30 Apr 2022 05:39:22.456    30 Apr 2022 06:09:36.990      1814.5344466    Earth           Umbra       43            1840.6462631
30 Apr 2022 06:09:36.990    30 Apr 2022 06:09:49.966      12.976278376    Earth           Penumbra    43            1840.6462631
30 Apr 2022 07:12:44.933    30 Apr 2022 07:12:57.983      13.049219793    Earth           Penumbra    44            1845.6758740
30 Apr 2022 07:12:57.983    30 Apr 2022 07:43:17.716      1819.7330191    Earth           Umbra       44            1845.6758740
30 Apr 2022 07:43:17.716    30 Apr 2022 07:43:30.609      12.893635116    Earth           Penumbra    44            1845.6758740
30 Apr 2022 08:46:20.572    30 Apr 2022 08:46:33.537      12.964503898    Earth           Penumbra    45            1850.6410244
30 Apr 2022 08:46:33.537    30 Apr 2022 09:16:58.401      1824.8642359    Earth           Umbra       45            1850.6410244
30 Apr 2022 09:16:58.401    30 Apr 2022 09:17:11.213      12.812284660    Earth           Penumbra    45            1850.6410244
30 Apr 2022 10:19:56.268    30 Apr 2022 10:20:09.149      12.881688389    Earth           Penumbra    46            1855.5383447
30 Apr 2022 10:20:09.149    30 Apr 2022 10:50:39.073      1829.9241558    Earth           Umbra       46            1855.5383447
30 Apr 2022 10:50:39.073    30 Apr 2022 10:50:51.806      12.732500467    Earth           Penumbra    46            1855.5383447
30 Apr 2022 11:53:31.994    30 Apr 2022 11:53:44.794      12.800436001    Earth           Penumbra    47            1860.3763116
30 Apr 2022 11:53:44.794    30 Apr 2022 12:24:19.716      1834.9217091    Earth           Umbra       47            1860.3763116
30 Apr 2022 12:24:19.716    30 Apr 2022 12:24:32.370      12.654166552    Earth           Penumbra    47            1860.3763116
30 Apr 2022 13:27:07.700    30 Apr 2022 13:27:20.420      12.720134750    Earth           Penumbra    48            1865.1627455
30 Apr 2022 13:27:20.420    30 Apr 2022 13:58:00.286      1839.8658267    Earth           Umbra       48            1865.1627455
30 Apr 2022 13:58:00.286    30 Apr 2022 13:58:12.863      12.576784089    Earth           Penumbra    48            1865.1627455
30 Apr 2022 15:00:43.350    30 Apr 2022 15:00:55.991      12.640471885    Earth           Penumbra    49            1869.8943559
30 Apr 2022 15:00:55.991    30 Apr 2022 15:31:40.745      1844.7538481    Earth           Umbra       49            1869.8943559
30 Apr 2022 15:31:40.745    30 Apr 2022 15:31:53.245      12.500035926    Earth           Penumbra    49            1869.8943559
30 Apr 2022 16:34:18.933    30 Apr 2022 16:34:31.495      12.561586965    Earth           Penumbra    50            1874.5569896
30 Apr 2022 16:34:31.495    30 Apr 2022 17:05:21.066      1849.5713586    Earth           Umbra       50            1874.5569896
30 Apr 2022 17:05:21.066    30 Apr 2022 17:05:33.490      12.424044020    Earth           Penumbra    50            1874.5569896
30 Apr 2022 18:07:54.463    30 Apr 2022 18:08:06.947      12.483742763    Earth           Penumbra    51            1879.1496935
30 Apr 2022 18:08:06.947    30 Apr 2022 18:39:01.264      1854.3169864    Earth           Umbra       51            1879.1496935
30 Apr 2022 18:39:01.264    30 Apr 2022 18:39:13.613      12.348964275    Earth           Penumbra    51            1879.1496935
30 Apr 2022 19:41:29.984    30 Apr 2022 19:41:42.391      12.406947452    Earth           Penumbra    52            1883.7006690
30 Apr 2022 19:41:42.391    30 Apr 2022 20:12:41.410      1859.0189578    Earth           Umbra       52            1883.7006690
30 Apr 2022 20:12:41.410    30 Apr 2022 20:12:53.685      12.274763687    Earth           Penumbra    52            1883.7006690
30 Apr 2022 21:15:05.536    30 Apr 2022 21:15:17.867      12.331060215    Earth           Penumbra    53            1888.2325868
30 Apr 2022 21:15:17.867    30 Apr 2022 21:46:21.567      1863.7000445    Earth           Umbra       53            1888.2325868
30 Apr 2022 21:46:21.567    30 Apr 2022 21:46:33.768      12.201482174    Earth           Penumbra    53            1888.2325868
30 Apr 2022 22:48:41.118    30 Apr 2022 22:48:53.374      12.256233499    Earth           Penumbra    54            1892.7198783
30 Apr 2022 22:48:53.374    30 Apr 2022 23:20:01.708      1868.3341774    Earth           Umbra       54            1892.7198783
30 Apr 2022 23:20:01.708    30 Apr 2022 23:20:13.837      12.129467377    Earth           Penumbra    54            1892.7198783
01 May 2022 00:22:16.692    01 May 2022 00:22:28.875      12.182991591    Earth           Penumbra    55            1897.1147741
01 May 2022 00:22:28.875    01 May 2022 00:53:41.748      1872.8727039    Earth           Umbra       55            1897.1147741
01 May 2022 00:53:41.748    01 May 2022 00:53:53.807      12.059078563    Earth           Penumbra    55            1897.1147741
01 May 2022 01:55:52.219    01 May 2022 01:56:04.331      12.111659185    Earth           Penumbra    56            1901.4116591
01 May 2022 01:56:04.331    01 May 2022 02:27:21.641      1877.3095814    Earth           Umbra       56            1901.4116591
01 May 2022 02:27:21.641    01 May 2022 02:27:33.631      11.990418518    Earth           Penumbra    56            1901.4116591
01 May 2022 03:29:27.677    01 May 2022 03:29:39.719      12.041904358    Earth           Penumbra    57            1905.6509183
01 May 2022 03:29:39.719    01 May 2022 04:01:01.405      1881.6857144    Earth           Umbra       57            1905.6509183
01 May 2022 04:01:01.405    01 May 2022 04:01:13.328      11.923299590    Earth           Penumbra    57            1905.6509183
01 May 2022 05:03:03.064    01 May 2022 05:03:15.037      11.973137129    Earth           Penumbra    58            1909.8620168
01 May 2022 05:03:15.037    01 May 2022 05:34:41.069      1886.0314641    Earth           Umbra       58            1909.8620168
01 May 2022 05:34:41.069    01 May 2022 05:34:52.926      11.857415631    Earth           Penumbra    58            1909.8620168
01 May 2022 06:36:38.414    01 May 2022 06:36:50.320      11.905197508    Earth           Penumbra    59            1914.0366211
01 May 2022 06:36:50.320    01 May 2022 07:08:20.658      1890.3389392    Earth           Umbra       59            1914.0366211
01 May 2022 07:08:20.658    01 May 2022 07:08:32.451      11.792484380    Earth           Penumbra    59            1914.0366211
01 May 2022 08:10:13.787    01 May 2022 08:10:25.625      11.838431249    Earth           Penumbra    60            1918.1572058
01 May 2022 08:10:25.625    01 May 2022 08:42:00.216      1894.5902850    Earth           Umbra       60            1918.1572058
01 May 2022 08:42:00.216    01 May 2022 08:42:11.944      11.728489492    Earth           Penumbra    60            1918.1572058
01 May 2022 09:43:49.218    01 May 2022 09:44:00.992      11.773109925    Earth           Penumbra    61            1922.2214772
01 May 2022 09:44:00.992    01 May 2022 10:15:39.774      1898.7827616    Earth           Umbra       61            1922.2214772
01 May 2022 10:15:39.774    01 May 2022 10:15:51.440      11.665605730    Earth           Penumbra    61            1922.2214772
01 May 2022 11:17:24.691    01 May 2022 11:17:36.400      11.709031113    Earth           Penumbra    62            1926.2356544
01 May 2022 11:17:36.400    01 May 2022 11:49:19.323      1902.9227971    Earth           Umbra       62            1926.2356544
01 May 2022 11:49:19.323    01 May 2022 11:49:30.927      11.603826180    Earth           Penumbra    62            1926.2356544
01 May 2022 12:51:00.156    01 May 2022 12:51:11.802      11.645722389    Earth           Penumbra    63            1930.2032482
01 May 2022 12:51:11.802    01 May 2022 13:22:58.816      1907.0147113    Earth           Umbra       63            1930.2032482
01 May 2022 13:22:58.816    01 May 2022 13:23:10.359      11.542814516    Earth           Penumbra    63            1930.2032482
01 May 2022 14:24:35.573    01 May 2022 14:24:47.156      11.582886090    Earth           Penumbra    64            1934.1205798
01 May 2022 14:24:47.156    01 May 2022 14:56:38.211      1911.0554316    Earth           Umbra       64            1934.1205798
01 May 2022 14:56:38.211    01 May 2022 14:56:49.694      11.482262076    Earth           Penumbra    64            1934.1205798
01 May 2022 15:58:10.927    01 May 2022 15:58:22.448      11.520592938    Earth           Penumbra    65            1937.9763936
01 May 2022 15:58:22.448    01 May 2022 16:30:17.481      1915.0335542    Earth           Umbra       65            1937.9763936
01 May 2022 16:30:17.481    01 May 2022 16:30:28.904      11.422246497    Earth           Penumbra    65            1937.9763936
01 May 2022 17:31:46.233    01 May 2022 17:31:57.692      11.459070188    Earth           Penumbra    66            1941.7670455
01 May 2022 17:31:57.692    01 May 2022 18:03:56.637      1918.9450032    Earth           Umbra       66            1941.7670455
01 May 2022 18:03:56.637    01 May 2022 18:04:08.000      11.362972087    Earth           Penumbra    66            1941.7670455
01 May 2022 19:05:21.533    01 May 2022 19:05:32.931      11.398388876    Earth           Penumbra    67            1945.5137364
01 May 2022 19:05:32.931    01 May 2022 19:37:35.742      1922.8109081    Earth           Umbra       67            1945.5137364
01 May 2022 19:37:35.742    01 May 2022 19:37:47.046      11.304439476    Earth           Penumbra    67            1945.5137364
01 May 2022 20:38:56.868    01 May 2022 20:39:08.207      11.338439933    Earth           Penumbra    68            1949.2417435
01 May 2022 20:39:08.207    01 May 2022 21:11:14.863      1926.6566992    Earth           Umbra       68            1949.2417435
01 May 2022 21:11:14.863    01 May 2022 21:11:26.110      11.246604344    Earth           Penumbra    68            1949.2417435
01 May 2022 22:12:32.240    01 May 2022 22:12:43.519      11.279268935    Earth           Penumbra    69            1952.9394439
01 May 2022 22:12:43.519    01 May 2022 22:44:53.990      1930.4705273    Earth           Umbra       69            1952.9394439
01 May 2022 22:44:53.990    01 May 2022 22:45:05.179      11.189647741    Earth           Penumbra    69            1952.9394439
01 May 2022 23:46:07.610    01 May 2022 23:46:18.832      11.221243010    Earth           Penumbra    70            1956.5670523
01 May 2022 23:46:18.832    02 May 2022 00:18:33.044      1934.2119175    Earth           Umbra       70            1956.5670523
02 May 2022 00:18:33.044    02 May 2022 00:18:44.178      11.133891845    Earth           Penumbra    70            1956.5670523
02 May 2022 01:19:42.942    02 May 2022 01:19:54.107      11.164699111    Earth           Penumbra    71            1960.1117559
02 May 2022 01:19:54.107    02 May 2022 01:52:11.975      1937.8675589    Earth           Umbra       71            1960.1117559
02 May 2022 01:52:11.975    02 May 2022 01:52:23.054      11.079497903    Earth           Penumbra    71            1960.1117559
02 May 2022 02:53:18.216    02 May 2022 02:53:29.325      11.109495163    Earth           Penumbra    72            1963.6038704
02 May 2022 02:53:29.325    02 May 2022 03:25:50.793      1941.4679939    Earth           Umbra       72            1963.6038704
02 May 2022 03:25:50.793    02 May 2022 03:26:01.820      11.026381364    Earth           Penumbra    72            1963.6038704
02 May 2022 04:26:53.428    02 May 2022 04:27:04.483      11.055164400    Earth           Penumbra    73            1967.0716765
02 May 2022 04:27:04.483    02 May 2022 04:59:29.525      1945.0421934    Earth           Umbra       73            1967.0716765
02 May 2022 04:59:29.525    02 May 2022 04:59:40.500      10.974318744    Earth           Penumbra    73            1967.0716765
02 May 2022 06:00:28.604    02 May 2022 06:00:39.606      11.001489311    Earth           Penumbra    74            1970.5104749
02 May 2022 06:00:39.606    02 May 2022 06:33:08.192      1948.5859195    Earth           Umbra       74            1970.5104749
02 May 2022 06:33:08.192    02 May 2022 06:33:19.115      10.923066130    Earth           Penumbra    74            1970.5104749
02 May 2022 07:34:03.798    02 May 2022 07:34:14.747      10.948683321    Earth           Penumbra    75            1973.9043589
02 May 2022 07:34:14.747    02 May 2022 08:06:46.830      1952.0831530    Earth           Umbra       75            1973.9043589
02 May 2022 08:06:46.830    02 May 2022 08:06:57.703      10.872522625    Earth           Penumbra    75            1973.9043589
02 May 2022 09:07:39.052    02 May 2022 09:07:49.949      10.896990658    Earth           Penumbra    76            1977.2512136
02 May 2022 09:07:49.949    02 May 2022 09:40:25.480      1955.5314451    Earth           Umbra       76            1977.2512136
02 May 2022 09:40:25.480    02 May 2022 09:40:36.303      10.822777811    Earth           Penumbra    76            1977.2512136
02 May 2022 10:41:14.354    02 May 2022 10:41:25.201      10.846294707    Earth           Penumbra    77            1980.5565414
02 May 2022 10:41:25.201    02 May 2022 11:14:04.137      1958.9363741    Earth           Umbra       77            1980.5565414
02 May 2022 11:14:04.137    02 May 2022 11:14:14.911      10.773872549    Earth           Penumbra    77            1980.5565414
02 May 2022 12:14:49.659    02 May 2022 12:15:00.455      10.796221427    Earth           Penumbra    78            1983.8212315
02 May 2022 12:15:00.455    02 May 2022 12:47:42.755      1962.2994276    Earth           Umbra       78            1983.8212315
02 May 2022 12:47:42.755    02 May 2022 12:47:53.480      10.725582414    Earth           Penumbra    78            1983.8212315
02 May 2022 13:48:24.923    02 May 2022 13:48:35.670      10.746501759    Earth           Penumbra    79            1987.0405427
02 May 2022 13:48:35.670    02 May 2022 14:21:21.286      1965.6164029    Earth           Umbra       79            1987.0405427
02 May 2022 14:21:21.286    02 May 2022 14:21:31.964      10.677638033    Earth           Penumbra    79            1987.0405427
02 May 2022 15:22:00.128    02 May 2022 15:22:10.826      10.697158019    Earth           Penumbra    80            1990.2055558
02 May 2022 15:22:10.826    02 May 2022 15:54:59.704      1968.8783307    Earth           Umbra       80            1990.2055558
02 May 2022 15:54:59.704    02 May 2022 15:55:10.334      10.630067065    Earth           Penumbra    80            1990.2055558
02 May 2022 16:55:35.286    02 May 2022 16:55:45.935      10.648382572    Earth           Penumbra    81            1993.3119357
02 May 2022 16:55:45.935    02 May 2022 17:28:38.015      1972.0804636    Earth           Umbra       81            1993.3119357
02 May 2022 17:28:38.015    02 May 2022 17:28:48.598      10.583089537    Earth           Penumbra    81            1993.3119357
02 May 2022 18:29:10.440    02 May 2022 18:29:21.040      10.600278515    Earth           Penumbra    82            1996.3747951
02 May 2022 18:29:21.040    02 May 2022 19:02:16.278      1975.2377595    Earth           Umbra       82            1996.3747951
02 May 2022 19:02:16.278    02 May 2022 19:02:26.815      10.536756995    Earth           Penumbra    82            1996.3747951
02 May 2022 20:02:45.632    02 May 2022 20:02:56.185      10.552772298    Earth           Penumbra    83            1999.4184628
02 May 2022 20:02:56.185    02 May 2022 20:35:54.559      1978.3747113    Earth           Umbra       83            1999.4184628
02 May 2022 20:35:54.559    02 May 2022 20:36:05.050      10.490979231    Earth           Penumbra    83            1999.4184628
02 May 2022 21:36:20.866    02 May 2022 21:36:31.371      10.505850404    Earth           Penumbra    84            2002.4413377
02 May 2022 21:36:31.371    02 May 2022 22:09:32.861      1981.4896716    Earth           Umbra       84            2002.4413377
02 May 2022 22:09:32.861    02 May 2022 22:09:43.307      10.445815651    Earth           Penumbra    84            2002.4413377
02 May 2022 23:09:56.104    02 May 2022 23:10:06.563      10.459765233    Earth           Penumbra    85            2005.4124343
02 May 2022 23:10:06.563    02 May 2022 23:43:11.114      1984.5511356    Earth           Umbra       85            2005.4124343
02 May 2022 23:43:11.114    02 May 2022 23:43:21.516      10.401533428    Earth           Penumbra    85            2005.4124343
03 May 2022 00:43:31.309    03 May 2022 00:43:41.724      10.414834251    Earth           Penumbra    86            2008.3151667
03 May 2022 00:43:41.724    03 May 2022 01:16:49.266      1987.5419978    Earth           Umbra       86            2008.3151667
03 May 2022 01:16:49.266    03 May 2022 01:16:59.624      10.358334670    Earth           Penumbra    86            2008.3151667
03 May 2022 02:17:06.464    03 May 2022 02:17:16.835      10.371042369    Earth           Penumbra    87            2011.1710771
03 May 2022 02:17:16.835    03 May 2022 02:50:27.319      1990.4838264    Earth           Umbra       87            2011.1710771
03 May 2022 02:50:27.319    03 May 2022 02:50:37.635      10.316208377    Earth           Penumbra    87            2011.1710771
03 May 2022 03:50:41.566    03 May 2022 03:50:51.894      10.328034719    Earth           Penumbra    88            2014.0065425
03 May 2022 03:50:51.894    03 May 2022 04:24:05.298      1993.4035240    Earth           Umbra       88            2014.0065425
03 May 2022 04:24:05.298    03 May 2022 04:24:15.573      10.274983873    Earth           Penumbra    88            2014.0065425
03 May 2022 05:24:16.633    03 May 2022 05:24:26.919      10.285565187    Earth           Penumbra    89            2016.8198769
03 May 2022 05:24:26.919    03 May 2022 05:57:43.219      1996.2998536    Earth           Umbra       89            2016.8198769
03 May 2022 05:57:43.219    03 May 2022 05:57:53.453      10.234458104    Earth           Penumbra    89            2016.8198769
03 May 2022 06:57:51.713    03 May 2022 06:58:01.957      10.243753216    Earth           Penumbra    90            2019.5960560
03 May 2022 06:58:01.957    03 May 2022 07:31:21.115      1999.1578021    Earth           Umbra       90            2019.5960560
03 May 2022 07:31:21.115    03 May 2022 07:31:31.309      10.194500629    Earth           Penumbra    90            2019.5960560
03 May 2022 08:31:26.851    03 May 2022 08:31:37.054      10.202810029    Earth           Penumbra    91            2022.3322530
03 May 2022 08:31:37.054    03 May 2022 09:04:59.028      2001.9743095    Earth           Umbra       91            2022.3322530
03 May 2022 09:04:59.028    03 May 2022 09:05:09.183      10.155133449    Earth           Penumbra    91            2022.3322530
03 May 2022 10:05:02.045    03 May 2022 10:05:12.207      10.162680934    Earth           Penumbra    92            2025.0338710
03 May 2022 10:05:12.207    03 May 2022 10:38:36.962      2004.7547838    Earth           Umbra       92            2025.0338710
03 May 2022 10:38:36.962    03 May 2022 10:38:47.079      10.116406227    Earth           Penumbra    92            2025.0338710
03 May 2022 11:38:37.250    03 May 2022 11:38:47.373      10.123062297    Earth           Penumbra    93            2027.7006605
03 May 2022 11:38:47.373    03 May 2022 12:12:14.872      2007.4994213    Earth           Umbra       93            2027.7006605
03 May 2022 12:12:14.872    03 May 2022 12:12:24.950      10.078176891    Earth           Penumbra    93            2027.7006605
03 May 2022 13:12:12.420    03 May 2022 13:12:22.504      10.083708633    Earth           Penumbra    94            2030.3266861
03 May 2022 13:12:22.504    03 May 2022 13:45:52.707      2010.2027665    Earth           Umbra       94            2030.3266861
03 May 2022 13:45:52.707    03 May 2022 13:46:02.747      10.040210956    Earth           Penumbra    94            2030.3266861
03 May 2022 14:45:47.535    03 May 2022 14:45:57.580      10.044617741    Earth           Penumbra    95            2032.9045821
03 May 2022 14:45:57.580    03 May 2022 15:19:30.437      2012.8574631    Earth           Umbra       95            2032.9045821
03 May 2022 15:19:30.437    03 May 2022 15:19:40.440      10.002501193    Earth           Penumbra    95            2032.9045821
03 May 2022 16:19:22.603    03 May 2022 16:19:32.609      10.005944897    Earth           Penumbra    96            2035.4305217
03 May 2022 16:19:32.609    03 May 2022 16:53:08.068      2015.4593139    Earth           Umbra       96            2035.4305217
03 May 2022 16:53:08.068    03 May 2022 16:53:18.034      9.9652629113    Earth           Penumbra    96            2035.4305217
03 May 2022 17:52:57.666    03 May 2022 17:53:07.634      9.9678067141    Earth           Penumbra    97            2037.9149320
03 May 2022 17:53:07.634    03 May 2022 18:26:45.652      2018.0185282    Earth           Umbra       97            2037.9149320
03 May 2022 18:26:45.652    03 May 2022 18:26:55.581      9.9285970093    Earth           Penumbra    97            2037.9149320
03 May 2022 19:26:32.769    03 May 2022 19:26:42.699      9.9301635870    Earth           Penumbra    98            2040.3791713
03 May 2022 19:26:42.699    03 May 2022 20:00:23.256      2020.5566048    Earth           Umbra       98            2040.3791713
03 May 2022 20:00:23.256    03 May 2022 20:00:33.148      9.8924029036    Earth           Penumbra    98            2040.3791713
03 May 2022 21:00:07.919    03 May 2022 21:00:17.812      9.8929755972    Earth           Penumbra    99            2042.8281669
03 May 2022 21:00:17.812    03 May 2022 21:34:00.890      2023.0785510    Earth           Umbra       99            2042.8281669
03 May 2022 21:34:00.890    03 May 2022 21:34:10.747      9.8566403612    Earth           Penumbra    99            2042.8281669
03 May 2022 22:33:43.078    03 May 2022 22:33:52.934      9.8564074491    Earth           Penumbra    100           2045.2395987
03 May 2022 22:33:52.934    03 May 2022 23:07:38.496      2025.5616706    Earth           Umbra       100           2045.2395987
03 May 2022 23:07:38.496    03 May 2022 23:07:48.318      9.8215206061    Earth           Penumbra    100           2045.2395987
04 May 2022 00:07:18.209    04 May 2022 00:07:28.030      9.8207470612    Earth           Penumbra    101           2047.5958563
04 May 2022 00:07:28.030    04 May 2022 00:41:16.018      2027.9878409    Earth           Umbra       101           2047.5958563
04 May 2022 00:41:16.018    04 May 2022 00:41:25.805      9.7872683778    Earth           Penumbra    101           2047.5958563
04 May 2022 01:40:53.297    04 May 2022 01:41:03.083      9.7860557260    Earth           Penumbra    102           2049.9111035
04 May 2022 01:41:03.083    04 May 2022 02:14:53.454      2030.3711176    Earth           Umbra       102           2049.9111035
04 May 2022 02:14:53.454    04 May 2022 02:15:03.208      9.7539301962    Earth           Penumbra    102           2049.9111035
04 May 2022 03:14:28.338    04 May 2022 03:14:38.090      9.7520788433    Earth           Penumbra    103           2052.2091972
04 May 2022 03:14:38.090    04 May 2022 03:48:30.826      2032.7357393    Earth           Umbra       103           2052.2091972
04 May 2022 03:48:30.826    04 May 2022 03:48:40.548      9.7213790752    Earth           Penumbra    103           2052.2091972
04 May 2022 04:48:03.346    04 May 2022 04:48:13.064      9.7185624414    Earth           Penumbra    104           2044.8016022
04 May 2022 04:48:13.064    04 May 2022 05:22:08.147      2035.0830398    Earth           Umbra       104           2044.8016022
04 May 2022 06:21:38.361    04 May 2022 06:21:48.047      9.6855555545    Earth           Penumbra    105           2056.7423416
04 May 2022 06:21:48.047    04 May 2022 06:55:45.446      2037.3988178    Earth           Umbra       105           2056.7423416
04 May 2022 06:55:45.446    04 May 2022 06:55:55.104      9.6579681966    Earth           Penumbra    105           2056.7423416
04 May 2022 07:55:13.433    04 May 2022 07:55:23.086      9.6532386029    Earth           Penumbra    106           2058.9589195
04 May 2022 07:55:23.086    04 May 2022 08:29:22.765      2039.6787297    Earth           Umbra       106           2058.9589195
04 May 2022 08:29:22.765    04 May 2022 08:29:32.392      9.6269512782    Earth           Penumbra    106           2058.9589195
04 May 2022 09:28:48.565    04 May 2022 09:28:58.186      9.6215968137    Earth           Penumbra    107           2061.1460934
04 May 2022 09:28:58.186    04 May 2022 10:03:00.114      2041.9280693    Earth           Umbra       107           2061.1460934
04 May 2022 10:03:00.114    04 May 2022 10:03:09.711      9.5964272157    Earth           Penumbra    107           2061.1460934
04 May 2022 11:02:23.716    04 May 2022 11:02:33.307      9.5903837588    Earth           Penumbra    108           2063.3035962
04 May 2022 11:02:33.307    04 May 2022 11:36:37.454      2044.1469041    Earth           Umbra       108           2063.3035962
04 May 2022 11:36:37.454    04 May 2022 11:36:47.020      9.5663083135    Earth           Penumbra    108           2063.3035962
04 May 2022 12:35:58.840    04 May 2022 12:36:08.400      9.5593728125    Earth           Penumbra    109           2065.4245569
04 May 2022 12:36:08.400    04 May 2022 13:10:14.728      2046.3287885    Earth           Umbra       109           2065.4245569
04 May 2022 13:10:14.728    04 May 2022 13:10:24.265      9.5363956061    Earth           Penumbra    109           2065.4245569
04 May 2022 14:09:33.911    04 May 2022 14:09:43.440      9.5285410294    Earth           Penumbra    110           2067.5023834
04 May 2022 14:09:43.440    04 May 2022 14:43:51.907      2048.4671866    Earth           Umbra       110           2067.5023834
04 May 2022 14:43:51.907    04 May 2022 14:44:01.413      9.5066557755    Earth           Penumbra    110           2067.5023834
04 May 2022 15:43:08.935    04 May 2022 15:43:18.433      9.4980229391    Earth           Penumbra    111           2069.5343296
04 May 2022 15:43:18.433    04 May 2022 16:17:28.992      2050.5590179    Earth           Umbra       111           2069.5343296
04 May 2022 16:17:28.992    04 May 2022 16:17:38.469      9.4772887300    Earth           Penumbra    111           2069.5343296
04 May 2022 17:16:43.952    04 May 2022 17:16:53.419      9.4679316971    Earth           Penumbra    112           2071.5276268
04 May 2022 17:16:53.419    04 May 2022 17:51:06.031      2052.6112583    Earth           Umbra       112           2071.5276268
04 May 2022 17:51:06.031    04 May 2022 17:51:15.479      9.4484368572    Earth           Penumbra    112           2071.5276268
04 May 2022 18:50:19.009    04 May 2022 18:50:28.448      9.4382547308    Earth           Penumbra    113           2073.4997567
04 May 2022 18:50:28.448    04 May 2022 19:24:43.089      2054.6414946    Earth           Umbra       113           2073.4997567
04 May 2022 19:24:43.089    04 May 2022 19:24:52.509      9.4200074323    Earth           Penumbra    113           2073.4997567
04 May 2022 20:23:54.118    04 May 2022 20:24:03.527      9.4089433202    Earth           Penumbra    114           2075.4592280
04 May 2022 20:24:03.527    04 May 2022 20:58:20.185      2056.6583879    Earth           Umbra       114           2075.4592280
04 May 2022 20:58:20.185    04 May 2022 20:58:29.577      9.3918967294    Earth           Penumbra    114           2075.4592280
04 May 2022 21:57:29.241    04 May 2022 21:57:38.621      9.3801021343    Earth           Penumbra    115           2077.3915736
04 May 2022 21:57:38.621    04 May 2022 22:31:57.269      2058.6472300    Earth           Umbra       115           2077.3915736
04 May 2022 22:31:57.269    04 May 2022 22:32:06.633      9.3642414780    Earth           Penumbra    115           2077.3915736
04 May 2022 23:31:04.341    04 May 2022 23:31:13.693      9.3519754009    Earth           Penumbra    116           2079.2802735
04 May 2022 23:31:13.693    05 May 2022 00:05:34.284      2060.5910172    Earth           Umbra       116           2079.2802735
05 May 2022 00:05:34.284    05 May 2022 00:05:43.621      9.3372808769    Earth           Penumbra    116           2079.2802735
05 May 2022 01:04:39.402    05 May 2022 01:04:48.727      9.3246806762    Earth           Penumbra    117           2081.1336069
05 May 2022 01:04:48.727    05 May 2022 01:39:11.225      2062.4978091    Earth           Umbra       117           2081.1336069
05 May 2022 01:39:11.225    05 May 2022 01:39:20.536      9.3111170805    Earth           Penumbra    117           2081.1336069
05 May 2022 02:38:14.423    05 May 2022 02:38:23.721      9.2980438261    Earth           Penumbra    118           2073.6867591
05 May 2022 02:38:23.721    05 May 2022 03:12:48.110      2064.3887153    Earth           Umbra       118           2073.6867591
05 May 2022 04:11:49.411    05 May 2022 04:11:58.683      9.2718250235    Earth           Penumbra    119           2084.7997410
05 May 2022 04:11:58.683    05 May 2022 04:46:24.950      2066.2671950    Earth           Umbra       119           2084.7997410
05 May 2022 04:46:24.950    05 May 2022 04:46:34.211      9.2607209925    Earth           Penumbra    119           2084.7997410
05 May 2022 05:45:24.403    05 May 2022 05:45:33.649      9.2460079235    Earth           Penumbra    120           2086.6022304
05 May 2022 05:45:33.649    05 May 2022 06:20:01.769      2068.1200258    Earth           Umbra       120           2086.6022304
05 May 2022 06:20:01.769    05 May 2022 06:20:11.006      9.2361966963    Earth           Penumbra    120           2086.6022304
05 May 2022 07:18:59.448    05 May 2022 07:19:08.669      9.2207468580    Earth           Penumbra    121           2079.1619368
05 May 2022 07:19:08.669    05 May 2022 07:53:38.610      2069.9411900    Earth           Umbra       121           2079.1619368
05 May 2022 08:52:34.558    05 May 2022 08:52:43.754      9.1960562859    Earth           Penumbra    122           2090.1198920
05 May 2022 08:52:43.754    05 May 2022 09:27:15.489      2071.7355721    Earth           Umbra       122           2090.1198920
05 May 2022 09:27:15.489    05 May 2022 09:27:24.677      9.1882636305    Earth           Penumbra    122           2090.1198920
05 May 2022 10:26:09.695    05 May 2022 10:26:18.867      9.1717344127    Earth           Penumbra    123           2091.8404272
05 May 2022 10:26:18.867    05 May 2022 11:00:52.370      2073.5038737    Earth           Umbra       123           2091.8404272
05 May 2022 11:00:52.370    05 May 2022 11:01:01.535      9.1648190282    Earth           Penumbra    123           2091.8404272
05 May 2022 11:59:44.811    05 May 2022 11:59:53.958      9.1475684429    Earth           Penumbra    124           2093.5282616
05 May 2022 11:59:53.958    05 May 2022 12:34:29.198      2075.2391518    Earth           Umbra       124           2093.5282616
05 May 2022 12:34:29.198    05 May 2022 12:34:38.339      9.1415413306    Earth           Penumbra    124           2093.5282616
05 May 2022 13:33:19.876    05 May 2022 13:33:29.000      9.1235225438    Earth           Penumbra    125           2095.1769523
05 May 2022 13:33:29.000    05 May 2022 14:08:05.935      2076.9350520    Earth           Umbra       125           2095.1769523
05 May 2022 14:08:05.935    05 May 2022 14:08:15.053      9.1183777316    Earth           Penumbra    125           2095.1769523
05 May 2022 15:06:54.894    05 May 2022 15:07:03.994      9.0997130144    Earth           Penumbra    126           2096.7849330
05 May 2022 15:07:03.994    05 May 2022 15:41:42.584      2078.5897167    Earth           Umbra       126           2096.7849330
05 May 2022 15:41:42.584    05 May 2022 15:41:51.679      9.0955033083    Earth           Penumbra    126           2096.7849330
05 May 2022 16:40:29.902    05 May 2022 16:40:38.979      9.0762508102    Earth           Penumbra    127           2098.3576001
05 May 2022 16:40:38.979    05 May 2022 17:15:19.187      2080.2082492    Earth           Umbra       127           2098.3576001
05 May 2022 17:15:19.187    05 May 2022 17:15:28.260      9.0731000528    Earth           Penumbra    127           2098.3576001
05 May 2022 18:14:04.951    05 May 2022 18:14:14.004      9.0531381313    Earth           Penumbra    128           2099.9084428
05 May 2022 18:14:14.004    05 May 2022 18:48:55.809      2081.8042093    Earth           Umbra       128           2099.9084428
05 May 2022 18:48:55.809    05 May 2022 18:49:04.860      9.0510953567    Earth           Penumbra    128           2099.9084428
05 May 2022 19:47:40.055    05 May 2022 19:47:49.085      9.0303268866    Earth           Penumbra    129           2101.4471783
05 May 2022 19:47:49.085    05 May 2022 20:22:32.473      2083.3875149    Earth           Umbra       129           2101.4471783
05 May 2022 20:22:32.473    05 May 2022 20:22:41.502      9.0293364599    Earth           Penumbra    129           2101.4471783
05 May 2022 21:21:15.179    05 May 2022 21:21:24.187      9.0078808833    Earth           Penumbra    130           2102.9659405
05 May 2022 21:21:24.187    05 May 2022 21:56:09.137      2084.9501680    Earth           Umbra       130           2102.9659405
05 May 2022 21:56:09.137    05 May 2022 21:56:18.145      9.0078915702    Earth           Penumbra    130           2102.9659405
05 May 2022 22:54:50.283    05 May 2022 22:54:59.269      8.9860034874    Earth           Penumbra    131           2104.4508241
05 May 2022 22:54:59.269    05 May 2022 23:29:45.747      2086.4778208    Earth           Umbra       131           2104.4508241
05 May 2022 23:29:45.747    05 May 2022 23:29:54.734      8.9869998861    Earth           Penumbra    131           2104.4508241
06 May 2022 00:28:25.353    06 May 2022 00:28:34.318      8.9648418012    Earth           Penumbra    132           2105.9057492
06 May 2022 00:28:34.318    06 May 2022 01:03:22.292      2087.9741024    Earth           Umbra       132           2105.9057492
06 May 2022 01:03:22.292    06 May 2022 01:03:31.259      8.9668050525    Earth           Penumbra    132           2105.9057492
06 May 2022 02:02:00.388    06 May 2022 02:02:09.332      8.9442952420    Earth           Penumbra    133           2098.4009745
06 May 2022 02:02:09.332    06 May 2022 02:36:58.789      2089.4566793    Earth           Umbra       133           2098.4009745
06 May 2022 03:35:35.392    06 May 2022 03:35:44.316      8.9241381269    Earth           Penumbra    134           2108.7829462
06 May 2022 03:35:44.316    06 May 2022 04:10:35.247      2090.9306290    Earth           Umbra       134           2108.7829462
06 May 2022 04:10:35.247    06 May 2022 04:10:44.175      8.9281790424    Earth           Penumbra    134           2108.7829462
06 May 2022 05:09:10.396    06 May 2022 05:09:19.301      8.9043148211    Earth           Penumbra    135           2110.1977692
06 May 2022 05:09:19.301    06 May 2022 05:44:11.685      2092.3839954    Earth           Umbra       135           2110.1977692
06 May 2022 05:44:11.685    06 May 2022 05:44:20.594      8.9094590046    Earth           Penumbra    135           2110.1977692
06 May 2022 06:42:45.450    06 May 2022 06:42:54.335      8.8849406806    Earth           Penumbra    136           2102.6939525
06 May 2022 06:42:54.335    06 May 2022 07:17:48.144      2093.8090118    Earth           Umbra       136           2102.6939525
06 May 2022 08:16:20.571    06 May 2022 08:16:29.437      8.8660581387    Earth           Penumbra    137           2112.9486711
06 May 2022 08:16:29.437    06 May 2022 08:51:24.646      2095.2096775    Earth           Umbra       137           2112.9486711
06 May 2022 08:51:24.646    06 May 2022 08:51:33.519      8.8729354902    Earth           Penumbra    137           2112.9486711
06 May 2022 09:49:55.727    06 May 2022 09:50:04.575      8.8475021766    Earth           Penumbra    138           2114.2903202
06 May 2022 09:50:04.575    06 May 2022 10:25:01.162      2096.5877136    Earth           Umbra       138           2114.2903202
06 May 2022 10:25:01.162    06 May 2022 10:25:10.017      8.8551043533    Earth           Penumbra    138           2114.2903202
06 May 2022 11:23:30.869    06 May 2022 11:23:39.698      8.8290678570    Earth           Penumbra    139           2115.6027637
06 May 2022 11:23:39.698    06 May 2022 11:58:37.634      2097.9362875    Earth           Umbra       139           2115.6027637
06 May 2022 11:58:37.634    06 May 2022 11:58:46.472      8.8374083745    Earth           Penumbra    139           2115.6027637
06 May 2022 12:57:05.963    06 May 2022 12:57:14.774      8.8107108604    Earth           Penumbra    140           2116.8793026
06 May 2022 12:57:14.774    06 May 2022 13:32:14.023      2099.2488096    Earth           Umbra       140           2116.8793026
06 May 2022 13:32:14.023    06 May 2022 13:32:22.843      8.8197821751    Earth           Penumbra    140           2116.8793026
06 May 2022 14:30:41.009    06 May 2022 14:30:49.802      8.7925336557    Earth           Penumbra    141           2118.1193388
06 May 2022 14:30:49.802    06 May 2022 15:05:50.326      2100.5244263    Earth           Umbra       141           2118.1193388
06 May 2022 15:05:50.326    06 May 2022 15:05:59.129      8.8023788296    Earth           Penumbra    141           2118.1193388
06 May 2022 16:04:16.043    06 May 2022 16:04:24.817      8.7746418547    Earth           Penumbra    142           2119.3275370
06 May 2022 16:04:24.817    06 May 2022 16:39:26.585      2101.7674915    Earth           Umbra       142           2119.3275370
06 May 2022 16:39:26.585    06 May 2022 16:39:35.370      8.7854035897    Earth           Penumbra    142           2119.3275370
06 May 2022 17:37:51.115    06 May 2022 17:37:59.872      8.7570499163    Earth           Penumbra    143           2120.5138072
06 May 2022 17:37:59.872    06 May 2022 18:13:02.860      2102.9879370    Earth           Umbra       143           2120.5138072
06 May 2022 18:13:02.860    06 May 2022 18:13:11.629      8.7688203086    Earth           Penumbra    143           2120.5138072
06 May 2022 19:11:26.246    06 May 2022 19:11:34.986      8.7397141499    Earth           Penumbra    144           2112.9348580
06 May 2022 19:11:34.986    06 May 2022 19:46:39.181      2104.1951438    Earth           Umbra       144           2112.9348580
06 May 2022 20:45:01.403    06 May 2022 20:45:10.126      8.7226653588    Earth           Penumbra    145           2122.8452357
06 May 2022 20:45:10.126    06 May 2022 21:20:15.512      2105.3862892    Earth           Umbra       145           2122.8452357
06 May 2022 21:20:15.512    06 May 2022 21:20:24.249      8.7362811319    Earth           Penumbra    145           2122.8452357
06 May 2022 22:18:36.545    06 May 2022 22:18:45.251      8.7060761056    Earth           Penumbra    146           2123.9772616
06 May 2022 22:18:45.251    06 May 2022 22:53:51.801      2106.5506433    Earth           Umbra       146           2123.9772616
06 May 2022 22:53:51.801    06 May 2022 22:54:00.522      8.7205421180    Earth           Penumbra    146           2123.9772616
06 May 2022 23:52:11.655    06 May 2022 23:52:20.345      8.6901057512    Earth           Penumbra    147           2116.3790683
06 May 2022 23:52:20.345    07 May 2022 00:27:28.034      2107.6889626    Earth           Umbra       147           2116.3790683
07 May 2022 01:25:46.735    07 May 2022 01:25:55.409      8.6747121764    Earth           Penumbra    148           2126.1809913
07 May 2022 01:25:55.409    07 May 2022 02:01:04.225      2108.8153807    Earth           Umbra       148           2126.1809913
07 May 2022 02:01:04.225    07 May 2022 02:01:12.915      8.6908984696    Earth           Penumbra    148           2126.1809913
07 May 2022 02:59:21.786    07 May 2022 02:59:30.446      8.6596989306    Earth           Penumbra    149           2127.2725018
07 May 2022 02:59:30.446    07 May 2022 03:34:40.382      2109.9359810    Earth           Umbra       149           2127.2725018
07 May 2022 03:34:40.382    07 May 2022 03:34:49.059      8.6768219015    Earth           Penumbra    149           2127.2725018
07 May 2022 04:32:56.835    07 May 2022 04:33:05.480      8.6449707742    Earth           Penumbra    150           2128.3484044
07 May 2022 04:33:05.480    07 May 2022 05:08:16.521      2111.0403743    Earth           Umbra       150           2128.3484044
07 May 2022 05:08:16.521    07 May 2022 05:08:25.184      8.6630593403    Earth           Penumbra    150           2128.3484044
07 May 2022 06:06:31.929    07 May 2022 06:06:40.559      8.6306122597    Earth           Penumbra    151           2129.3993831
07 May 2022 06:06:40.559    07 May 2022 06:41:52.679      2112.1192233    Earth           Umbra       151           2129.3993831
07 May 2022 06:41:52.679    07 May 2022 06:42:01.328      8.6495476076    Earth           Penumbra    151           2129.3993831
07 May 2022 07:40:07.092    07 May 2022 07:40:15.709      8.6166812223    Earth           Penumbra    152           2121.7918212
07 May 2022 07:40:15.709    07 May 2022 08:15:28.884      2113.1751400    Earth           Umbra       152           2121.7918212
07 May 2022 09:13:42.299    07 May 2022 09:13:50.902      8.6030459614    Earth           Penumbra    153           2131.4372496
07 May 2022 09:13:50.902    07 May 2022 09:49:05.113      2114.2109254    Earth           Umbra       153           2131.4372496
07 May 2022 09:49:05.113    07 May 2022 09:49:13.737      8.6232781992    Earth           Penumbra    153           2131.4372496
07 May 2022 10:47:17.498    07 May 2022 10:47:26.088      8.5895109689    Earth           Penumbra    154           2132.4203494
07 May 2022 10:47:26.088    07 May 2022 11:22:41.308      2115.2204618    Earth           Umbra       154           2132.4203494
07 May 2022 11:22:41.308    07 May 2022 11:22:49.918      8.6103765643    Earth           Penumbra    154           2132.4203494
07 May 2022 12:20:52.652    07 May 2022 12:21:01.228      8.5760187241    Earth           Penumbra    155           2133.3702883
07 May 2022 12:21:01.228    07 May 2022 12:56:17.425      2116.1967585    Earth           Umbra       155           2133.3702883
07 May 2022 12:56:17.425    07 May 2022 12:56:26.023      8.5975110764    Earth           Penumbra    155           2133.3702883
07 May 2022 13:54:27.758    07 May 2022 13:54:36.321      8.5626625805    Earth           Penumbra    156           2134.2870452
07 May 2022 13:54:36.321    07 May 2022 14:29:53.460      2117.1395720    Earth           Umbra       156           2134.2870452
07 May 2022 14:29:53.460    07 May 2022 14:30:02.045      8.5848106071    Earth           Penumbra    156           2134.2870452
07 May 2022 15:28:02.848    07 May 2022 15:28:11.397      8.5495490930    Earth           Penumbra    157           2135.1753454
07 May 2022 15:28:11.397    07 May 2022 16:03:29.450      2118.0532995    Earth           Umbra       157           2135.1753454
07 May 2022 16:03:29.450    07 May 2022 16:03:38.023      8.5724967532    Earth           Penumbra    157           2135.1753454
