GMAT/Constellation/Eclipses/eclipse12.txt

Spacecraft: HSEYE12

Start Time (UTC)            Stop Time (UTC)               Duration (s)    Occ Body        Type        Event Number  Total Duration (s)
27 Apr 2022 12:37:37.872    27 Apr 2022 12:37:46.190      8.3180470043    Earth           Penumbra    1             2152.7465404
27 Apr 2022 12:37:46.190    27 Apr 2022 13:13:22.331      2136.1404522    Earth           Umbra       1             2152.7465404
27 Apr 2022 13:13:22.331    27 Apr 2022 13:13:30.619      8.2880412578    Earth           Penumbra    1             2152.7465404
27 Apr 2022 14:11:12.815    27 Apr 2022 14:11:21.137      8.3217644831    Earth           Penumbra    2             2152.3901468
27 Apr 2022 14:11:21.137    27 Apr 2022 14:46:56.913      2135.7760836    Earth           Umbra       2             2152.3901468
27 Apr 2022 14:46:56.913    27 Apr 2022 14:47:05.206      8.2922987407    Earth           Penumbra    2             2152.3901468
27 Apr 2022 15:44:47.778    27 Apr 2022 15:44:56.103      8.3258572617    Earth           Penumbra    3             2152.0146651
27 Apr 2022 15:44:56.103    27 Apr 2022 16:20:31.495      2135.3919885    Earth           Umbra       3             2152.0146651
27 Apr 2022 16:20:31.495    27 Apr 2022 16:20:39.792      8.2968193106    Earth           Penumbra    3             2152.0146651
27 Apr 2022 17:18:22.726    27 Apr 2022 17:18:31.056      8.3302181563    Earth           Penumbra    4             2151.6148383
27 Apr 2022 17:18:31.056    27 Apr 2022 17:54:06.039      2134.9830172    Earth           Umbra       4             2151.6148383
27 Apr 2022 17:54:06.039    27 Apr 2022 17:54:14.340      8.3016029675    Earth           Penumbra    4             2151.6148383
27 Apr 2022 18:51:57.675    27 Apr 2022 18:52:06.009      8.3347041509    Earth           Penumbra    5             2151.1887266
27 Apr 2022 18:52:06.009    27 Apr 2022 19:27:40.557      2134.5473806    Earth           Umbra       5             2151.1887266
27 Apr 2022 19:27:40.557    27 Apr 2022 19:27:48.863      8.3066418534    Earth           Penumbra    5             2151.1887266
27 Apr 2022 20:25:32.651    27 Apr 2022 20:25:40.991      8.3392963861    Earth           Penumbra    6             2150.7411974
27 Apr 2022 20:25:40.991    27 Apr 2022 21:01:15.080      2134.0898981    Earth           Umbra       6             2150.7411974
27 Apr 2022 21:01:15.080    27 Apr 2022 21:01:23.392      8.3120029187    Earth           Penumbra    6             2150.7411974
27 Apr 2022 21:59:07.641    27 Apr 2022 21:59:15.986      8.3441513940    Earth           Penumbra    7             2141.9618999
27 Apr 2022 21:59:15.986    27 Apr 2022 22:34:49.603      2133.6177485    Earth           Umbra       7             2141.9618999
27 Apr 2022 23:32:42.591    27 Apr 2022 23:32:50.941      8.3494442515    Earth           Penumbra    8             2149.8109033
27 Apr 2022 23:32:50.941    28 Apr 2022 00:08:24.078      2133.1375160    Earth           Umbra       8             2149.8109033
28 Apr 2022 00:08:24.078    28 Apr 2022 00:08:32.402      8.3239430445    Earth           Penumbra    8             2149.8109033
28 Apr 2022 01:06:17.464    28 Apr 2022 01:06:25.819      8.3552129916    Earth           Penumbra    9             2141.0058311
28 Apr 2022 01:06:25.819    28 Apr 2022 01:41:58.469      2132.6506181    Earth           Umbra       9             2141.0058311
28 Apr 2022 02:39:52.299    28 Apr 2022 02:40:00.660      8.3614167525    Earth           Penumbra    10            2148.8484264
28 Apr 2022 02:40:00.660    28 Apr 2022 03:15:32.810      2132.1495549    Earth           Umbra       10            2148.8484264
28 Apr 2022 03:15:32.810    28 Apr 2022 03:15:41.147      8.3374547772    Earth           Penumbra    10            2148.8484264
28 Apr 2022 04:13:27.195    28 Apr 2022 04:13:35.563      8.3680913667    Earth           Penumbra    11            2148.3389316
28 Apr 2022 04:13:35.563    28 Apr 2022 04:49:07.189      2131.6260241    Earth           Umbra       11            2148.3389316
28 Apr 2022 04:49:07.189    28 Apr 2022 04:49:15.533      8.3448161837    Earth           Penumbra    11            2148.3389316
28 Apr 2022 05:47:02.196    28 Apr 2022 05:47:10.572      8.3752585226    Earth           Penumbra    12            2147.8100237
28 Apr 2022 05:47:10.572    28 Apr 2022 06:22:41.654      2131.0821871    Earth           Umbra       12            2147.8100237
28 Apr 2022 06:22:41.654    28 Apr 2022 06:22:50.006      8.3525780356    Earth           Penumbra    12            2147.8100237
28 Apr 2022 07:20:37.236    28 Apr 2022 07:20:45.619      8.3827472292    Earth           Penumbra    13            2147.2674076
28 Apr 2022 07:20:45.619    28 Apr 2022 07:56:16.143      2130.5239848    Earth           Umbra       13            2147.2674076
28 Apr 2022 07:56:16.143    28 Apr 2022 07:56:24.504      8.3606755827    Earth           Penumbra    13            2147.2674076
28 Apr 2022 08:54:12.214    28 Apr 2022 08:54:20.605      8.3902871702    Earth           Penumbra    14            2146.7048066
28 Apr 2022 08:54:20.605    28 Apr 2022 09:29:50.550      2129.9455395    Earth           Umbra       14            2146.7048066
28 Apr 2022 09:29:50.550    28 Apr 2022 09:29:58.919      8.3689799532    Earth           Penumbra    14            2146.7048066
28 Apr 2022 10:27:47.124    28 Apr 2022 10:27:55.521      8.3977919072    Earth           Penumbra    15            2146.1085342
28 Apr 2022 10:27:55.521    28 Apr 2022 11:03:24.855      2129.3333923    Earth           Umbra       15            2146.1085342
28 Apr 2022 11:03:24.855    28 Apr 2022 11:03:33.232      8.3773500170    Earth           Penumbra    15            2146.1085342
28 Apr 2022 12:01:22.042    28 Apr 2022 12:01:30.448      8.4054148290    Earth           Penumbra    16            2137.0905165
28 Apr 2022 12:01:30.448    28 Apr 2022 12:36:59.133      2128.6851016    Earth           Umbra       16            2137.0905165
28 Apr 2022 13:34:57.019    28 Apr 2022 13:35:05.432      8.4133624448    Earth           Penumbra    17            2144.8178106
28 Apr 2022 13:35:05.432    28 Apr 2022 14:10:33.442      2128.0101506    Earth           Umbra       17            2144.8178106
28 Apr 2022 14:10:33.442    28 Apr 2022 14:10:41.837      8.3942975965    Earth           Penumbra    17            2144.8178106
28 Apr 2022 15:08:32.026    28 Apr 2022 15:08:40.447      8.4217070485    Earth           Penumbra    18            2144.1379769
28 Apr 2022 15:08:40.447    28 Apr 2022 15:44:07.761      2127.3131404    Earth           Umbra       18            2144.1379769
28 Apr 2022 15:44:07.761    28 Apr 2022 15:44:16.164      8.4031293984    Earth           Penumbra    18            2144.1379769
28 Apr 2022 16:42:07.025    28 Apr 2022 16:42:15.455      8.4303807467    Earth           Penumbra    19            2143.4317794
28 Apr 2022 16:42:15.455    28 Apr 2022 17:17:42.044      2126.5891216    Earth           Umbra       19            2143.4317794
28 Apr 2022 17:17:42.044    28 Apr 2022 17:17:50.456      8.4122770932    Earth           Penumbra    19            2143.4317794
28 Apr 2022 18:15:42.024    28 Apr 2022 18:15:50.463      8.4392524674    Earth           Penumbra    20            2142.6965833
28 Apr 2022 18:15:50.463    28 Apr 2022 18:51:16.299      2125.8356153    Earth           Umbra       20            2142.6965833
28 Apr 2022 18:51:16.299    28 Apr 2022 18:51:24.720      8.4217155352    Earth           Penumbra    20            2142.6965833
28 Apr 2022 19:49:17.051    28 Apr 2022 19:49:25.499      8.4482640610    Earth           Penumbra    21            2141.9380768
28 Apr 2022 19:49:25.499    28 Apr 2022 20:24:50.557      2125.0583234    Earth           Umbra       21            2141.9380768
28 Apr 2022 20:24:50.557    28 Apr 2022 20:24:58.989      8.4314893582    Earth           Penumbra    21            2141.9380768
28 Apr 2022 21:22:52.098    28 Apr 2022 21:23:00.555      8.4575283690    Earth           Penumbra    22            2141.1644194
28 Apr 2022 21:23:00.555    28 Apr 2022 21:58:24.821      2124.2651997    Earth           Umbra       22            2141.1644194
28 Apr 2022 21:58:24.821    28 Apr 2022 21:58:33.262      8.4416912869    Earth           Penumbra    22            2141.1644194
28 Apr 2022 22:56:27.116    28 Apr 2022 22:56:35.583      8.4672336699    Earth           Penumbra    23            2131.9292490
28 Apr 2022 22:56:35.583    28 Apr 2022 23:31:59.045      2123.4620153    Earth           Umbra       23            2131.9292490
29 Apr 2022 00:30:02.063    29 Apr 2022 00:30:10.541      8.4774613730    Earth           Penumbra    24            2139.5909687
29 Apr 2022 00:30:10.541    29 Apr 2022 01:05:33.191      2122.6500657    Earth           Umbra       24            2139.5909687
29 Apr 2022 01:05:33.191    29 Apr 2022 01:05:41.654      8.4634416969    Earth           Penumbra    24            2139.5909687
29 Apr 2022 02:03:36.969    29 Apr 2022 02:03:45.457      8.4881765884    Earth           Penumbra    25            2138.7856607
29 Apr 2022 02:03:45.457    29 Apr 2022 02:39:07.280      2121.8225417    Earth           Umbra       25            2138.7856607
29 Apr 2022 02:39:07.280    29 Apr 2022 02:39:15.755      8.4749424015    Earth           Penumbra    25            2138.7856607
29 Apr 2022 03:37:11.929    29 Apr 2022 03:37:20.429      8.4993893746    Earth           Penumbra    26            2137.9557448
29 Apr 2022 03:37:20.429    29 Apr 2022 04:12:41.398      2120.9694814    Earth           Umbra       26            2137.9557448
29 Apr 2022 04:12:41.398    29 Apr 2022 04:12:49.885      8.4868740407    Earth           Penumbra    26            2137.9557448
29 Apr 2022 05:10:47.003    29 Apr 2022 05:10:55.514      8.5111292778    Earth           Penumbra    27            2137.1009928
29 Apr 2022 05:10:55.514    29 Apr 2022 05:46:15.604      2120.0906169    Earth           Umbra       27            2137.1009928
29 Apr 2022 05:46:15.604    29 Apr 2022 05:46:24.104      8.4992466727    Earth           Penumbra    27            2137.1009928
29 Apr 2022 06:44:22.132    29 Apr 2022 06:44:30.655      8.5232614540    Earth           Penumbra    28            2136.2293586
29 Apr 2022 06:44:30.655    29 Apr 2022 07:19:49.849      2119.1940884    Earth           Umbra       28            2136.2293586
29 Apr 2022 07:19:49.849    29 Apr 2022 07:19:58.361      8.5120087489    Earth           Penumbra    28            2136.2293586
29 Apr 2022 08:17:57.210    29 Apr 2022 08:18:05.745      8.5355149582    Earth           Penumbra    29            2135.3397122
29 Apr 2022 08:18:05.745    29 Apr 2022 08:53:24.024      2118.2791555    Earth           Umbra       29            2135.3397122
29 Apr 2022 08:53:24.024    29 Apr 2022 08:53:32.549      8.5250417702    Earth           Penumbra    29            2135.3397122
29 Apr 2022 09:51:32.212    29 Apr 2022 09:51:40.760      8.5477461456    Earth           Penumbra    30            2125.8806783
29 Apr 2022 09:51:40.760    29 Apr 2022 10:26:58.093      2117.3329322    Earth           Umbra       30            2125.8806783
29 Apr 2022 11:25:07.216    29 Apr 2022 11:25:15.776      8.5600757156    Earth           Penumbra    31            2133.4600673
29 Apr 2022 11:25:15.776    29 Apr 2022 12:00:32.125      2116.3486228    Earth           Umbra       31            2133.4600673
29 Apr 2022 12:00:32.125    29 Apr 2022 12:00:40.676      8.5513686994    Earth           Penumbra    31            2133.4600673
29 Apr 2022 12:58:42.281    29 Apr 2022 12:58:50.854      8.5727108060    Earth           Penumbra    32            2132.4707326
29 Apr 2022 12:58:50.854    29 Apr 2022 13:34:06.187      2115.3333362    Earth           Umbra       32            2132.4707326
29 Apr 2022 13:34:06.187    29 Apr 2022 13:34:14.752      8.5646855528    Earth           Penumbra    32            2132.4707326
29 Apr 2022 14:32:17.389    29 Apr 2022 14:32:25.974      8.5857630009    Earth           Penumbra    33            2131.4569710
29 Apr 2022 14:32:25.974    29 Apr 2022 15:07:40.267      2114.2928985    Earth           Umbra       33            2131.4569710
29 Apr 2022 15:07:40.267    29 Apr 2022 15:07:48.846      8.5783094983    Earth           Penumbra    33            2131.4569710
29 Apr 2022 16:05:52.496    29 Apr 2022 16:06:01.095      8.5992087261    Earth           Penumbra    34            2130.4141964
29 Apr 2022 16:06:01.095    29 Apr 2022 16:41:14.318      2113.2226761    Earth           Umbra       34            2130.4141964
29 Apr 2022 16:41:14.318    29 Apr 2022 16:41:22.910      8.5923115723    Earth           Penumbra    34            2130.4141964
29 Apr 2022 17:39:27.604    29 Apr 2022 17:39:36.217      8.6129379692    Earth           Penumbra    35            2120.7320135
29 Apr 2022 17:39:36.217    29 Apr 2022 18:14:48.336      2112.1190755    Earth           Umbra       35            2120.7320135
29 Apr 2022 19:13:02.739    29 Apr 2022 19:13:11.366      8.6268674349    Earth           Penumbra    36            2128.2366785
29 Apr 2022 19:13:11.366    29 Apr 2022 19:48:22.355      2110.9884320    Earth           Umbra       36            2128.2366785
29 Apr 2022 19:48:22.355    29 Apr 2022 19:48:30.976      8.6213790695    Earth           Penumbra    36            2128.2366785
29 Apr 2022 20:46:37.902    29 Apr 2022 20:46:46.543      8.6410603020    Earth           Penumbra    37            2127.1177438
29 Apr 2022 20:46:46.543    29 Apr 2022 21:21:56.383      2109.8401280    Earth           Umbra       37            2127.1177438
29 Apr 2022 21:21:56.383    29 Apr 2022 21:22:05.020      8.6365554482    Earth           Penumbra    37            2127.1177438
29 Apr 2022 22:20:13.047    29 Apr 2022 22:20:21.702      8.6557054776    Earth           Penumbra    38            2125.9874159
29 Apr 2022 22:20:21.702    29 Apr 2022 22:55:30.382      2108.6794571    Earth           Umbra       38            2125.9874159
29 Apr 2022 22:55:30.382    29 Apr 2022 22:55:39.034      8.6522532860    Earth           Penumbra    38            2125.9874159
29 Apr 2022 23:53:56.799    30 Apr 2022 00:29:04.306      2107.5070129    Earth           Umbra       39            2116.1754553
30 Apr 2022 00:29:04.306    30 Apr 2022 00:29:12.975      8.6684424081    Earth           Penumbra    39            2116.1754553
30 Apr 2022 01:27:23.166    30 Apr 2022 01:27:31.853      8.6867035367    Earth           Penumbra    40            2115.0032702
30 Apr 2022 01:27:31.853    30 Apr 2022 02:02:38.170      2106.3165666    Earth           Umbra       40            2115.0032702
30 Apr 2022 03:01:06.956    30 Apr 2022 03:36:12.053      2105.0970962    Earth           Umbra       41            2113.7992905
30 Apr 2022 03:36:12.053    30 Apr 2022 03:36:20.755      8.7021942367    Earth           Penumbra    41            2113.7992905
30 Apr 2022 04:34:33.458    30 Apr 2022 04:34:42.178      8.7199229049    Earth           Penumbra    42            2121.2852267
30 Apr 2022 04:34:42.178    30 Apr 2022 05:09:46.024      2103.8455138    Earth           Umbra       42            2121.2852267
30 Apr 2022 05:09:46.024    30 Apr 2022 05:09:54.744      8.7197899469    Earth           Penumbra    42            2121.2852267
30 Apr 2022 06:08:17.476    30 Apr 2022 06:43:20.047      2102.5709290    Earth           Umbra       43            2111.3087764
30 Apr 2022 06:43:20.047    30 Apr 2022 06:43:28.785      8.7378473952    Earth           Penumbra    43            2111.3087764
30 Apr 2022 07:41:43.980    30 Apr 2022 07:41:52.735      8.7548763840    Earth           Penumbra    44            2118.7891347
30 Apr 2022 07:41:52.735    30 Apr 2022 08:16:54.013      2101.2780023    Earth           Umbra       44            2118.7891347
30 Apr 2022 08:16:54.013    30 Apr 2022 08:17:02.769      8.7562559405    Earth           Penumbra    44            2118.7891347
30 Apr 2022 09:15:27.915    30 Apr 2022 09:50:27.871      2099.9561634    Earth           Umbra       45            2108.7310055
30 Apr 2022 09:50:27.871    30 Apr 2022 09:50:36.646      8.7748420774    Earth           Penumbra    45            2108.7310055
30 Apr 2022 10:48:54.296    30 Apr 2022 10:49:03.087      8.7901617866    Earth           Penumbra    46            2116.1786048
30 Apr 2022 10:49:03.087    30 Apr 2022 11:24:01.681      2098.5949526    Earth           Umbra       46            2116.1786048
30 Apr 2022 11:24:01.681    30 Apr 2022 11:24:10.475      8.7934904499    Earth           Penumbra    46            2116.1786048
30 Apr 2022 12:22:29.513    30 Apr 2022 12:22:38.322      8.8081431692    Earth           Penumbra    47            2114.8185976
30 Apr 2022 12:22:38.322    30 Apr 2022 12:57:35.520      2097.1981855    Earth           Umbra       47            2114.8185976
30 Apr 2022 12:57:35.520    30 Apr 2022 12:57:44.332      8.8122689514    Earth           Penumbra    47            2114.8185976
30 Apr 2022 13:56:04.785    30 Apr 2022 13:56:13.612      8.8265661732    Earth           Penumbra    48            2113.4302410
30 Apr 2022 13:56:13.612    30 Apr 2022 14:31:09.384      2095.7722967    Earth           Umbra       48            2113.4302410
30 Apr 2022 14:31:09.384    30 Apr 2022 14:31:18.215      8.8313781191    Earth           Penumbra    48            2113.4302410
30 Apr 2022 15:29:40.067    30 Apr 2022 15:29:48.912      8.8454506011    Earth           Penumbra    49            2112.0094289
30 Apr 2022 15:29:48.912    30 Apr 2022 16:04:43.225      2094.3130340    Earth           Umbra       49            2112.0094289
30 Apr 2022 16:04:43.225    30 Apr 2022 16:04:52.076      8.8509443100    Earth           Penumbra    49            2112.0094289
30 Apr 2022 17:03:15.351    30 Apr 2022 17:03:24.216      8.8647203869    Earth           Penumbra    50            2110.5509319
30 Apr 2022 17:03:24.216    30 Apr 2022 17:38:17.031      2092.8152688    Earth           Umbra       50            2110.5509319
30 Apr 2022 17:38:17.031    30 Apr 2022 17:38:25.902      8.8709426927    Earth           Penumbra    50            2110.5509319
30 Apr 2022 18:36:50.664    30 Apr 2022 18:36:59.548      8.8842802914    Earth           Penumbra    51            2109.0611545
30 Apr 2022 18:36:59.548    30 Apr 2022 19:11:50.833      2091.2855164    Earth           Umbra       51            2109.0611545
30 Apr 2022 19:11:50.833    30 Apr 2022 19:11:59.725      8.8913578657    Earth           Penumbra    51            2109.0611545
30 Apr 2022 20:10:26.009    30 Apr 2022 20:10:34.913      8.9041444589    Earth           Penumbra    52            2107.5515925
30 Apr 2022 20:10:34.913    30 Apr 2022 20:45:24.648      2089.7351690    Earth           Umbra       52            2107.5515925
30 Apr 2022 20:45:24.648    30 Apr 2022 20:45:33.560      8.9122790960    Earth           Penumbra    52            2107.5515925
30 Apr 2022 21:44:01.348    30 Apr 2022 21:44:10.272      8.9244841947    Earth           Penumbra    53            2097.0941290
30 Apr 2022 21:44:10.272    30 Apr 2022 22:18:58.442      2088.1696449    Earth           Umbra       53            2097.0941290
30 Apr 2022 23:17:36.634    30 Apr 2022 23:17:45.579      8.9454635745    Earth           Penumbra    54            2104.4897066
30 Apr 2022 23:17:45.579    30 Apr 2022 23:52:32.168      2086.5883381    Earth           Umbra       54            2104.4897066
30 Apr 2022 23:52:32.168    30 Apr 2022 23:52:41.124      8.9559050160    Earth           Penumbra    54            2104.4897066
01 May 2022 00:51:11.876    01 May 2022 00:51:20.843      8.9670970570    Earth           Penumbra    55            2102.9308641
01 May 2022 00:51:20.843    01 May 2022 01:26:05.828      2084.9852324    Earth           Umbra       55            2102.9308641
01 May 2022 01:26:05.828    01 May 2022 01:26:14.807      8.9785345830    Earth           Penumbra    55            2102.9308641
01 May 2022 02:24:47.161    01 May 2022 02:24:56.150      8.9893497527    Earth           Penumbra    56            2101.3398589
01 May 2022 02:24:56.150    01 May 2022 02:59:39.499      2083.3488282    Earth           Umbra       56            2101.3398589
01 May 2022 02:59:39.499    01 May 2022 02:59:48.501      9.0016808943    Earth           Penumbra    56            2101.3398589
01 May 2022 03:58:22.571    01 May 2022 03:58:31.583      9.0122370631    Earth           Penumbra    57            2099.7107545
01 May 2022 03:58:31.583    01 May 2022 04:33:13.256      2081.6731427    Earth           Umbra       57            2099.7107545
01 May 2022 04:33:13.256    01 May 2022 04:33:22.281      9.0253747534    Earth           Penumbra    57            2099.7107545
01 May 2022 05:32:07.110    01 May 2022 06:06:47.077      2079.9669620    Earth           Umbra       58            2089.0165825
01 May 2022 06:06:47.077    01 May 2022 06:06:56.127      9.0496205608    Earth           Penumbra    58            2089.0165825
01 May 2022 07:05:33.556    01 May 2022 07:05:42.615      9.0594864800    Earth           Penumbra    59            2096.3739248
01 May 2022 07:05:42.615    01 May 2022 07:40:20.855      2078.2401127    Earth           Umbra       59            2096.3739248
01 May 2022 07:40:20.855    01 May 2022 07:40:29.930      9.0743255918    Earth           Penumbra    59            2096.3739248
01 May 2022 08:39:08.955    01 May 2022 08:39:18.039      9.0833613882    Earth           Penumbra    60            2094.6687056
01 May 2022 08:39:18.039    01 May 2022 09:13:54.525      2076.4860414    Earth           Umbra       60            2094.6687056
01 May 2022 09:13:54.525    01 May 2022 09:14:03.624      9.0993028251    Earth           Penumbra    60            2094.6687056
01 May 2022 10:12:44.337    01 May 2022 10:12:53.444      9.1073309071    Earth           Penumbra    61            2083.7991429
01 May 2022 10:12:53.444    01 May 2022 10:47:28.136      2074.6918120    Earth           Umbra       61            2083.7991429
01 May 2022 11:46:19.782    01 May 2022 11:46:28.913      9.1315962025    Earth           Penumbra    62            2091.1384947
01 May 2022 11:46:28.913    01 May 2022 12:21:01.771      2072.8572864    Earth           Umbra       62            2091.1384947
01 May 2022 12:21:01.771    01 May 2022 12:21:10.920      9.1496121604    Earth           Penumbra    62            2091.1384947
01 May 2022 13:19:55.294    01 May 2022 13:20:04.450      9.1563367518    Earth           Penumbra    63            2089.3202280
01 May 2022 13:20:04.450    01 May 2022 13:54:35.439      2070.9886936    Earth           Umbra       63            2089.3202280
01 May 2022 13:54:35.439    01 May 2022 13:54:44.614      9.1751976055    Earth           Penumbra    63            2089.3202280
01 May 2022 14:53:30.828    01 May 2022 14:53:40.009      9.1816163622    Earth           Penumbra    64            2087.4650530
01 May 2022 14:53:40.009    01 May 2022 15:28:09.091      2069.0821035    Earth           Umbra       64            2087.4650530
01 May 2022 15:28:09.091    01 May 2022 15:28:18.293      9.2013331130    Earth           Penumbra    64            2087.4650530
01 May 2022 16:27:06.369    01 May 2022 16:27:15.577      9.2074029730    Earth           Penumbra    65            2085.5658409
01 May 2022 16:27:15.577    01 May 2022 17:01:42.707      2067.1304177    Earth           Umbra       65            2085.5658409
01 May 2022 17:01:42.707    01 May 2022 17:01:51.935      9.2280202545    Earth           Penumbra    65            2085.5658409
01 May 2022 18:00:41.940    01 May 2022 18:00:51.174      9.2336048023    Earth           Penumbra    66            2083.6284771
01 May 2022 18:00:51.174    01 May 2022 18:35:16.314      2065.1396620    Earth           Umbra       66            2083.6284771
01 May 2022 18:35:16.314    01 May 2022 18:35:25.569      9.2552103102    Earth           Penumbra    66            2083.6284771
01 May 2022 19:34:17.550    01 May 2022 19:34:26.810      9.2601932469    Earth           Penumbra    67            2081.6668503
01 May 2022 19:34:26.810    01 May 2022 20:08:49.934      2063.1236837    Earth           Umbra       67            2081.6668503
01 May 2022 20:08:49.934    01 May 2022 20:08:59.217      9.2829733738    Earth           Penumbra    67            2081.6668503
01 May 2022 21:07:53.166    01 May 2022 21:08:02.453      9.2873059795    Earth           Penumbra    68            2079.6876255
01 May 2022 21:08:02.453    01 May 2022 21:42:23.542      2061.0888850    Earth           Umbra       68            2079.6876255
01 May 2022 21:42:23.542    01 May 2022 21:42:32.853      9.3114345451    Earth           Penumbra    68            2079.6876255
01 May 2022 22:41:28.740    01 May 2022 22:41:38.055      9.3151407083    Earth           Penumbra    69            2077.6888993
01 May 2022 22:41:38.055    01 May 2022 23:15:57.088      2059.0331465    Earth           Umbra       69            2077.6888993
01 May 2022 23:15:57.088    01 May 2022 23:16:06.429      9.3406120548    Earth           Penumbra    69            2077.6888993
02 May 2022 00:15:04.272    02 May 2022 00:15:13.616      9.3437540112    Earth           Penumbra    70            2075.6642086
02 May 2022 00:15:13.616    02 May 2022 00:49:30.566      2056.9500294    Earth           Umbra       70            2075.6642086
02 May 2022 00:49:30.566    02 May 2022 00:49:39.936      9.3704251223    Earth           Penumbra    70            2075.6642086
02 May 2022 01:48:39.844    02 May 2022 01:48:49.217      9.3730984256    Earth           Penumbra    71            2073.6019709
02 May 2022 01:48:49.217    02 May 2022 02:23:04.045      2054.8280421    Earth           Umbra       71            2073.6019709
02 May 2022 02:23:04.045    02 May 2022 02:23:13.446      9.4008303713    Earth           Penumbra    71            2073.6019709
02 May 2022 03:22:15.545    02 May 2022 03:22:24.948      9.4031673507    Earth           Penumbra    72            2071.4935975
02 May 2022 03:22:24.948    02 May 2022 03:56:37.607      2052.6585624    Earth           Umbra       72            2071.4935975
02 May 2022 03:56:37.607    02 May 2022 03:56:47.039      9.4318677206    Earth           Penumbra    72            2071.4935975
02 May 2022 04:55:51.361    02 May 2022 04:56:00.795      9.4339302974    Earth           Penumbra    73            2069.3463003
02 May 2022 04:56:00.795    02 May 2022 05:30:11.244      2050.4487977    Earth           Umbra       73            2069.3463003
02 May 2022 05:30:11.244    02 May 2022 05:30:20.707      9.4635723741    Earth           Penumbra    73            2069.3463003
02 May 2022 06:29:27.174    02 May 2022 06:29:36.639      9.4651732128    Earth           Penumbra    74            2067.1740404
02 May 2022 06:29:36.639    02 May 2022 07:03:44.852      2048.2129870    Earth           Umbra       74            2067.1740404
02 May 2022 07:03:44.852    02 May 2022 07:03:54.348      9.4958802103    Earth           Penumbra    74            2067.1740404
02 May 2022 08:03:02.906    02 May 2022 08:03:12.403      9.4966132077    Earth           Penumbra    75            2055.4467039
02 May 2022 08:03:12.403    02 May 2022 08:37:18.353      2045.9500907    Earth           Umbra       75            2055.4467039
02 May 2022 09:36:38.609    02 May 2022 09:36:48.138      9.5281867892    Earth           Penumbra    76            2062.7360691
02 May 2022 09:36:48.138    02 May 2022 10:10:51.784      2043.6463838    Earth           Umbra       76            2062.7360691
02 May 2022 10:10:51.784    02 May 2022 10:11:01.345      9.5614985679    Earth           Penumbra    76            2062.7360691
02 May 2022 11:10:14.376    02 May 2022 11:10:23.936      9.5600740635    Earth           Penumbra    77            2060.4521673
02 May 2022 11:10:23.936    02 May 2022 11:44:25.234      2041.2975231    Earth           Umbra       77            2060.4521673
02 May 2022 11:44:25.234    02 May 2022 11:44:34.828      9.5945702051    Earth           Penumbra    77            2060.4521673
02 May 2022 12:43:50.223    02 May 2022 12:43:59.815      9.5924831112    Earth           Penumbra    78            2058.1291177
02 May 2022 12:43:59.815    02 May 2022 13:17:58.724      2038.9085914    Earth           Umbra       78            2058.1291177
02 May 2022 13:17:58.724    02 May 2022 13:18:08.352      9.6280432306    Earth           Penumbra    78            2058.1291177
02 May 2022 14:17:26.105    02 May 2022 14:17:35.731      9.6255280310    Earth           Penumbra    79            2055.7634377
02 May 2022 14:17:35.731    02 May 2022 14:51:32.206      2036.4757261    Earth           Umbra       79            2055.7634377
02 May 2022 14:51:32.206    02 May 2022 14:51:41.869      9.6621835604    Earth           Penumbra    79            2055.7634377
02 May 2022 15:51:02.003    02 May 2022 15:51:11.662      9.6592279966    Earth           Penumbra    80            2053.3456416
02 May 2022 15:51:11.662    02 May 2022 16:25:05.651      2033.9893718    Earth           Umbra       80            2053.3456416
02 May 2022 16:25:05.651    02 May 2022 16:25:15.348      9.6970418002    Earth           Penumbra    80            2053.3456416
02 May 2022 17:24:37.933    02 May 2022 17:24:47.627      9.6935151145    Earth           Penumbra    81            2050.8802047
02 May 2022 17:24:47.627    02 May 2022 17:58:39.081      2031.4541515    Earth           Umbra       81            2050.8802047
02 May 2022 17:58:39.081    02 May 2022 17:58:48.814      9.7325381124    Earth           Penumbra    81            2050.8802047
02 May 2022 18:58:13.909    02 May 2022 18:58:23.638      9.7283262061    Earth           Penumbra    82            2048.3836239
02 May 2022 18:58:23.638    02 May 2022 19:32:12.524      2028.8865878    Earth           Umbra       82            2048.3836239
02 May 2022 19:32:12.524    02 May 2022 19:32:22.293      9.7687099013    Earth           Penumbra    82            2048.3836239
02 May 2022 20:31:49.903    02 May 2022 20:31:59.667      9.7637558822    Earth           Penumbra    83            2045.8646509
02 May 2022 20:31:59.667    02 May 2022 21:05:45.962      2026.2951816    Earth           Umbra       83            2045.8646509
02 May 2022 21:05:45.962    02 May 2022 21:05:55.768      9.8057133844    Earth           Penumbra    83            2045.8646509
02 May 2022 22:05:25.869    02 May 2022 22:05:35.669      9.8000194528    Earth           Penumbra    84            2043.3198815
02 May 2022 22:05:35.669    02 May 2022 22:39:19.346      2023.6762503    Earth           Umbra       84            2043.3198815
02 May 2022 22:39:19.346    02 May 2022 22:39:29.189      9.8436117405    Earth           Penumbra    84            2043.3198815
02 May 2022 23:39:01.800    02 May 2022 23:39:11.637      9.8372231587    Earth           Penumbra    85            2040.7416221
02 May 2022 23:39:11.637    03 May 2022 00:12:52.659      2021.0220874    Earth           Umbra       85            2040.7416221
03 May 2022 00:12:52.659    03 May 2022 00:13:02.542      9.8823116161    Earth           Penumbra    85            2040.7416221
03 May 2022 01:12:37.768    03 May 2022 01:12:47.643      9.8753226805    Earth           Penumbra    86            2038.1185295
03 May 2022 01:12:47.643    03 May 2022 01:46:25.964      2018.3214784    Earth           Umbra       86            2038.1185295
03 May 2022 01:46:25.964    03 May 2022 01:46:35.886      9.9217284587    Earth           Penumbra    86            2038.1185295
03 May 2022 02:46:13.870    03 May 2022 02:46:23.785      9.9142793566    Earth           Penumbra    87            2035.4399218
03 May 2022 02:46:23.785    03 May 2022 03:19:59.348      2015.5637528    Earth           Umbra       87            2035.4399218
03 May 2022 03:19:59.348    03 May 2022 03:20:09.310      9.9618896144    Earth           Penumbra    87            2035.4399218
03 May 2022 04:19:50.109    03 May 2022 04:20:00.064      9.9540881580    Earth           Penumbra    88            2032.7104113
03 May 2022 04:20:00.064    03 May 2022 04:53:32.817      2012.7534501    Earth           Umbra       88            2032.7104113
03 May 2022 04:53:32.817    03 May 2022 04:53:42.820      10.002873035    Earth           Penumbra    88            2032.7104113
03 May 2022 05:53:26.369    03 May 2022 05:53:36.363      9.9945758935    Earth           Penumbra    89            2029.9471622
03 May 2022 05:53:36.363    03 May 2022 06:27:06.271      2009.9079299    Earth           Umbra       89            2029.9471622
03 May 2022 06:27:06.271    03 May 2022 06:27:16.316      10.044656403    Earth           Penumbra    89            2029.9471622
03 May 2022 07:27:02.552    03 May 2022 07:27:12.588      10.035433271    Earth           Penumbra    90            2027.1552369
03 May 2022 07:27:12.588    03 May 2022 08:00:39.621      2007.0327635    Earth           Umbra       90            2027.1552369
03 May 2022 08:00:39.621    03 May 2022 08:00:49.708      10.087040125    Earth           Penumbra    90            2027.1552369
03 May 2022 09:00:38.698    03 May 2022 09:00:48.775      10.076509730    Earth           Penumbra    91            2024.3218485
03 May 2022 09:00:48.775    03 May 2022 09:34:12.890      2004.1155912    Earth           Umbra       91            2024.3218485
03 May 2022 09:34:12.890    03 May 2022 09:34:23.020      10.129747598    Earth           Penumbra    91            2024.3218485
03 May 2022 10:34:14.905    03 May 2022 10:34:25.023      10.117943573    Earth           Penumbra    92            2021.4388505
03 May 2022 10:34:25.023    03 May 2022 11:07:46.171      2001.1482249    Earth           Umbra       92            2021.4388505
03 May 2022 11:07:46.171    03 May 2022 11:07:56.344      10.172682011    Earth           Penumbra    92            2021.4388505
03 May 2022 12:07:51.205    03 May 2022 12:08:01.365      10.159977141    Earth           Penumbra    93            2018.5096934
03 May 2022 12:08:01.365    03 May 2022 12:41:19.498      1998.1336340    Earth           Umbra       93            2018.5096934
03 May 2022 12:41:19.498    03 May 2022 12:41:29.714      10.216082248    Earth           Penumbra    93            2018.5096934
03 May 2022 13:41:27.557    03 May 2022 13:41:37.760      10.202773253    Earth           Penumbra    94            2015.5305932
03 May 2022 13:41:37.760    03 May 2022 14:14:52.828      1995.0675180    Earth           Umbra       94            2015.5305932
03 May 2022 14:14:52.828    03 May 2022 14:15:03.088      10.260301922    Earth           Penumbra    94            2015.5305932
03 May 2022 15:15:03.936    03 May 2022 15:15:14.182      10.246411746    Earth           Penumbra    95            2012.4891278
03 May 2022 15:15:14.182    03 May 2022 15:48:26.119      1991.9372493    Earth           Umbra       95            2012.4891278
03 May 2022 15:48:26.119    03 May 2022 15:48:36.425      10.305466759    Earth           Penumbra    95            2012.4891278
03 May 2022 16:48:40.354    03 May 2022 16:48:50.644      10.290871875    Earth           Penumbra    96            2009.3871924
03 May 2022 16:48:50.644    03 May 2022 17:21:59.389      1988.7448390    Earth           Umbra       96            2009.3871924
03 May 2022 17:21:59.389    03 May 2022 17:22:09.741      10.351481522    Earth           Penumbra    96            2009.3871924
03 May 2022 18:22:16.825    03 May 2022 18:22:27.161      10.336075060    Earth           Penumbra    97            2006.2438027
03 May 2022 18:22:27.161    03 May 2022 18:55:32.670      1985.5093940    Earth           Umbra       97            2006.2438027
03 May 2022 18:55:32.670    03 May 2022 18:55:43.069      10.398333636    Earth           Penumbra    97            2006.2438027
03 May 2022 19:55:53.328    03 May 2022 19:56:03.710      10.382060276    Earth           Penumbra    98            2003.0710808
03 May 2022 19:56:03.710    03 May 2022 20:29:05.953      1982.2428189    Earth           Umbra       98            2003.0710808
03 May 2022 20:29:05.953    03 May 2022 20:29:16.399      10.446201637    Earth           Penumbra    98            2003.0710808
03 May 2022 21:29:29.820    03 May 2022 21:29:40.249      10.429044405    Earth           Penumbra    99            1999.8644773
03 May 2022 21:29:40.249    03 May 2022 22:02:39.189      1978.9402226    Earth           Umbra       99            1999.8644773
03 May 2022 22:02:39.189    03 May 2022 22:02:49.684      10.495210311    Earth           Penumbra    99            1999.8644773
03 May 2022 23:03:06.285    03 May 2022 23:03:16.762      10.477190581    Earth           Penumbra    100           1996.6140804
03 May 2022 23:03:16.762    03 May 2022 23:36:12.354      1975.5916156    Earth           Umbra       100           1996.6140804
03 May 2022 23:36:12.354    03 May 2022 23:36:22.899      10.545274161    Earth           Penumbra    100           1996.6140804
04 May 2022 00:36:42.789    04 May 2022 00:36:53.316      10.526466428    Earth           Penumbra    101           1993.3087586
04 May 2022 00:36:53.316    04 May 2022 01:09:45.502      1972.1860435    Earth           Umbra       101           1993.3087586
04 May 2022 01:09:45.502    04 May 2022 01:09:56.098      10.596248601    Earth           Penumbra    101           1993.3087586
04 May 2022 02:10:19.434    04 May 2022 02:10:30.011      10.576803423    Earth           Penumbra    102           1989.9366117
04 May 2022 02:10:30.011    04 May 2022 02:43:18.723      1968.7116750    Earth           Umbra       102           1989.9366117
04 May 2022 02:43:18.723    04 May 2022 02:43:29.371      10.648133315    Earth           Penumbra    102           1989.9366117
04 May 2022 03:43:56.239    04 May 2022 03:44:06.868      10.628206911    Earth           Penumbra    103           1986.4988642
04 May 2022 03:44:06.868    04 May 2022 04:16:52.037      1965.1696067    Earth           Umbra       103           1986.4988642
04 May 2022 04:16:52.037    04 May 2022 04:17:02.738      10.701050574    Earth           Penumbra    103           1986.4988642
04 May 2022 05:17:33.093    04 May 2022 05:17:43.773      10.680563736    Earth           Penumbra    104           1983.0140960
04 May 2022 05:17:43.773    04 May 2022 05:50:25.352      1961.5784885    Earth           Umbra       104           1983.0140960
04 May 2022 05:50:25.352    04 May 2022 05:50:36.107      10.755043756    Earth           Penumbra    104           1983.0140960
04 May 2022 06:51:09.881    04 May 2022 06:51:20.615      10.733549518    Earth           Penumbra    105           1979.4944296
04 May 2022 06:51:20.615    04 May 2022 07:23:58.566      1957.9509562    Earth           Umbra       105           1979.4944296
04 May 2022 07:23:58.566    04 May 2022 07:24:09.376      10.809923953    Earth           Penumbra    105           1979.4944296
04 May 2022 08:24:46.624    04 May 2022 08:24:57.411      10.786919715    Earth           Penumbra    106           1975.9308114
04 May 2022 08:24:57.411    04 May 2022 08:57:31.689      1954.2785498    Earth           Umbra       106           1975.9308114
04 May 2022 08:57:31.689    04 May 2022 08:57:42.554      10.865341953    Earth           Penumbra    106           1975.9308114
04 May 2022 09:58:23.424    04 May 2022 09:58:34.265      10.840743163    Earth           Penumbra    107           1972.3122832
04 May 2022 09:58:34.265    04 May 2022 10:31:04.815      1950.5504324    Earth           Umbra       107           1972.3122832
04 May 2022 10:31:04.815    04 May 2022 10:31:15.736      10.921107593    Earth           Penumbra    107           1972.3122832
04 May 2022 11:32:00.332    04 May 2022 11:32:11.227      10.895282950    Earth           Penumbra    108           1968.6394106
04 May 2022 11:32:11.227    04 May 2022 12:04:37.994      1946.7666890    Earth           Umbra       108           1968.6394106
04 May 2022 12:04:37.994    04 May 2022 12:04:48.971      10.977438698    Earth           Penumbra    108           1968.6394106
04 May 2022 13:05:37.312    04 May 2022 13:05:48.263      10.950769787    Earth           Penumbra    109           1964.9073262
04 May 2022 13:05:48.263    04 May 2022 13:38:11.185      1942.9217616    Earth           Umbra       109           1964.9073262
04 May 2022 13:38:11.185    04 May 2022 13:38:22.220      11.034794804    Earth           Penumbra    109           1964.9073262
04 May 2022 14:39:14.333    04 May 2022 14:39:25.340      11.007352977    Earth           Penumbra    110           1961.0998669
04 May 2022 14:39:25.340    04 May 2022 15:11:44.339      1938.9990941    Earth           Umbra       110           1961.0998669
04 May 2022 15:11:44.339    04 May 2022 15:11:55.433      11.093419825    Earth           Penumbra    110           1961.0998669
04 May 2022 16:12:51.403    04 May 2022 16:13:02.468      11.065079982    Earth           Penumbra    111           1957.2148058
04 May 2022 16:13:02.468    04 May 2022 16:45:17.465      1934.9965045    Earth           Umbra       111           1957.2148058
04 May 2022 16:45:17.465    04 May 2022 16:45:28.618      11.153221352    Earth           Penumbra    111           1957.2148058
04 May 2022 17:46:28.539    04 May 2022 17:46:39.662      11.123887938    Earth           Penumbra    112           1953.2731237
04 May 2022 17:46:39.662    04 May 2022 18:18:50.598      1930.9351137    Earth           Umbra       112           1953.2731237
04 May 2022 18:18:50.598    04 May 2022 18:19:01.812      11.214122060    Earth           Penumbra    112           1953.2731237
04 May 2022 19:20:05.722    04 May 2022 19:20:16.906      11.183763016    Earth           Penumbra    113           1949.2917363
04 May 2022 19:20:16.906    04 May 2022 19:52:23.737      1926.8316668    Earth           Umbra       113           1949.2917363
04 May 2022 19:52:23.737    04 May 2022 19:52:35.014      11.276306456    Earth           Penumbra    113           1949.2917363
04 May 2022 20:53:42.913    04 May 2022 20:53:54.157      11.244895379    Earth           Penumbra    114           1945.2658227
04 May 2022 20:53:54.157    04 May 2022 21:25:56.838      1922.6809431    Earth           Umbra       114           1945.2658227
04 May 2022 21:25:56.838    04 May 2022 21:26:08.178      11.339984194    Earth           Penumbra    114           1945.2658227
04 May 2022 22:27:20.092    04 May 2022 22:27:31.399      11.307501595    Earth           Penumbra    115           1941.1822346
04 May 2022 22:27:31.399    04 May 2022 22:59:29.869      1918.4696362    Earth           Umbra       115           1941.1822346
04 May 2022 22:59:29.869    04 May 2022 22:59:41.274      11.405096808    Earth           Penumbra    115           1941.1822346
05 May 2022 00:00:57.315    05 May 2022 00:01:08.687      11.371584493    Earth           Penumbra    116           1937.0296529
05 May 2022 00:01:08.687    05 May 2022 00:33:02.874      1914.1866360    Earth           Umbra       116           1937.0296529
05 May 2022 00:33:02.874    05 May 2022 00:33:14.345      11.471432447    Earth           Penumbra    116           1937.0296529
05 May 2022 01:34:34.689    05 May 2022 01:34:46.126      11.437040032    Earth           Penumbra    117           1932.7960773
05 May 2022 01:34:46.126    05 May 2022 02:06:35.946      1909.8201024    Earth           Umbra       117           1932.7960773
05 May 2022 02:06:35.946    05 May 2022 02:06:47.485      11.538934847    Earth           Penumbra    117           1932.7960773
05 May 2022 03:08:12.247    05 May 2022 03:08:23.751      11.503877642    Earth           Penumbra    118           1928.4790452
05 May 2022 03:08:23.751    05 May 2022 03:40:09.118      1905.3673976    Earth           Umbra       118           1928.4790452
05 May 2022 03:40:09.118    05 May 2022 03:40:20.726      11.607769970    Earth           Penumbra    118           1928.4790452
05 May 2022 04:41:49.888    05 May 2022 04:42:01.460      11.572057090    Earth           Penumbra    119           1924.0962342
05 May 2022 04:42:01.460    05 May 2022 05:13:42.306      1900.8460978    Earth           Umbra       119           1924.0962342
05 May 2022 05:13:42.306    05 May 2022 05:13:53.984      11.678079260    Earth           Penumbra    119           1924.0962342
05 May 2022 06:15:27.482    05 May 2022 06:15:39.123      11.641271913    Earth           Penumbra    120           1919.6663805
05 May 2022 06:15:39.123    05 May 2022 06:47:15.398      1896.2753971    Earth           Umbra       120           1919.6663805
05 May 2022 06:47:15.398    05 May 2022 06:47:27.148      11.749711528    Earth           Penumbra    120           1919.6663805
05 May 2022 07:49:05.025    05 May 2022 07:49:16.736      11.711161584    Earth           Penumbra    121           1915.1868773
05 May 2022 07:49:16.736    05 May 2022 08:20:48.390      1891.6534793    Earth           Umbra       121           1915.1868773
05 May 2022 08:20:48.390    05 May 2022 08:21:00.212      11.822236469    Earth           Penumbra    121           1915.1868773
05 May 2022 09:22:42.623    05 May 2022 09:22:54.405      11.781689955    Earth           Penumbra    122           1910.6462144
05 May 2022 09:22:54.405    05 May 2022 09:54:21.374      1886.9691998    Earth           Umbra       122           1910.6462144
05 May 2022 09:54:21.374    05 May 2022 09:54:33.270      11.895324674    Earth           Penumbra    122           1910.6462144
05 May 2022 10:56:20.343    05 May 2022 10:56:32.196      11.853134574    Earth           Penumbra    123           1906.0417867
05 May 2022 10:56:32.196    05 May 2022 11:27:54.416      1882.2195021    Earth           Umbra       123           1906.0417867
05 May 2022 11:27:54.416    05 May 2022 11:28:06.385      11.969149963    Earth           Penumbra    123           1906.0417867
05 May 2022 12:29:58.159    05 May 2022 12:30:10.085      11.925810075    Earth           Penumbra    124           1901.3665251
05 May 2022 12:30:10.085    05 May 2022 13:01:27.481      1877.3964193    Earth           Umbra       124           1901.3665251
05 May 2022 13:01:27.481    05 May 2022 13:01:39.526      12.044295715    Earth           Penumbra    124           1901.3665251
05 May 2022 14:03:36.035    05 May 2022 14:03:48.035      11.999950942    Earth           Penumbra    125           1896.5993304
05 May 2022 14:03:48.035    05 May 2022 14:35:00.513      1872.4781963    Earth           Umbra       125           1896.5993304
05 May 2022 14:35:00.513    05 May 2022 14:35:12.635      12.121183123    Earth           Penumbra    125           1896.5993304
05 May 2022 15:37:13.977    05 May 2022 15:37:26.052      12.075697049    Earth           Penumbra    126           1891.7318358
05 May 2022 15:37:26.052    05 May 2022 16:08:33.509      1867.4563788    Earth           Umbra       126           1891.7318358
05 May 2022 16:08:33.509    05 May 2022 16:08:45.709      12.199760007    Earth           Penumbra    126           1891.7318358
05 May 2022 17:10:52.000    05 May 2022 17:11:04.153      12.153045251    Earth           Penumbra    127           1886.7857851
05 May 2022 17:11:04.153    05 May 2022 17:42:06.505      1862.3528687    Earth           Umbra       127           1886.7857851
05 May 2022 17:42:06.505    05 May 2022 17:42:18.785      12.279871095    Earth           Penumbra    127           1886.7857851
05 May 2022 18:44:30.091    05 May 2022 18:44:42.322      12.231949030    Earth           Penumbra    128           1881.7842516
05 May 2022 18:44:42.322    05 May 2022 19:15:39.513      1857.1906199    Earth           Umbra       128           1881.7842516
05 May 2022 19:15:39.513    05 May 2022 19:15:51.875      12.361682660    Earth           Penumbra    128           1881.7842516
05 May 2022 20:18:08.212    05 May 2022 20:18:20.525      12.312546372    Earth           Penumbra    129           1876.7236914
05 May 2022 20:18:20.525    05 May 2022 20:49:12.490      1851.9656369    Earth           Umbra       129           1876.7236914
05 May 2022 20:49:12.490    05 May 2022 20:49:24.936      12.445508083    Earth           Penumbra    129           1876.7236914
05 May 2022 21:51:46.343    05 May 2022 21:51:58.738      12.395088107    Earth           Penumbra    130           1871.5869186
05 May 2022 21:51:58.738    05 May 2022 22:22:45.398      1846.6604699    Earth           Umbra       130           1871.5869186
05 May 2022 22:22:45.398    05 May 2022 22:22:57.930      12.531360565    Earth           Penumbra    130           1871.5869186
05 May 2022 23:25:24.530    05 May 2022 23:25:37.010      12.479627982    Earth           Penumbra    131           1866.3615999
05 May 2022 23:25:37.010    05 May 2022 23:56:18.273      1841.2630226    Earth           Umbra       131           1866.3615999
05 May 2022 23:56:18.273    05 May 2022 23:56:30.892      12.618949357    Earth           Penumbra    131           1866.3615999
06 May 2022 00:59:02.879    06 May 2022 00:59:15.445      12.566037441    Earth           Penumbra    132           1861.0369579
06 May 2022 00:59:15.445    06 May 2022 01:29:51.208      1835.7628000    Earth           Umbra       132           1861.0369579
06 May 2022 01:29:51.208    06 May 2022 01:30:03.916      12.708120444    Earth           Penumbra    132           1861.0369579
06 May 2022 02:32:41.442    06 May 2022 02:32:54.096      12.654318684    Earth           Penumbra    133           1855.6071999
06 May 2022 02:32:54.096    06 May 2022 03:03:24.250      1830.1538037    Earth           Umbra       133           1855.6071999
06 May 2022 03:03:24.250    06 May 2022 03:03:37.049      12.799077504    Earth           Penumbra    133           1855.6071999
06 May 2022 04:06:20.129    06 May 2022 04:06:32.873      12.744530488    Earth           Penumbra    134           1850.0863274
06 May 2022 04:06:32.873    06 May 2022 04:36:57.323      1824.4496872    Earth           Umbra       134           1850.0863274
06 May 2022 04:36:57.323    06 May 2022 04:37:10.215      12.892109714    Earth           Penumbra    134           1850.0863274
06 May 2022 05:39:58.795    06 May 2022 05:40:11.631      12.836426741    Earth           Penumbra    135           1844.4978531
06 May 2022 05:40:11.631    06 May 2022 06:10:30.306      1818.6742715    Earth           Umbra       135           1844.4978531
06 May 2022 06:10:30.306    06 May 2022 06:10:43.293      12.987154839    Earth           Penumbra    135           1844.4978531
06 May 2022 07:13:37.413    06 May 2022 07:13:50.342      12.929521815    Earth           Penumbra    136           1838.8482226
06 May 2022 07:13:50.342    06 May 2022 07:44:03.177      1812.8350075    Earth           Umbra       136           1838.8482226
06 May 2022 07:44:03.177    06 May 2022 07:44:16.261      13.083693304    Earth           Penumbra    136           1838.8482226
06 May 2022 08:47:16.083    06 May 2022 08:47:29.107      13.023609517    Earth           Penumbra    137           1833.1291362
06 May 2022 08:47:29.107    06 May 2022 09:17:36.031      1806.9243324    Earth           Umbra       137           1833.1291362
06 May 2022 09:17:36.031    06 May 2022 09:17:49.212      13.181194221    Earth           Penumbra    137           1833.1291362
06 May 2022 10:20:54.890    06 May 2022 10:21:08.009      13.118960476    Earth           Penumbra    138           1827.3356037
06 May 2022 10:21:08.009    06 May 2022 10:51:08.945      1800.9369077    Earth           Umbra       138           1827.3356037
06 May 2022 10:51:08.945    06 May 2022 10:51:22.225      13.279735541    Earth           Penumbra    138           1827.3356037
06 May 2022 11:54:33.821    06 May 2022 11:54:47.037      13.216010341    Earth           Penumbra    139           1821.4569621
06 May 2022 11:54:47.037    06 May 2022 12:24:41.898      1794.8608999    Earth           Umbra       139           1821.4569621
06 May 2022 12:24:41.898    06 May 2022 12:24:55.278      13.380051835    Earth           Penumbra    139           1821.4569621
06 May 2022 13:28:12.839    06 May 2022 13:28:26.154      13.315117441    Earth           Penumbra    140           1815.4653185
06 May 2022 13:28:26.154    06 May 2022 13:58:14.821      1788.6673664    Earth           Umbra       140           1815.4653185
06 May 2022 13:58:14.821    06 May 2022 13:58:28.304      13.482834608    Earth           Penumbra    140           1815.4653185
06 May 2022 15:01:51.944    06 May 2022 15:02:05.361      13.416536059    Earth           Penumbra    141           1809.3434980
06 May 2022 15:02:05.361    06 May 2022 15:31:47.699      1782.3388159    Earth           Umbra       141           1809.3434980
06 May 2022 15:31:47.699    06 May 2022 15:32:01.288      13.588146097    Earth           Penumbra    141           1809.3434980
06 May 2022 16:35:31.154    06 May 2022 16:35:44.675      13.520378096    Earth           Penumbra    142           1803.1119065
06 May 2022 16:35:44.675    06 May 2022 17:05:20.570      1775.8957939    Earth           Umbra       142           1803.1119065
06 May 2022 17:05:20.570    06 May 2022 17:05:34.266      13.695734530    Earth           Penumbra    142           1803.1119065
06 May 2022 18:09:10.460    06 May 2022 18:09:24.086      13.626618404    Earth           Penumbra    143           1796.8007987
06 May 2022 18:09:24.086    06 May 2022 18:38:53.455      1769.3684647    Earth           Umbra       143           1796.8007987
06 May 2022 18:38:53.455    06 May 2022 18:39:07.260      13.805715577    Earth           Penumbra    143           1796.8007987
06 May 2022 19:42:49.825    06 May 2022 19:43:03.561      13.735336193    Earth           Penumbra    144           1790.4101961
06 May 2022 19:43:03.561    06 May 2022 20:12:26.317      1762.7563265    Earth           Umbra       144           1790.4101961
06 May 2022 20:12:26.317    06 May 2022 20:12:40.236      13.918533374    Earth           Penumbra    144           1790.4101961
06 May 2022 21:16:29.229    06 May 2022 21:16:43.076      13.846774120    Earth           Penumbra    145           1783.9186844
06 May 2022 21:16:43.076    06 May 2022 21:45:59.113      1756.0375806    Earth           Umbra       145           1783.9186844
06 May 2022 21:45:59.113    06 May 2022 21:46:13.148      14.034329681    Earth           Penumbra    145           1783.9186844
06 May 2022 22:50:08.709    06 May 2022 22:50:22.670      13.961031509    Earth           Penumbra    146           1777.3118302
06 May 2022 22:50:22.670    06 May 2022 23:19:31.868      1749.1980560    Earth           Umbra       146           1777.3118302
06 May 2022 23:19:31.868    06 May 2022 23:19:46.021      14.152742713    Earth           Penumbra    146           1777.3118302
07 May 2022 00:23:48.368    07 May 2022 00:24:02.446      14.077981689    Earth           Penumbra    147           1770.5815437
07 May 2022 00:24:02.446    07 May 2022 00:53:04.676      1742.2301073    Earth           Umbra       147           1770.5815437
07 May 2022 00:53:04.676    07 May 2022 00:53:18.950      14.273454691    Earth           Penumbra    147           1770.5815437
07 May 2022 01:57:28.275    07 May 2022 01:57:42.473      14.197624975    Earth           Penumbra    148           1763.7199632
07 May 2022 01:57:42.473    07 May 2022 02:26:37.598      1735.1256523    Earth           Umbra       148           1763.7199632
07 May 2022 02:26:37.598    07 May 2022 02:26:51.995      14.396685956    Earth           Penumbra    148           1763.7199632
07 May 2022 03:31:08.355    07 May 2022 03:31:22.676      14.320160646    Earth           Penumbra    149           1756.7342242
07 May 2022 03:31:22.676    07 May 2022 04:00:10.567      1727.8911091    Earth           Umbra       149           1756.7342242
07 May 2022 04:00:10.567    07 May 2022 04:00:25.090      14.522954507    Earth           Penumbra    149           1756.7342242
07 May 2022 05:04:48.455    07 May 2022 05:05:02.901      14.445475547    Earth           Penumbra    150           1749.6487444
07 May 2022 05:05:02.901    07 May 2022 05:33:43.452      1720.5508831    Earth           Umbra       150           1749.6487444
07 May 2022 05:33:43.452    07 May 2022 05:33:58.104      14.652385761    Earth           Penumbra    150           1749.6487444
07 May 2022 06:38:28.517    07 May 2022 06:38:43.090      14.572955493    Earth           Penumbra    151           1742.4809408
07 May 2022 06:38:43.090    07 May 2022 07:07:16.214      1713.1236084    Earth           Umbra       151           1742.4809408
07 May 2022 07:07:16.214    07 May 2022 07:07:30.998      14.784376847    Earth           Penumbra    151           1742.4809408
07 May 2022 08:12:08.632    07 May 2022 08:12:23.334      14.702125231    Earth           Penumbra    152           1735.2315201
07 May 2022 08:12:23.334    07 May 2022 08:40:48.945      1705.6113001    Earth           Umbra       152           1735.2315201
07 May 2022 08:40:48.945    07 May 2022 08:41:03.864      14.918094815    Earth           Penumbra    152           1735.2315201
07 May 2022 09:45:48.899    07 May 2022 09:46:03.732      14.833191270    Earth           Penumbra    153           1727.8959722
07 May 2022 09:46:03.732    07 May 2022 10:14:21.741      1698.0093592    Earth           Umbra       153           1727.8959722
07 May 2022 10:14:21.741    07 May 2022 10:14:36.795      15.053421794    Earth           Penumbra    153           1727.8959722
07 May 2022 11:19:29.324    07 May 2022 11:19:44.290      14.966788224    Earth           Penumbra    154           1720.4585663
07 May 2022 11:19:44.290    07 May 2022 11:47:54.591      1690.3004994    Earth           Umbra       154           1720.4585663
07 May 2022 11:47:54.591    07 May 2022 11:48:09.782      15.191278746    Earth           Penumbra    154           1720.4585663
07 May 2022 12:53:09.869    07 May 2022 12:53:24.973      15.103485645    Earth           Penumbra    155           1712.8816143
07 May 2022 12:53:24.973    07 May 2022 13:21:27.418      1682.4453393    Earth           Umbra       155           1712.8816143
07 May 2022 13:21:27.418    07 May 2022 13:21:42.751      15.332789370    Earth           Penumbra    155           1712.8816143
07 May 2022 14:26:50.534    07 May 2022 14:27:05.778      15.243692463    Earth           Penumbra    156           1705.1355300
07 May 2022 14:27:05.778    07 May 2022 14:55:00.191      1674.4135693    Earth           Umbra       156           1705.1355300
07 May 2022 14:55:00.191    07 May 2022 14:55:15.670      15.478268301    Earth           Penumbra    156           1705.1355300
07 May 2022 16:00:31.337    07 May 2022 16:00:46.725      15.387688740    Earth           Penumbra    157           1697.2362050
07 May 2022 16:00:46.725    07 May 2022 16:28:32.946      1666.2211405    Earth           Umbra       157           1697.2362050
07 May 2022 16:28:32.946    07 May 2022 16:28:48.573      15.627375757    Earth           Penumbra    157           1697.2362050
07 May 2022 17:34:12.272    07 May 2022 17:34:27.808      15.535576630    Earth           Penumbra    158           1689.2212927
07 May 2022 17:34:27.808    07 May 2022 18:02:05.714      1657.9056049    Earth           Umbra       158           1689.2212927
07 May 2022 18:02:05.714    07 May 2022 18:02:21.494      15.780111111    Earth           Penumbra    158           1689.2212927
07 May 2022 19:07:53.308    07 May 2022 19:08:08.995      15.687425598    Earth           Penumbra    159           1681.0972703
07 May 2022 19:08:08.995    07 May 2022 19:35:38.468      1649.4727611    Earth           Umbra       159           1681.0972703
07 May 2022 19:35:38.468    07 May 2022 19:35:54.405      15.937083517    Earth           Penumbra    159           1681.0972703
07 May 2022 20:41:34.419    07 May 2022 20:41:50.262      15.843422664    Earth           Penumbra    160           1672.8394774
