GMAT/Constellation/Eclipses/eclipse8.txt

Spacecraft: HSEYE8

Start Time (UTC)            Stop Time (UTC)               Duration (s)    Occ Body        Type        Event Number  Total Duration (s)
27 Apr 2022 11:59:28.000    27 Apr 2022 12:05:56.555      388.55528376    Earth           Umbra       1             412.02545073
27 Apr 2022 12:05:56.555    27 Apr 2022 12:06:20.025      23.470166966    Earth           Penumbra    1             412.02545073
27 Apr 2022 13:17:31.782    27 Apr 2022 13:17:55.167      23.384846631    Earth           Penumbra    2             1349.7036056
27 Apr 2022 13:17:55.167    27 Apr 2022 13:39:37.730      1302.5626520    Earth           Umbra       2             1349.7036056
27 Apr 2022 13:39:37.730    27 Apr 2022 13:40:01.486      23.756107001    Earth           Penumbra    2             1349.7036056
27 Apr 2022 14:51:23.673    27 Apr 2022 14:51:47.350      23.676310549    Earth           Penumbra    3             1339.3322766
27 Apr 2022 14:51:47.350    27 Apr 2022 15:13:18.957      1291.6073148    Earth           Umbra       3             1339.3322766
27 Apr 2022 15:13:18.957    27 Apr 2022 15:13:43.006      24.048651243    Earth           Penumbra    3             1339.3322766
27 Apr 2022 16:25:15.723    27 Apr 2022 16:25:39.696      23.973684967    Earth           Penumbra    4             1328.9192230
27 Apr 2022 16:25:39.696    27 Apr 2022 16:47:00.296      1280.5996503    Earth           Umbra       4             1328.9192230
27 Apr 2022 16:47:00.296    27 Apr 2022 16:47:24.642      24.345887674    Earth           Penumbra    4             1328.9192230
27 Apr 2022 17:59:07.899    27 Apr 2022 17:59:32.177      24.277753173    Earth           Penumbra    5             1318.4938627
27 Apr 2022 17:59:32.177    27 Apr 2022 18:20:41.745      1269.5680861    Earth           Umbra       5             1318.4938627
27 Apr 2022 18:20:41.745    27 Apr 2022 18:21:06.393      24.648023432    Earth           Penumbra    5             1318.4938627
27 Apr 2022 19:33:00.162    27 Apr 2022 19:33:24.750      24.588399497    Earth           Penumbra    6             1308.0560579
27 Apr 2022 19:33:24.750    27 Apr 2022 19:54:23.262      1258.5114821    Earth           Umbra       6             1308.0560579
27 Apr 2022 19:54:23.262    27 Apr 2022 19:54:48.218      24.956176244    Earth           Penumbra    6             1308.0560579
27 Apr 2022 21:06:52.502    27 Apr 2022 21:07:17.405      24.903319334    Earth           Penumbra    7             1297.6315381
27 Apr 2022 21:07:17.405    27 Apr 2022 21:28:04.864      1247.4589892    Earth           Umbra       7             1297.6315381
27 Apr 2022 21:28:04.864    27 Apr 2022 21:28:30.134      25.269229640    Earth           Penumbra    7             1297.6315381
27 Apr 2022 22:40:44.972    27 Apr 2022 22:41:10.191      25.219684420    Earth           Penumbra    8             1287.2723825
27 Apr 2022 22:41:10.191    27 Apr 2022 23:01:46.660      1236.4687290    Earth           Umbra       8             1287.2723825
27 Apr 2022 23:01:46.660    27 Apr 2022 23:02:12.244      25.583969057    Earth           Penumbra    8             1287.2723825
28 Apr 2022 00:14:37.646    28 Apr 2022 00:15:03.183      25.537358969    Earth           Penumbra    9             1276.9855864
28 Apr 2022 00:15:03.183    28 Apr 2022 00:35:28.732      1225.5491965    Earth           Umbra       9             1276.9855864
28 Apr 2022 00:35:28.732    28 Apr 2022 00:35:54.631      25.899030967    Earth           Penumbra    9             1276.9855864
28 Apr 2022 01:48:30.518    28 Apr 2022 01:48:56.378      25.859699305    Earth           Penumbra    10            1266.7054310
28 Apr 2022 01:48:56.378    28 Apr 2022 02:09:11.006      1214.6284978    Earth           Umbra       10            1266.7054310
28 Apr 2022 02:09:11.006    28 Apr 2022 02:09:37.224      26.217233890    Earth           Penumbra    10            1266.7054310
28 Apr 2022 03:22:23.472    28 Apr 2022 03:22:49.662      26.189892646    Earth           Penumbra    11            1256.3770775
28 Apr 2022 03:22:49.662    28 Apr 2022 03:42:53.307      1203.6448308    Earth           Umbra       11            1256.3770775
28 Apr 2022 03:42:53.307    28 Apr 2022 03:43:19.849      26.542354084    Earth           Penumbra    11            1256.3770775
28 Apr 2022 04:56:16.380    28 Apr 2022 04:56:42.906      26.526288176    Earth           Penumbra    12            1246.0550341
28 Apr 2022 04:56:42.906    28 Apr 2022 05:16:35.561      1192.6550107    Earth           Umbra       12            1246.0550341
28 Apr 2022 05:16:35.561    28 Apr 2022 05:17:02.435      26.873735245    Earth           Penumbra    12            1246.0550341
28 Apr 2022 06:30:09.210    28 Apr 2022 06:30:36.073      26.862700679    Earth           Penumbra    13            1235.8834230
28 Apr 2022 06:30:36.073    28 Apr 2022 06:50:17.888      1181.8151052    Earth           Umbra       13            1235.8834230
28 Apr 2022 06:50:17.888    28 Apr 2022 06:50:45.094      27.205617120    Earth           Penumbra    13            1235.8834230
28 Apr 2022 08:04:02.015    28 Apr 2022 08:04:29.209      27.194582240    Earth           Penumbra    14            1225.9655601
28 Apr 2022 08:04:29.209    28 Apr 2022 08:24:00.447      1171.2382106    Earth           Umbra       14            1225.9655601
28 Apr 2022 08:24:00.447    28 Apr 2022 08:24:27.980      27.532767202    Earth           Penumbra    14            1225.9655601
28 Apr 2022 09:37:54.854    28 Apr 2022 09:38:22.378      27.523841418    Earth           Penumbra    15            1216.2648674
28 Apr 2022 09:38:22.378    28 Apr 2022 09:57:43.263      1160.8848994    Earth           Umbra       15            1216.2648674
28 Apr 2022 09:57:43.263    28 Apr 2022 09:58:11.119      27.856126567    Earth           Penumbra    15            1216.2648674
28 Apr 2022 11:11:47.767    28 Apr 2022 11:12:15.623      27.856228093    Earth           Penumbra    16            1206.6484101
28 Apr 2022 11:12:15.623    28 Apr 2022 11:31:26.233      1150.6105662    Earth           Umbra       16            1206.6484101
28 Apr 2022 11:31:26.233    28 Apr 2022 11:31:54.415      28.181615775    Earth           Penumbra    16            1206.6484101
28 Apr 2022 12:45:40.770    28 Apr 2022 12:46:08.964      28.194630879    Earth           Penumbra    17            1197.0243590
28 Apr 2022 12:46:08.964    28 Apr 2022 13:05:09.281      1140.3163025    Earth           Umbra       17            1197.0243590
28 Apr 2022 13:05:09.281    28 Apr 2022 13:05:37.794      28.513425670    Earth           Penumbra    17            1197.0243590
28 Apr 2022 14:19:33.863    28 Apr 2022 14:20:02.400      28.536960483    Earth           Penumbra    18            1187.4192037
28 Apr 2022 14:20:02.400    28 Apr 2022 14:38:52.432      1130.0322643    Earth           Umbra       18            1187.4192037
28 Apr 2022 14:38:52.432    28 Apr 2022 14:39:21.282      28.849978989    Earth           Penumbra    18            1187.4192037
28 Apr 2022 15:53:27.032    28 Apr 2022 15:53:55.912      28.880474134    Earth           Penumbra    19            1177.9185182
28 Apr 2022 15:53:55.912    28 Apr 2022 16:12:35.763      1119.8509519    Earth           Umbra       19            1177.9185182
28 Apr 2022 16:12:35.763    28 Apr 2022 16:13:04.950      29.187092115    Earth           Penumbra    19            1177.9185182
28 Apr 2022 17:27:20.250    28 Apr 2022 17:27:49.475      29.225301021    Earth           Penumbra    20            1168.5689618
28 Apr 2022 17:27:49.475    28 Apr 2022 17:46:19.295      1109.8204104    Earth           Umbra       20            1168.5689618
28 Apr 2022 17:46:19.295    28 Apr 2022 17:46:48.819      29.523250333    Earth           Penumbra    20            1168.5689618
28 Apr 2022 19:01:13.474    28 Apr 2022 19:01:43.046      29.571982089    Earth           Penumbra    21            1159.3790568
28 Apr 2022 19:01:43.046    28 Apr 2022 19:20:02.993      1099.9476448    Earth           Umbra       21            1159.3790568
28 Apr 2022 19:20:02.993    28 Apr 2022 19:20:32.853      29.859429924    Earth           Penumbra    21            1159.3790568
28 Apr 2022 20:35:06.661    28 Apr 2022 20:35:36.578      29.917192447    Earth           Penumbra    22            1150.3968666
28 Apr 2022 20:35:36.578    28 Apr 2022 20:53:46.863      1090.2854483    Earth           Umbra       22            1150.3968666
28 Apr 2022 20:53:46.863    28 Apr 2022 20:54:17.057      30.194225872    Earth           Penumbra    22            1150.3968666
28 Apr 2022 22:08:59.817    28 Apr 2022 22:09:30.072      30.254808487    Earth           Penumbra    23            1141.7157275
28 Apr 2022 22:09:30.072    28 Apr 2022 22:27:31.010      1080.9385017    Earth           Umbra       23            1141.7157275
28 Apr 2022 22:27:31.010    28 Apr 2022 22:28:01.532      30.522417300    Earth           Penumbra    23            1141.7157275
28 Apr 2022 23:42:53.006    28 Apr 2022 23:43:23.588      30.582268804    Earth           Penumbra    24            1133.3676820
28 Apr 2022 23:43:23.588    29 Apr 2022 00:01:15.533      1071.9450240    Earth           Umbra       24            1133.3676820
29 Apr 2022 00:01:15.533    29 Apr 2022 00:01:46.373      30.840389198    Earth           Penumbra    24            1133.3676820
29 Apr 2022 01:16:46.266    29 Apr 2022 01:17:17.170      30.904173804    Earth           Penumbra    25            1125.2571305
29 Apr 2022 01:17:17.170    29 Apr 2022 01:35:00.371      1063.2017043    Earth           Umbra       25            1125.2571305
29 Apr 2022 01:35:00.371    29 Apr 2022 01:35:31.523      31.151252403    Earth           Penumbra    25            1125.2571305
29 Apr 2022 02:50:39.531    29 Apr 2022 02:51:10.758      31.227139640    Earth           Penumbra    26            1117.2643891
29 Apr 2022 02:51:10.758    29 Apr 2022 03:08:45.334      1054.5758471    Earth           Umbra       26            1117.2643891
29 Apr 2022 03:08:45.334    29 Apr 2022 03:09:16.795      31.461402413    Earth           Penumbra    26            1117.2643891
29 Apr 2022 04:24:32.669    29 Apr 2022 04:25:04.219      31.550678168    Earth           Penumbra    27            1109.4174357
29 Apr 2022 04:25:04.219    29 Apr 2022 04:42:30.315      1046.0953484    Earth           Umbra       27            1109.4174357
29 Apr 2022 04:42:30.315    29 Apr 2022 04:43:02.086      31.771409092    Earth           Penumbra    27            1109.4174357
29 Apr 2022 05:58:25.582    29 Apr 2022 05:58:57.447      31.865077489    Earth           Penumbra    28            1101.9119911
29 Apr 2022 05:58:57.447    29 Apr 2022 06:16:15.422      1037.9741860    Earth           Umbra       28            1101.9119911
29 Apr 2022 06:16:15.422    29 Apr 2022 06:16:47.494      32.072727615    Earth           Penumbra    28            1101.9119911
29 Apr 2022 07:32:18.265    29 Apr 2022 07:32:50.425      32.160297548    Earth           Penumbra    29            1094.9306948
29 Apr 2022 07:32:50.425    29 Apr 2022 07:50:00.840      1030.4149391    Earth           Umbra       29            1094.9306948
29 Apr 2022 07:50:00.840    29 Apr 2022 07:50:33.196      32.355458115    Earth           Penumbra    29            1094.9306948
29 Apr 2022 09:06:10.781    29 Apr 2022 09:06:43.217      32.436235878    Earth           Penumbra    30            1088.4618460
29 Apr 2022 09:06:43.217    29 Apr 2022 09:23:46.624      1023.4070769    Earth           Umbra       30            1088.4618460
29 Apr 2022 09:23:46.624    29 Apr 2022 09:24:19.243      32.618533156    Earth           Penumbra    30            1088.4618460
29 Apr 2022 10:40:03.215    29 Apr 2022 10:40:35.916      32.701713906    Earth           Penumbra    31            1082.3282819
29 Apr 2022 10:40:35.916    29 Apr 2022 10:57:32.673      1016.7565733    Earth           Umbra       31            1082.3282819
29 Apr 2022 10:57:32.673    29 Apr 2022 10:58:05.543      32.869994652    Earth           Penumbra    31            1082.3282819
29 Apr 2022 12:13:55.617    29 Apr 2022 12:14:28.581      32.963445853    Earth           Penumbra    32            1076.3863862
29 Apr 2022 12:14:28.581    29 Apr 2022 12:31:18.886      1010.3057857    Earth           Umbra       32            1076.3863862
29 Apr 2022 12:31:18.886    29 Apr 2022 12:31:52.003      33.117154660    Earth           Penumbra    32            1076.3863862
29 Apr 2022 13:47:47.976    29 Apr 2022 13:48:21.195      33.218976238    Earth           Penumbra    33            1070.6576941
29 Apr 2022 13:48:21.195    29 Apr 2022 14:05:05.275      1004.0799378    Earth           Umbra       33            1070.6576941
29 Apr 2022 14:05:05.275    29 Apr 2022 14:05:38.634      33.358780097    Earth           Penumbra    33            1070.6576941
29 Apr 2022 15:21:40.249    29 Apr 2022 15:22:13.711      33.461572928    Earth           Penumbra    34            1065.2590565
29 Apr 2022 15:22:13.711    29 Apr 2022 15:38:51.920      998.20950658    Earth           Umbra       34            1065.2590565
29 Apr 2022 15:38:51.920    29 Apr 2022 15:39:25.508      33.587976953    Earth           Penumbra    34            1065.2590565
29 Apr 2022 16:55:32.406    29 Apr 2022 16:56:06.095      33.688653144    Earth           Penumbra    35            1060.2592008
29 Apr 2022 16:56:06.095    29 Apr 2022 17:12:38.865      992.77017812    Earth           Umbra       35            1060.2592008
29 Apr 2022 17:12:38.865    29 Apr 2022 17:13:12.665      33.800369559    Earth           Penumbra    35            1060.2592008
29 Apr 2022 18:29:24.415    29 Apr 2022 18:29:58.316      33.901481400    Earth           Penumbra    36            1055.6628191
29 Apr 2022 18:29:58.316    29 Apr 2022 18:46:26.081      987.76517389    Earth           Umbra       36            1055.6628191
29 Apr 2022 18:46:26.081    29 Apr 2022 18:47:00.078      33.996163798    Earth           Penumbra    36            1055.6628191
29 Apr 2022 20:03:16.220    29 Apr 2022 20:03:50.318      34.097780439    Earth           Penumbra    37            1051.5148269
29 Apr 2022 20:03:50.318    29 Apr 2022 20:20:13.560      983.24263380    Earth           Umbra       37            1051.5148269
29 Apr 2022 20:20:13.560    29 Apr 2022 20:20:47.735      34.174412617    Earth           Penumbra    37            1051.5148269
29 Apr 2022 21:37:07.787    29 Apr 2022 21:37:42.057      34.269694425    Earth           Penumbra    38            1047.9294865
29 Apr 2022 21:37:42.057    29 Apr 2022 21:54:01.387      979.33033607    Earth           Umbra       38            1047.9294865
29 Apr 2022 21:54:01.387    29 Apr 2022 21:54:35.717      34.329456033    Earth           Penumbra    38            1047.9294865
29 Apr 2022 23:10:59.157    29 Apr 2022 23:11:33.569      34.411974193    Earth           Penumbra    39            1044.9608293
29 Apr 2022 23:11:33.569    29 Apr 2022 23:27:49.662      976.09240761    Earth           Umbra       39            1044.9608293
29 Apr 2022 23:27:49.662    29 Apr 2022 23:28:24.118      34.456447524    Earth           Penumbra    39            1044.9608293
30 Apr 2022 00:44:50.405    30 Apr 2022 00:45:24.935      34.529761097    Earth           Penumbra    40            1042.4892569
30 Apr 2022 00:45:24.935    30 Apr 2022 01:01:38.335      973.40059869    Earth           Umbra       40            1042.4892569
30 Apr 2022 01:01:38.335    30 Apr 2022 01:02:12.894      34.558897116    Earth           Penumbra    40            1042.4892569
30 Apr 2022 02:18:41.534    30 Apr 2022 02:19:16.168      34.633984719    Earth           Penumbra    41            1040.3204599
30 Apr 2022 02:19:16.168    30 Apr 2022 02:35:27.209      971.04023726    Earth           Umbra       41            1040.3204599
30 Apr 2022 02:35:27.209    30 Apr 2022 02:36:01.855      34.646237909    Earth           Penumbra    41            1040.3204599
30 Apr 2022 03:52:32.444    30 Apr 2022 03:53:07.173      34.728179919    Earth           Penumbra    42            1038.4150167
30 Apr 2022 03:53:07.173    30 Apr 2022 04:09:16.137      968.96459316    Earth           Umbra       42            1038.4150167
30 Apr 2022 04:09:16.137    30 Apr 2022 04:09:50.859      34.722243645    Earth           Penumbra    42            1038.4150167
30 Apr 2022 05:26:23.004    30 Apr 2022 05:26:57.806      34.802679427    Earth           Penumbra    43            1036.9654514
30 Apr 2022 05:26:57.806    30 Apr 2022 05:43:05.190      967.38406493    Earth           Umbra       43            1036.9654514
30 Apr 2022 05:43:05.190    30 Apr 2022 05:43:39.969      34.778707079    Earth           Penumbra    43            1036.9654514
30 Apr 2022 07:00:13.150    30 Apr 2022 07:00:47.994      34.844372584    Earth           Penumbra    44            1036.2028952
30 Apr 2022 07:00:47.994    30 Apr 2022 07:16:54.549      966.55490622    Earth           Umbra       44            1036.2028952
30 Apr 2022 07:16:54.549    30 Apr 2022 07:17:29.352      34.803616419    Earth           Penumbra    44            1036.2028952
30 Apr 2022 08:34:02.933    30 Apr 2022 08:34:37.784      34.851157526    Earth           Penumbra    45            1036.1490554
30 Apr 2022 08:34:37.784    30 Apr 2022 08:50:44.287      966.50322927    Earth           Umbra       45            1036.1490554
30 Apr 2022 08:50:44.287    30 Apr 2022 08:51:19.082      34.794668632    Earth           Penumbra    45            1036.1490554
30 Apr 2022 10:07:52.478    30 Apr 2022 10:08:27.312      34.833827103    Earth           Penumbra    46            1036.6030009
30 Apr 2022 10:08:27.312    30 Apr 2022 10:24:34.320      967.00758274    Earth           Umbra       46            1036.6030009
30 Apr 2022 10:24:34.320    30 Apr 2022 10:25:09.081      34.761591023    Earth           Penumbra    46            1036.6030009
30 Apr 2022 11:41:41.885    30 Apr 2022 11:42:16.689      34.803601645    Earth           Penumbra    47            1037.3646594
30 Apr 2022 11:42:16.689    30 Apr 2022 11:58:24.535      967.84602525    Earth           Umbra       47            1037.3646594
30 Apr 2022 11:58:24.535    30 Apr 2022 11:58:59.250      34.715032484    Earth           Penumbra    47            1037.3646594
30 Apr 2022 13:15:31.155    30 Apr 2022 13:16:05.916      34.761031845    Earth           Penumbra    48            1038.4188863
30 Apr 2022 13:16:05.916    30 Apr 2022 13:32:14.917      969.00155609    Earth           Umbra       48            1038.4188863
30 Apr 2022 13:32:14.917    30 Apr 2022 13:32:49.574      34.656298393    Earth           Penumbra    48            1038.4188863
30 Apr 2022 14:49:20.227    30 Apr 2022 14:49:54.926      34.698915028    Earth           Penumbra    49            1039.8839804
30 Apr 2022 14:49:54.926    30 Apr 2022 15:06:05.532      970.60594509    Earth           Umbra       49            1039.8839804
30 Apr 2022 15:06:05.532    30 Apr 2022 15:06:40.111      34.579120239    Earth           Penumbra    49            1039.8839804
30 Apr 2022 16:23:09.060    30 Apr 2022 16:23:43.673      34.612954420    Earth           Penumbra    50            1041.8391910
30 Apr 2022 16:23:43.673    30 Apr 2022 16:39:56.421      972.74761334    Earth           Umbra       50            1041.8391910
30 Apr 2022 16:39:56.421    30 Apr 2022 16:40:30.899      34.478623210    Earth           Penumbra    50            1041.8391910
30 Apr 2022 17:56:57.638    30 Apr 2022 17:57:32.143      34.505202540    Earth           Penumbra    51            1044.2738294
30 Apr 2022 17:57:32.143    30 Apr 2022 18:13:47.557      975.41346496    Earth           Umbra       51            1044.2738294
30 Apr 2022 18:13:47.557    30 Apr 2022 18:14:21.912      34.355161863    Earth           Penumbra    51            1044.2738294
30 Apr 2022 19:30:45.926    30 Apr 2022 19:31:20.303      34.377234138    Earth           Penumbra    52            1047.1941138
30 Apr 2022 19:31:20.303    30 Apr 2022 19:47:38.910      978.60694084    Earth           Umbra       52            1047.1941138
30 Apr 2022 19:47:38.910    30 Apr 2022 19:48:13.120      34.209938790    Earth           Penumbra    52            1047.1941138
30 Apr 2022 21:04:33.884    30 Apr 2022 21:05:08.109      34.225073364    Earth           Penumbra    53            1050.6856927
30 Apr 2022 21:05:08.109    30 Apr 2022 21:21:30.529      982.41973920    Earth           Umbra       53            1050.6856927
30 Apr 2022 21:21:30.529    30 Apr 2022 21:22:04.570      34.040880098    Earth           Penumbra    53            1050.6856927
30 Apr 2022 22:38:21.539    30 Apr 2022 22:38:55.584      34.044733050    Earth           Penumbra    54            1054.8005601
30 Apr 2022 22:38:55.584    30 Apr 2022 22:55:22.493      986.90986710    Earth           Umbra       54            1054.8005601
30 Apr 2022 22:55:22.493    30 Apr 2022 22:55:56.339      33.845959988    Earth           Penumbra    54            1054.8005601
01 May 2022 00:12:08.981    01 May 2022 00:12:42.822      33.840923931    Earth           Penumbra    55            1059.4177565
01 May 2022 00:12:42.822    01 May 2022 00:29:14.770      991.94732469    Earth           Umbra       55            1059.4177565
01 May 2022 00:29:14.770    01 May 2022 00:29:48.399      33.629507921    Earth           Penumbra    55            1059.4177565
01 May 2022 01:45:56.268    01 May 2022 01:46:29.893      33.625483979    Earth           Penumbra    56            1064.3061865
01 May 2022 01:46:29.893    01 May 2022 02:03:07.173      997.27932718    Earth           Umbra       56            1064.3061865
01 May 2022 02:03:07.173    01 May 2022 02:03:40.574      33.401375357    Earth           Penumbra    56            1064.3061865
01 May 2022 03:19:43.346    01 May 2022 03:20:16.752      33.405646670    Earth           Penumbra    57            1069.3561189
01 May 2022 03:20:16.752    01 May 2022 03:36:59.535      1002.7827128    Earth           Umbra       57            1069.3561189
01 May 2022 03:36:59.535    01 May 2022 03:37:32.702      33.167759457    Earth           Penumbra    57            1069.3561189
01 May 2022 04:53:30.095    01 May 2022 04:54:03.271      33.176590945    Earth           Penumbra    58            1074.6986741
01 May 2022 04:54:03.271    01 May 2022 05:10:51.869      1008.5973981    Earth           Umbra       58            1074.6986741
01 May 2022 05:10:51.869    01 May 2022 05:11:24.793      32.924684999    Earth           Penumbra    58            1074.6986741
01 May 2022 06:27:16.427    01 May 2022 06:27:49.355      32.928031893    Earth           Penumbra    59            1080.5517890
01 May 2022 06:27:49.355    01 May 2022 06:44:44.315      1014.9604618    Earth           Umbra       59            1080.5517890
01 May 2022 06:44:44.315    01 May 2022 06:45:16.979      32.663295348    Earth           Penumbra    59            1080.5517890
01 May 2022 08:01:02.371    01 May 2022 08:01:35.028      32.657085615    Earth           Penumbra    60            1086.9682791
01 May 2022 08:01:35.028    01 May 2022 08:18:36.958      1021.9299456    Earth           Umbra       60            1086.9682791
01 May 2022 08:18:36.958    01 May 2022 08:19:09.340      32.381247869    Earth           Penumbra    60            1086.9682791
01 May 2022 09:34:48.058    01 May 2022 09:35:20.430      32.372085401    Earth           Penumbra    61            1093.7789285
01 May 2022 09:35:20.430    01 May 2022 09:52:29.751      1029.3206110    Earth           Umbra       61            1093.7789285
01 May 2022 09:52:29.751    01 May 2022 09:53:01.837      32.086232118    Earth           Penumbra    61            1093.7789285
01 May 2022 11:08:33.615    01 May 2022 11:09:05.699      32.083627651    Earth           Penumbra    62            1100.7776094
01 May 2022 11:09:05.699    01 May 2022 11:26:22.605      1036.9060991    Earth           Umbra       62            1100.7776094
01 May 2022 11:26:22.605    01 May 2022 11:26:54.393      31.787882675    Earth           Penumbra    62            1100.7776094
01 May 2022 12:42:19.070    01 May 2022 12:42:50.865      31.794610096    Earth           Penumbra    63            1107.9125781
01 May 2022 12:42:50.865    01 May 2022 13:00:15.494      1044.6290641    Earth           Umbra       63            1107.9125781
01 May 2022 13:00:15.494    01 May 2022 13:00:46.983      31.488903961    Earth           Penumbra    63            1107.9125781
01 May 2022 14:16:04.364    01 May 2022 14:16:35.864      31.500379520    Earth           Penumbra    64            1115.2749169
01 May 2022 14:16:35.864    01 May 2022 14:34:08.453      1052.5890764    Earth           Umbra       64            1115.2749169
01 May 2022 14:34:08.453    01 May 2022 14:34:39.639      31.185460940    Earth           Penumbra    64            1115.2749169
01 May 2022 15:49:49.442    01 May 2022 15:50:20.639      31.196660211    Earth           Penumbra    65            1122.9437947
01 May 2022 15:50:20.639    01 May 2022 16:08:01.512      1060.8733411    Earth           Umbra       65            1122.9437947
01 May 2022 16:08:01.512    01 May 2022 16:08:32.386      30.873793387    Earth           Penumbra    65            1122.9437947
01 May 2022 17:23:34.292    01 May 2022 17:24:05.176      30.884313723    Earth           Penumbra    66            1130.9076713
01 May 2022 17:24:05.176    01 May 2022 17:41:54.646      1069.4695553    Earth           Umbra       66            1130.9076713
01 May 2022 17:41:54.646    01 May 2022 17:42:25.200      30.553802289    Earth           Penumbra    66            1130.9076713
01 May 2022 18:57:18.898    01 May 2022 18:57:49.464      30.565923778    Earth           Penumbra    67            1139.1428368
01 May 2022 18:57:49.464    01 May 2022 19:15:47.814      1078.3501853    Earth           Umbra       67            1139.1428368
01 May 2022 19:15:47.814    01 May 2022 19:16:18.041      30.226727645    Earth           Penumbra    67            1139.1428368
01 May 2022 20:31:03.236    01 May 2022 20:31:33.477      30.240923027    Earth           Penumbra    68            1147.6964236
01 May 2022 20:31:33.477    01 May 2022 20:49:41.040      1087.5630867    Earth           Umbra       68            1147.6964236
01 May 2022 20:49:41.040    01 May 2022 20:50:10.932      29.892413865    Earth           Penumbra    68            1147.6964236
01 May 2022 22:04:47.326    01 May 2022 22:05:17.233      29.907078529    Earth           Penumbra    69            1156.6183716
01 May 2022 22:05:17.233    01 May 2022 22:23:34.393      1097.1606188    Earth           Umbra       69            1156.6183716
01 May 2022 22:23:34.393    01 May 2022 22:24:03.944      29.550674243    Earth           Penumbra    69            1156.6183716
01 May 2022 23:38:31.250    01 May 2022 23:39:00.816      29.566401313    Earth           Penumbra    70            1165.8261194
01 May 2022 23:39:00.816    01 May 2022 23:57:27.871      1107.0551603    Earth           Umbra       70            1165.8261194
01 May 2022 23:57:27.871    01 May 2022 23:57:57.076      29.204557696    Earth           Penumbra    70            1165.8261194
02 May 2022 01:12:15.076    02 May 2022 01:12:44.302      29.226242099    Earth           Penumbra    71            1175.1178283
02 May 2022 01:12:44.302    02 May 2022 01:31:21.333      1117.0313956    Earth           Umbra       71            1175.1178283
02 May 2022 01:31:21.333    02 May 2022 01:31:50.194      28.860190662    Earth           Penumbra    71            1175.1178283
02 May 2022 02:45:58.780    02 May 2022 02:46:27.673      28.892676404    Earth           Penumbra    72            1184.3596784
02 May 2022 02:46:27.673    02 May 2022 03:05:14.618      1126.9450259    Earth           Umbra       72            1184.3596784
02 May 2022 03:05:14.618    02 May 2022 03:05:43.140      28.521976154    Earth           Penumbra    72            1184.3596784
02 May 2022 04:19:42.267    02 May 2022 04:20:10.831      28.564268409    Earth           Penumbra    73            1193.6201671
02 May 2022 04:20:10.831    02 May 2022 04:39:07.698      1136.8674502    Earth           Umbra       73            1193.6201671
02 May 2022 04:39:07.698    02 May 2022 04:39:35.887      28.188448492    Earth           Penumbra    73            1193.6201671
02 May 2022 05:53:25.448    02 May 2022 05:53:53.682      28.234463255    Earth           Penumbra    74            1203.0769077
02 May 2022 05:53:53.682    02 May 2022 06:13:00.670      1146.9882642    Earth           Umbra       74            1203.0769077
02 May 2022 06:13:00.670    02 May 2022 06:13:28.525      27.854180289    Earth           Penumbra    74            1203.0769077
02 May 2022 07:27:08.329    02 May 2022 07:27:36.228      27.899758460    Earth           Penumbra    75            1212.8082807
02 May 2022 07:27:36.228    02 May 2022 07:46:53.620      1157.3921381    Earth           Umbra       75            1212.8082807
02 May 2022 07:46:53.620    02 May 2022 07:47:21.137      27.516384143    Earth           Penumbra    75            1212.8082807
02 May 2022 09:00:51.014    02 May 2022 09:01:18.578      27.563722827    Earth           Penumbra    76            1222.7142346
02 May 2022 09:01:18.578    02 May 2022 09:20:46.550      1167.9721494    Earth           Umbra       76            1222.7142346
02 May 2022 09:20:46.550    02 May 2022 09:21:13.729      27.178362315    Earth           Penumbra    76            1222.7142346
02 May 2022 10:34:33.630    02 May 2022 10:35:00.862      27.232688991    Earth           Penumbra    77            1232.6358345
02 May 2022 10:35:00.862    02 May 2022 10:54:39.420      1178.5574072    Earth           Umbra       77            1232.6358345
02 May 2022 10:54:39.420    02 May 2022 10:55:06.266      26.845738327    Earth           Penumbra    77            1232.6358345
02 May 2022 12:08:16.219    02 May 2022 12:08:43.128      26.909155806    Earth           Penumbra    78            1242.5128325
02 May 2022 12:08:43.128    02 May 2022 12:28:32.211      1189.0831249    Earth           Umbra       78            1242.5128325
02 May 2022 12:28:32.211    02 May 2022 12:28:58.732      26.520551811    Earth           Penumbra    78            1242.5128325
02 May 2022 13:41:58.734    02 May 2022 13:42:25.325      26.590474171    Earth           Penumbra    79            1252.4058182
02 May 2022 13:42:25.325    02 May 2022 14:02:24.940      1199.6149398    Earth           Umbra       79            1252.4058182
02 May 2022 14:02:24.940    02 May 2022 14:02:51.140      26.200404181    Earth           Penumbra    79            1252.4058182
02 May 2022 15:15:41.114    02 May 2022 15:16:07.387      26.273070253    Earth           Penumbra    80            1262.3885246
02 May 2022 15:16:07.387    02 May 2022 15:36:17.620      1210.2330891    Earth           Umbra       80            1262.3885246
02 May 2022 15:36:17.620    02 May 2022 15:36:43.502      25.882365333    Earth           Penumbra    80            1262.3885246
02 May 2022 16:49:23.334    02 May 2022 16:49:49.291      25.956271403    Earth           Penumbra    81            1272.4626443
02 May 2022 16:49:49.291    02 May 2022 17:10:10.231      1220.9406939    Earth           Umbra       81            1272.4626443
02 May 2022 17:10:10.231    02 May 2022 17:10:35.797      25.565679010    Earth           Penumbra    81            1272.4626443
02 May 2022 18:23:05.386    02 May 2022 18:23:31.027      25.641511555    Earth           Penumbra    82            1282.5973918
02 May 2022 18:23:31.027    02 May 2022 18:44:02.733      1231.7051959    Earth           Umbra       82            1282.5973918
02 May 2022 18:44:02.733    02 May 2022 18:44:27.983      25.250684365    Earth           Penumbra    82            1282.5973918
02 May 2022 19:56:47.257    02 May 2022 19:57:12.586      25.329161296    Earth           Penumbra    83            1292.8139763
02 May 2022 19:57:12.586    02 May 2022 20:17:55.133      1242.5476669    Earth           Umbra       83            1292.8139763
02 May 2022 20:17:55.133    02 May 2022 20:18:20.071      24.937148171    Earth           Penumbra    83            1292.8139763
02 May 2022 21:30:28.966    02 May 2022 21:30:53.984      25.017972139    Earth           Penumbra    84            1303.1648943
02 May 2022 21:30:53.984    02 May 2022 21:51:47.506      1253.5219667    Earth           Umbra       84            1303.1648943
02 May 2022 21:51:47.506    02 May 2022 21:52:12.131      24.624955386    Earth           Penumbra    84            1303.1648943
02 May 2022 23:04:10.581    02 May 2022 23:04:35.289      24.708088359    Earth           Penumbra    85            1313.6190655
02 May 2022 23:04:35.289    02 May 2022 23:25:39.884      1264.5952477    Earth           Umbra       85            1313.6190655
02 May 2022 23:25:39.884    02 May 2022 23:26:04.200      24.315729481    Earth           Penumbra    85            1313.6190655
03 May 2022 00:37:52.157    03 May 2022 00:38:16.560      24.402872252    Earth           Penumbra    86            1324.0311429
03 May 2022 00:38:16.560    03 May 2022 00:59:32.176      1275.6156293    Earth           Umbra       86            1324.0311429
03 May 2022 00:59:32.176    03 May 2022 00:59:56.188      24.012641329    Earth           Penumbra    86            1324.0311429
03 May 2022 02:11:33.682    03 May 2022 02:11:57.789      24.106136535    Earth           Penumbra    87            1334.2735030
03 May 2022 02:11:57.789    03 May 2022 02:33:24.238      1286.4492867    Earth           Umbra       87            1334.2735030
03 May 2022 02:33:24.238    03 May 2022 02:33:47.956      23.718079773    Earth           Penumbra    87            1334.2735030
03 May 2022 03:45:15.081    03 May 2022 03:45:38.899      23.817932443    Earth           Penumbra    88            1344.3699382
03 May 2022 03:45:38.899    03 May 2022 04:07:16.019      1297.1204796    Earth           Umbra       88            1344.3699382
03 May 2022 04:07:16.019    03 May 2022 04:07:39.451      23.431526183    Earth           Penumbra    88            1344.3699382
03 May 2022 05:18:56.275    03 May 2022 05:19:19.810      23.534539039    Earth           Penumbra    89            1354.4550009
03 May 2022 05:19:19.810    03 May 2022 05:41:07.580      1307.7704708    Earth           Umbra       89            1354.4550009
03 May 2022 05:41:07.580    03 May 2022 05:41:30.730      23.149991047    Earth           Penumbra    89            1354.4550009
03 May 2022 06:52:37.255    03 May 2022 06:53:00.508      23.252872203    Earth           Penumbra    90            1364.6153263
03 May 2022 06:53:00.508    03 May 2022 07:14:58.999      1318.4914330    Earth           Umbra       90            1364.6153263
03 May 2022 07:14:58.999    03 May 2022 07:15:21.870      22.871021088    Earth           Penumbra    90            1364.6153263
03 May 2022 08:26:18.095    03 May 2022 08:26:41.069      22.973793803    Earth           Penumbra    91            1374.8079391
03 May 2022 08:26:41.069    03 May 2022 08:48:50.308      1329.2388576    Earth           Umbra       91            1374.8079391
03 May 2022 08:48:50.308    03 May 2022 08:49:12.903      22.595287696    Earth           Penumbra    91            1374.8079391
03 May 2022 09:59:58.906    03 May 2022 10:00:21.607      22.700575297    Earth           Penumbra    92            1384.9283514
03 May 2022 10:00:21.607    03 May 2022 10:22:41.509      1339.9022220    Earth           Umbra       92            1384.9283514
03 May 2022 10:22:41.509    03 May 2022 10:23:03.835      22.325554071    Earth           Penumbra    92            1384.9283514
03 May 2022 11:33:39.741    03 May 2022 11:34:02.176      22.434965253    Earth           Penumbra    93            1394.9241877
03 May 2022 11:34:02.176    03 May 2022 11:56:32.602      1350.4259253    Earth           Umbra       93            1394.9241877
03 May 2022 11:56:32.602    03 May 2022 11:56:54.665      22.063297208    Earth           Penumbra    93            1394.9241877
03 May 2022 13:07:20.564    03 May 2022 13:07:42.740      22.175628436    Earth           Penumbra    94            1404.8300706
03 May 2022 13:07:42.740    03 May 2022 13:30:23.587      1360.8472116    Earth           Umbra       94            1404.8300706
03 May 2022 13:30:23.587    03 May 2022 13:30:45.394      21.807230590    Earth           Penumbra    94            1404.8300706
03 May 2022 14:41:01.314    03 May 2022 14:41:23.234      21.920055302    Earth           Penumbra    95            1414.7059946
03 May 2022 14:41:23.234    03 May 2022 15:04:14.465      1371.2307303    Earth           Umbra       95            1414.7059946
03 May 2022 15:04:14.465    03 May 2022 15:04:36.020      21.555208974    Earth           Penumbra    95            1414.7059946
03 May 2022 16:14:41.956    03 May 2022 16:15:03.624      21.667138499    Earth           Penumbra    96            1424.5641855
03 May 2022 16:15:03.624    03 May 2022 16:38:05.214      1381.5907064    Earth           Umbra       96            1424.5641855
03 May 2022 16:38:05.214    03 May 2022 16:38:26.521      21.306340629    Earth           Penumbra    96            1424.5641855
03 May 2022 17:48:22.480    03 May 2022 17:48:43.897      21.417455119    Earth           Penumbra    97            1434.3766370
03 May 2022 17:48:43.897    03 May 2022 18:11:55.796      1391.8984846    Earth           Umbra       97            1434.3766370
03 May 2022 18:11:55.796    03 May 2022 18:12:16.857      21.060697222    Earth           Penumbra    97            1434.3766370
03 May 2022 19:22:02.881    03 May 2022 19:22:24.052      21.171537624    Earth           Penumbra    98            1444.1461745
03 May 2022 19:22:24.052    03 May 2022 19:45:46.209      1402.1565678    Earth           Umbra       98            1444.1461745
03 May 2022 19:45:46.209    03 May 2022 19:46:07.027      20.818069100    Earth           Penumbra    98            1444.1461745
03 May 2022 20:55:43.180    03 May 2022 20:56:04.109      20.928851666    Earth           Penumbra    99            1453.9212566
03 May 2022 20:56:04.109    03 May 2022 21:19:36.523      1412.4141775    Earth           Umbra       99            1453.9212566
03 May 2022 21:19:36.523    03 May 2022 21:19:57.101      20.578227437    Earth           Penumbra    99            1453.9212566
03 May 2022 22:29:23.433    03 May 2022 22:29:44.122      20.689020061    Earth           Penumbra    100           1463.7097619
03 May 2022 22:29:44.122    03 May 2022 22:53:26.800      1422.6787706    Earth           Umbra       100           1463.7097619
03 May 2022 22:53:26.800    03 May 2022 22:53:47.142      20.341971237    Earth           Penumbra    100           1463.7097619
04 May 2022 00:03:03.683    04 May 2022 00:03:24.137      20.453416079    Earth           Penumbra    101           1473.4192954
04 May 2022 00:03:24.137    04 May 2022 00:27:16.992      1432.8548171    Earth           Umbra       101           1473.4192954
04 May 2022 00:27:16.992    04 May 2022 00:27:37.103      20.111062273    Earth           Penumbra    101           1473.4192954
04 May 2022 01:36:43.921    04 May 2022 01:37:04.145      20.224327978    Earth           Penumbra    102           1482.9378357
04 May 2022 01:37:04.145    04 May 2022 02:01:06.972      1442.8265871    Earth           Umbra       102           1482.9378357
04 May 2022 02:01:06.972    04 May 2022 02:01:26.858      19.886920648    Earth           Penumbra    102           1482.9378357
04 May 2022 03:10:24.084    04 May 2022 03:10:44.086      20.002380630    Earth           Penumbra    103           1492.2588482
04 May 2022 03:10:44.086    04 May 2022 03:34:56.673      1452.5869979    Earth           Umbra       103           1492.2588482
04 May 2022 03:34:56.673    04 May 2022 03:35:16.343      19.669469667    Earth           Penumbra    103           1492.2588482
04 May 2022 04:44:04.109    04 May 2022 04:44:23.894      19.785641273    Earth           Penumbra    104           1501.4794650
04 May 2022 04:44:23.894    04 May 2022 05:08:46.131      1462.2366467    Earth           Umbra       104           1501.4794650
04 May 2022 05:08:46.131    04 May 2022 05:09:05.588      19.457177015    Earth           Penumbra    104           1501.4794650
04 May 2022 06:17:43.976    04 May 2022 06:18:03.548      19.571830134    Earth           Penumbra    105           1510.6813353
04 May 2022 06:18:03.548    04 May 2022 06:42:35.409      1471.8611673    Earth           Umbra       105           1510.6813353
04 May 2022 06:42:35.409    04 May 2022 06:42:54.657      19.248337811    Earth           Penumbra    105           1510.6813353
04 May 2022 07:51:23.739    04 May 2022 07:51:43.100      19.360774022    Earth           Penumbra    106           1519.8535588
04 May 2022 07:51:43.100    04 May 2022 08:16:24.550      1481.4501731    Earth           Umbra       106           1519.8535588
04 May 2022 08:16:24.550    04 May 2022 08:16:43.593      19.042611646    Earth           Penumbra    106           1519.8535588
04 May 2022 09:25:03.491    04 May 2022 09:25:22.645      19.154145755    Earth           Penumbra    107           1528.9312058
04 May 2022 09:25:22.645    04 May 2022 09:50:13.581      1490.9358828    Earth           Umbra       107           1528.9312058
04 May 2022 09:50:13.581    04 May 2022 09:50:32.422      18.841177225    Earth           Penumbra    107           1528.9312058
04 May 2022 10:58:43.288    04 May 2022 10:59:02.241      18.953182187    Earth           Penumbra    108           1537.8745537
04 May 2022 10:59:02.241    04 May 2022 11:24:02.517      1500.2762462    Earth           Umbra       108           1537.8745537
04 May 2022 11:24:02.517    04 May 2022 11:24:21.163      18.645125243    Earth           Penumbra    108           1537.8745537
04 May 2022 12:32:23.111    04 May 2022 12:32:41.868      18.757276679    Earth           Penumbra    109           1546.7007904
04 May 2022 12:32:41.868    04 May 2022 12:57:51.357      1509.4895421    Earth           Umbra       109           1546.7007904
04 May 2022 12:57:51.357    04 May 2022 12:58:09.811      18.453971646    Earth           Penumbra    109           1546.7007904
04 May 2022 14:06:02.899    04 May 2022 14:06:21.464      18.564791617    Earth           Penumbra    110           1555.4526710
04 May 2022 14:06:21.464    04 May 2022 14:31:40.085      1518.6216236    Earth           Umbra       110           1555.4526710
04 May 2022 14:31:40.085    04 May 2022 14:31:58.351      18.266255781    Earth           Penumbra    110           1555.4526710
04 May 2022 15:39:42.611    04 May 2022 15:40:00.986      18.374696653    Earth           Penumbra    111           1564.1457087
04 May 2022 15:40:00.986    04 May 2022 16:05:28.676      1527.6898775    Earth           Umbra       111           1564.1457087
04 May 2022 16:05:28.676    04 May 2022 16:05:46.757      18.081134639    Earth           Penumbra    111           1564.1457087
04 May 2022 17:13:22.233    04 May 2022 17:13:40.420      18.187153980    Earth           Penumbra    112           1572.7578373
04 May 2022 17:13:40.420    04 May 2022 17:39:17.092      1536.6720695    Earth           Umbra       112           1572.7578373
04 May 2022 17:39:17.092    04 May 2022 17:39:34.990      17.898613878    Earth           Penumbra    112           1572.7578373
04 May 2022 18:47:01.763    04 May 2022 18:47:19.766      18.002653937    Earth           Penumbra    113           1581.2802552
04 May 2022 18:47:19.766    04 May 2022 19:13:05.325      1545.5589077    Earth           Umbra       113           1581.2802552
04 May 2022 19:13:05.325    04 May 2022 19:13:23.044      17.718693498    Earth           Penumbra    113           1581.2802552
04 May 2022 20:20:41.227    04 May 2022 20:20:59.048      17.821071111    Earth           Penumbra    114           1589.7512101
04 May 2022 20:20:59.048    04 May 2022 20:46:53.437      1554.3889880    Earth           Umbra       114           1589.7512101
04 May 2022 20:46:53.437    04 May 2022 20:47:10.979      17.541150958    Earth           Penumbra    114           1589.7512101
04 May 2022 21:54:20.674    04 May 2022 21:54:38.316      17.642032402    Earth           Penumbra    115           1598.2002021
04 May 2022 21:54:38.316    04 May 2022 22:20:41.507      1563.1918547    Earth           Umbra       115           1598.2002021
04 May 2022 22:20:41.507    04 May 2022 22:20:58.874      17.366315040    Earth           Penumbra    115           1598.2002021
04 May 2022 23:28:00.138    04 May 2022 23:28:17.604      17.466041667    Earth           Penumbra    116           1606.5762731
04 May 2022 23:28:17.604    04 May 2022 23:54:29.519      1571.9150022    Earth           Umbra       116           1606.5762731
04 May 2022 23:54:29.519    04 May 2022 23:54:46.714      17.195229291    Earth           Penumbra    116           1606.5762731
05 May 2022 01:01:39.607    05 May 2022 01:01:56.901      17.294479720    Earth           Penumbra    117           1614.7860239
05 May 2022 01:01:56.901    05 May 2022 01:28:17.364      1580.4626883    Earth           Umbra       117           1614.7860239
05 May 2022 01:28:17.364    05 May 2022 01:28:34.393      17.028855847    Earth           Penumbra    117           1614.7860239
05 May 2022 02:35:19.030    05 May 2022 02:35:36.158      17.128097161    Earth           Penumbra    118           1622.8037324
05 May 2022 02:35:36.158    05 May 2022 03:02:04.967      1588.8083044    Earth           Umbra       118           1622.8037324
05 May 2022 03:02:04.967    05 May 2022 03:02:21.834      16.867330810    Earth           Penumbra    118           1622.8037324
05 May 2022 04:08:58.355    05 May 2022 04:09:15.321      16.965987172    Earth           Penumbra    119           1630.6968116
05 May 2022 04:09:15.321    05 May 2022 04:35:52.342      1597.0209079    Earth           Umbra       119           1630.6968116
05 May 2022 04:35:52.342    05 May 2022 04:36:09.051      16.709916468    Earth           Penumbra    119           1630.6968116
05 May 2022 05:42:37.559    05 May 2022 05:42:54.366      16.806562117    Earth           Penumbra    120           1638.5372589
05 May 2022 05:42:54.366    05 May 2022 06:09:39.541      1605.1751618    Earth           Umbra       120           1638.5372589
05 May 2022 06:09:39.541    05 May 2022 06:09:56.097      16.555535013    Earth           Penumbra    120           1638.5372589
05 May 2022 07:16:16.680    05 May 2022 07:16:33.329      16.649316251    Earth           Penumbra    121           1646.3293554
05 May 2022 07:16:33.329    05 May 2022 07:43:26.605      1613.2764301    Earth           Umbra       121           1646.3293554
05 May 2022 07:43:26.605    05 May 2022 07:43:43.009      16.403609037    Earth           Penumbra    121           1646.3293554
05 May 2022 08:49:55.794    05 May 2022 08:50:12.289      16.495113960    Earth           Penumbra    122           1654.0319794
05 May 2022 08:50:12.289    05 May 2022 09:17:13.572      1621.2823639    Earth           Umbra       122           1654.0319794
05 May 2022 09:17:13.572    05 May 2022 09:17:29.826      16.254501580    Earth           Penumbra    122           1654.0319794
05 May 2022 10:23:34.962    05 May 2022 10:23:51.307      16.344833770    Earth           Penumbra    123           1661.6169020
05 May 2022 10:23:51.307    05 May 2022 10:51:00.470      1629.1631405    Earth           Umbra       123           1661.6169020
05 May 2022 10:51:00.470    05 May 2022 10:51:16.579      16.108927724    Earth           Penumbra    123           1661.6169020
05 May 2022 11:57:14.176    05 May 2022 11:57:30.374      16.198250628    Earth           Penumbra    124           1669.0922490
05 May 2022 11:57:30.374    05 May 2022 12:24:47.301      1636.9271511    Earth           Umbra       124           1669.0922490
05 May 2022 12:24:47.301    05 May 2022 12:25:03.268      15.966847236    Earth           Penumbra    124           1669.0922490
05 May 2022 13:30:53.379    05 May 2022 13:31:09.434      16.054304643    Earth           Penumbra    125           1676.4857122
05 May 2022 13:31:09.434    05 May 2022 13:58:34.038      1644.6040520    Earth           Umbra       125           1676.4857122
05 May 2022 13:58:34.038    05 May 2022 13:58:49.865      15.827355499    Earth           Penumbra    125           1676.4857122
05 May 2022 15:04:32.527    05 May 2022 15:04:48.439      15.912147146    Earth           Penumbra    126           1683.8108808
05 May 2022 15:04:48.439    05 May 2022 15:32:20.648      1652.2090362    Earth           Umbra       126           1683.8108808
05 May 2022 15:32:20.648    05 May 2022 15:32:36.338      15.689697512    Earth           Penumbra    126           1683.8108808
05 May 2022 16:38:11.600    05 May 2022 16:38:27.372      15.771747648    Earth           Penumbra    127           1691.0516526
05 May 2022 16:38:27.372    05 May 2022 17:06:07.098      1659.7260785    Earth           Umbra       127           1691.0516526
05 May 2022 17:06:07.098    05 May 2022 17:06:22.652      15.553826443    Earth           Penumbra    127           1691.0516526
05 May 2022 18:11:50.599    05 May 2022 18:12:06.233      15.633502824    Earth           Penumbra    128           1698.1938438
05 May 2022 18:12:06.233    05 May 2022 18:39:53.373      1667.1404585    Earth           Umbra       128           1698.1938438
05 May 2022 18:39:53.373    05 May 2022 18:40:08.793      15.419882478    Earth           Penumbra    128           1698.1938438
05 May 2022 19:45:29.551    05 May 2022 19:45:45.049      15.497489681    Earth           Penumbra    129           1705.2640705
05 May 2022 19:45:45.049    05 May 2022 20:13:39.528      1674.4788114    Earth           Umbra       129           1705.2640705
05 May 2022 20:13:39.528    05 May 2022 20:13:54.815      15.287769435    Earth           Penumbra    129           1705.2640705
05 May 2022 21:19:08.502    05 May 2022 21:19:23.866      15.363455506    Earth           Penumbra    130           1712.3000767
05 May 2022 21:19:23.866    05 May 2022 21:47:25.645      1681.7790761    Earth           Umbra       130           1712.3000767
05 May 2022 21:47:25.645    05 May 2022 21:47:40.803      15.157545148    Earth           Penumbra    130           1712.3000767
05 May 2022 22:52:47.483    05 May 2022 22:53:02.714      15.231523511    Earth           Penumbra    131           1719.2805624
05 May 2022 22:53:02.714    05 May 2022 23:21:11.734      1689.0192334    Earth           Umbra       131           1719.2805624
05 May 2022 23:21:11.734    05 May 2022 23:21:26.763      15.029805573    Earth           Penumbra    131           1719.2805624
06 May 2022 00:26:26.478    06 May 2022 00:26:41.580      15.102528536    Earth           Penumbra    132           1726.1314183
06 May 2022 00:26:41.580    06 May 2022 00:54:57.704      1696.1236252    Earth           Umbra       132           1726.1314183
06 May 2022 00:54:57.704    06 May 2022 00:55:12.609      14.905264531    Earth           Penumbra    132           1726.1314183
06 May 2022 02:00:05.442    06 May 2022 02:00:20.420      14.977183461    Earth           Penumbra    133           1732.8163580
06 May 2022 02:00:20.420    06 May 2022 02:28:43.475      1703.0550205    Earth           Umbra       133           1732.8163580
06 May 2022 02:28:43.475    06 May 2022 02:28:58.259      14.784153993    Earth           Penumbra    133           1732.8163580
06 May 2022 03:33:44.333    06 May 2022 03:33:59.188      14.855134359    Earth           Penumbra    134           1739.3798820
06 May 2022 03:33:59.188    06 May 2022 04:02:29.047      1709.8586100    Earth           Umbra       134           1739.3798820
06 May 2022 04:02:29.047    06 May 2022 04:02:43.713      14.666137635    Earth           Penumbra    134           1739.3798820
06 May 2022 05:07:23.128    06 May 2022 05:07:37.863      14.735300594    Earth           Penumbra    135           1745.8839508
06 May 2022 05:07:37.863    06 May 2022 05:36:14.461      1716.5980769    Earth           Umbra       135           1745.8839508
06 May 2022 05:36:14.461    06 May 2022 05:36:29.012      14.550573297    Earth           Penumbra    135           1745.8839508
06 May 2022 06:41:01.852    06 May 2022 06:41:16.469      14.617112931    Earth           Penumbra    136           1752.3397449
06 May 2022 06:41:16.469    06 May 2022 07:09:59.754      1723.2857129    Earth           Umbra       136           1752.3397449
06 May 2022 07:09:59.754    06 May 2022 07:10:14.191      14.436919091    Earth           Penumbra    136           1752.3397449
06 May 2022 08:14:40.570    06 May 2022 08:14:55.071      14.500988473    Earth           Penumbra    137           1758.7192897
06 May 2022 08:14:55.071    06 May 2022 08:43:44.964      1729.8931504    Earth           Umbra       137           1758.7192897
06 May 2022 08:43:44.964    06 May 2022 08:43:59.289      14.325150813    Earth           Penumbra    137           1758.7192897
06 May 2022 09:48:19.342    06 May 2022 09:48:33.730      14.387574722    Earth           Penumbra    138           1765.0024635
06 May 2022 09:48:33.730    06 May 2022 10:17:30.129      1736.3992171    Earth           Umbra       138           1765.0024635
06 May 2022 10:17:30.129    06 May 2022 10:17:44.345      14.215671737    Earth           Penumbra    138           1765.0024635
06 May 2022 11:21:58.171    06 May 2022 11:22:12.448      14.276829874    Earth           Penumbra    139           1771.1937760
06 May 2022 11:22:12.448    06 May 2022 11:51:15.256      1742.8083253    Earth           Umbra       139           1771.1937760
06 May 2022 11:51:15.256    06 May 2022 11:51:29.365      14.108620794    Earth           Penumbra    139           1771.1937760
06 May 2022 12:55:37.007    06 May 2022 12:55:51.175      14.168047963    Earth           Penumbra    140           1777.3102096
06 May 2022 12:55:51.175    06 May 2022 13:25:00.313      1749.1386813    Earth           Umbra       140           1777.3102096
06 May 2022 13:25:00.313    06 May 2022 13:25:14.317      14.003480296    Earth           Penumbra    140           1777.3102096
06 May 2022 14:29:15.801    06 May 2022 14:29:29.861      14.060559799    Earth           Penumbra    141           1783.3611710
06 May 2022 14:29:29.861    06 May 2022 14:58:45.262      1755.4009877    Earth           Umbra       141           1783.3611710
06 May 2022 14:58:45.262    06 May 2022 14:58:59.162      13.899623486    Earth           Penumbra    141           1783.3611710
06 May 2022 16:02:54.530    06 May 2022 16:03:08.484      13.954248454    Earth           Penumbra    142           1789.3351067
06 May 2022 16:03:08.484    06 May 2022 16:32:30.068      1761.5839109    Earth           Umbra       142           1789.3351067
06 May 2022 16:32:30.068    06 May 2022 16:32:43.865      13.796947268    Earth           Penumbra    142           1789.3351067
06 May 2022 17:36:33.194    06 May 2022 17:36:47.043      13.849411276    Earth           Penumbra    143           1795.2167994
06 May 2022 17:36:47.043    06 May 2022 18:06:14.715      1767.6717340    Earth           Umbra       143           1795.2167994
06 May 2022 18:06:14.715    06 May 2022 18:06:28.411      13.695654063    Earth           Penumbra    143           1795.2167994
06 May 2022 19:10:11.821    06 May 2022 19:10:25.567      13.746216113    Earth           Penumbra    144           1801.0228384
06 May 2022 19:10:25.567    06 May 2022 19:39:59.248      1773.6808674    Earth           Umbra       144           1801.0228384
06 May 2022 19:39:59.248    06 May 2022 19:40:12.844      13.595754874    Earth           Penumbra    144           1801.0228384
06 May 2022 20:43:50.458    06 May 2022 20:44:04.102      13.644514605    Earth           Penumbra    145           1806.7910441
06 May 2022 20:44:04.102    06 May 2022 21:13:43.752      1779.6493264    Earth           Umbra       145           1806.7910441
06 May 2022 21:13:43.752    06 May 2022 21:13:57.249      13.497203181    Earth           Penumbra    145           1806.7910441
06 May 2022 22:17:29.131    06 May 2022 22:17:42.675      13.544285693    Earth           Penumbra    146           1812.5198428
06 May 2022 22:17:42.675    06 May 2022 22:47:28.250      1785.5752576    Earth           Umbra       146           1812.5198428
06 May 2022 22:47:28.250    06 May 2022 22:47:41.651      13.400299475    Earth           Penumbra    146           1812.5198428
06 May 2022 23:51:07.825    06 May 2022 23:51:21.271      13.446022861    Earth           Penumbra    147           1818.1534646
06 May 2022 23:51:21.271    07 May 2022 00:21:12.672      1791.4018746    Earth           Umbra       147           1818.1534646
07 May 2022 00:21:12.672    07 May 2022 00:21:25.978      13.305567100    Earth           Penumbra    147           1818.1534646
07 May 2022 01:24:46.497    07 May 2022 01:24:59.847      13.350337150    Earth           Penumbra    148           1823.6514508
07 May 2022 01:24:59.847    07 May 2022 01:54:56.935      1797.0878259    Earth           Umbra       148           1823.6514508
07 May 2022 01:54:56.935    07 May 2022 01:55:10.148      13.213287690    Earth           Penumbra    148           1823.6514508
07 May 2022 02:58:25.111    07 May 2022 02:58:38.368      13.257177640    Earth           Penumbra    149           1829.0408116
07 May 2022 02:58:38.368    07 May 2022 03:28:41.028      1802.6602943    Earth           Umbra       149           1829.0408116
07 May 2022 03:28:41.028    07 May 2022 03:28:54.152      13.123339601    Earth           Penumbra    149           1829.0408116
07 May 2022 04:32:03.647    07 May 2022 04:32:16.813      13.165820448    Earth           Penumbra    150           1834.3741967
07 May 2022 04:32:16.813    07 May 2022 05:02:24.986      1808.1730395    Earth           Umbra       150           1834.3741967
07 May 2022 05:02:24.986    07 May 2022 05:02:38.021      13.035336847    Earth           Penumbra    150           1834.3741967
07 May 2022 06:05:42.120    07 May 2022 06:05:55.196      13.075717713    Earth           Penumbra    151           1839.6661547
07 May 2022 06:05:55.196    07 May 2022 06:36:08.837      1813.6415897    Earth           Umbra       151           1839.6661547
07 May 2022 06:36:08.837    07 May 2022 06:36:21.786      12.948847236    Earth           Penumbra    151           1839.6661547
07 May 2022 07:39:20.586    07 May 2022 07:39:33.573      12.987045769    Earth           Penumbra    152           1844.8959600
07 May 2022 07:39:33.573    07 May 2022 08:09:52.618      1819.0452154    Earth           Umbra       152           1844.8959600
07 May 2022 08:09:52.618    07 May 2022 08:10:05.482      12.863698835    Earth           Penumbra    152           1844.8959600
07 May 2022 09:12:59.103    07 May 2022 09:13:12.003      12.900276098    Earth           Penumbra    153           1850.0481923
07 May 2022 09:13:12.003    07 May 2022 09:43:36.371      1824.3678536    Earth           Umbra       153           1850.0481923
07 May 2022 09:43:36.371    07 May 2022 09:43:49.151      12.780062633    Earth           Penumbra    153           1850.0481923
07 May 2022 10:46:37.683    07 May 2022 10:46:50.498      12.815458048    Earth           Penumbra    154           1855.1263501
07 May 2022 10:46:50.498    07 May 2022 11:17:20.111      1829.6127831    Earth           Umbra       154           1855.1263501
07 May 2022 11:17:20.111    07 May 2022 11:17:32.809      12.698108994    Earth           Penumbra    154           1855.1263501
07 May 2022 12:20:16.282    07 May 2022 12:20:29.014      12.732113851    Earth           Penumbra    155           1860.1408569
07 May 2022 12:20:29.014    07 May 2022 12:51:03.805      1834.7911657    Earth           Umbra       155           1860.1408569
