GMAT/Constellation/Eclipses/eclipse2.txt

Spacecraft: HSEYE2

Start Time (UTC)            Stop Time (UTC)               Duration (s)    Occ Body        Type        Event Number  Total Duration (s)
27 Apr 2022 12:33:22.674    27 Apr 2022 12:33:30.885      8.2108907634    Earth           Penumbra    1             2155.4141978
27 Apr 2022 12:33:30.885    27 Apr 2022 13:09:09.822      2138.9366617    Earth           Umbra       1             2155.4141978
27 Apr 2022 13:09:09.822    27 Apr 2022 13:09:18.089      8.2666454022    Earth           Penumbra    1             2155.4141978
27 Apr 2022 14:06:49.794    27 Apr 2022 14:06:58.006      8.2119531697    Earth           Penumbra    2             2155.3142289
27 Apr 2022 14:06:58.006    27 Apr 2022 14:42:36.840      2138.8338563    Earth           Umbra       2             2155.3142289
27 Apr 2022 14:42:36.840    27 Apr 2022 14:42:45.108      8.2684194320    Earth           Penumbra    2             2155.3142289
27 Apr 2022 15:40:16.961    27 Apr 2022 15:40:25.174      8.2131988253    Earth           Penumbra    3             2155.1969816
27 Apr 2022 15:40:25.174    27 Apr 2022 16:16:03.888      2138.7131974    Earth           Umbra       3             2155.1969816
27 Apr 2022 16:16:03.888    27 Apr 2022 16:16:12.158      8.2705854205    Earth           Penumbra    3             2155.1969816
27 Apr 2022 17:13:44.197    27 Apr 2022 17:13:52.412      8.2145790104    Earth           Penumbra    4             2155.0623411
27 Apr 2022 17:13:52.412    27 Apr 2022 17:49:30.986      2138.5748426    Earth           Umbra       4             2155.0623411
27 Apr 2022 17:49:30.986    27 Apr 2022 17:49:39.259      8.2729195710    Earth           Penumbra    4             2155.0623411
27 Apr 2022 18:47:11.466    27 Apr 2022 18:47:19.682      8.2161050406    Earth           Penumbra    5             2146.6402802
27 Apr 2022 18:47:19.682    27 Apr 2022 19:22:58.106      2138.4241751    Earth           Umbra       5             2146.6402802
27 Apr 2022 20:20:46.940    27 Apr 2022 20:56:25.206      2138.2665675    Earth           Umbra       6             2146.5442493
27 Apr 2022 20:56:25.206    27 Apr 2022 20:56:33.484      8.2776818541    Earth           Penumbra    6             2146.5442493
27 Apr 2022 21:54:05.954    27 Apr 2022 21:54:14.174      8.2200431731    Earth           Penumbra    7             2154.6043878
27 Apr 2022 21:54:14.174    27 Apr 2022 22:29:52.278      2138.1038062    Earth           Umbra       7             2154.6043878
27 Apr 2022 22:29:52.278    27 Apr 2022 22:30:00.559      8.2805384067    Earth           Penumbra    7             2154.6043878
27 Apr 2022 23:27:33.174    27 Apr 2022 23:27:41.396      8.2226526691    Earth           Penumbra    8             2146.1607625
27 Apr 2022 23:27:41.396    28 Apr 2022 00:03:19.334      2137.9381098    Earth           Umbra       8             2146.1607625
28 Apr 2022 01:01:00.381    28 Apr 2022 01:01:08.606      8.2256072899    Earth           Penumbra    9             2154.2840915
28 Apr 2022 01:01:08.606    28 Apr 2022 01:36:46.377      2137.7708343    Earth           Umbra       9             2154.2840915
28 Apr 2022 01:36:46.377    28 Apr 2022 01:36:54.665      8.2876499277    Earth           Penumbra    9             2154.2840915
28 Apr 2022 02:34:27.588    28 Apr 2022 02:34:35.817      8.2287709345    Earth           Penumbra    10            2154.1161565
28 Apr 2022 02:34:35.817    28 Apr 2022 03:10:13.413      2137.5958123    Earth           Umbra       10            2154.1161565
28 Apr 2022 03:10:13.413    28 Apr 2022 03:10:21.704      8.2915732870    Earth           Penumbra    10            2154.1161565
28 Apr 2022 04:07:54.840    28 Apr 2022 04:08:03.072      8.2321344875    Earth           Penumbra    11            2153.9311639
28 Apr 2022 04:08:03.072    28 Apr 2022 04:43:40.475      2137.4034259    Earth           Umbra       11            2153.9311639
28 Apr 2022 04:43:40.475    28 Apr 2022 04:43:48.771      8.2956035156    Earth           Penumbra    11            2153.9311639
28 Apr 2022 05:41:22.169    28 Apr 2022 05:41:30.405      8.2357573556    Earth           Penumbra    12            2153.7270760
28 Apr 2022 05:41:30.405    28 Apr 2022 06:17:07.597      2137.1915441    Earth           Umbra       12            2153.7270760
28 Apr 2022 06:17:07.597    28 Apr 2022 06:17:15.896      8.2997745601    Earth           Penumbra    12            2153.7270760
28 Apr 2022 07:14:57.796    28 Apr 2022 07:50:34.759      2136.9632704    Earth           Umbra       13            2145.2673675
28 Apr 2022 07:50:34.759    28 Apr 2022 07:50:43.063      8.3040971076    Earth           Penumbra    13            2145.2673675
28 Apr 2022 08:48:16.945    28 Apr 2022 08:48:25.188      8.2434321404    Earth           Penumbra    14            2153.2682243
28 Apr 2022 08:48:25.188    28 Apr 2022 09:24:01.905      2136.7163210    Earth           Umbra       14            2153.2682243
28 Apr 2022 09:24:01.905    28 Apr 2022 09:24:10.213      8.3084712038    Earth           Penumbra    14            2153.2682243
28 Apr 2022 10:21:44.293    28 Apr 2022 10:21:52.540      8.2472206559    Earth           Penumbra    15            2144.6927264
28 Apr 2022 10:21:52.540    28 Apr 2022 10:57:28.986      2136.4455058    Earth           Umbra       15            2144.6927264
28 Apr 2022 11:55:11.595    28 Apr 2022 11:55:19.846      8.2510509761    Earth           Penumbra    16            2152.7211027
28 Apr 2022 11:55:19.846    28 Apr 2022 12:30:55.999      2136.1529137    Earth           Umbra       16            2152.7211027
28 Apr 2022 12:30:55.999    28 Apr 2022 12:31:04.316      8.3171379869    Earth           Penumbra    16            2152.7211027
28 Apr 2022 13:28:47.139    28 Apr 2022 14:04:22.983      2135.8446308    Earth           Umbra       17            2144.1664148
28 Apr 2022 14:04:22.983    28 Apr 2022 14:04:31.305      8.3217839710    Earth           Penumbra    17            2144.1664148
28 Apr 2022 15:02:06.215    28 Apr 2022 15:02:14.475      8.2592205028    Earth           Penumbra    18            2152.1066642
28 Apr 2022 15:02:14.475    28 Apr 2022 15:37:49.995      2135.5205941    Earth           Umbra       18            2152.1066642
28 Apr 2022 15:37:49.995    28 Apr 2022 15:37:58.322      8.3268495742    Earth           Penumbra    18            2152.1066642
28 Apr 2022 16:35:33.619    28 Apr 2022 16:35:41.883      8.2635232480    Earth           Penumbra    19            2151.7737447
28 Apr 2022 16:35:41.883    28 Apr 2022 17:11:17.061      2135.1780910    Earth           Umbra       19            2151.7737447
28 Apr 2022 17:11:17.061    28 Apr 2022 17:11:25.393      8.3321304875    Earth           Penumbra    19            2151.7737447
28 Apr 2022 18:09:01.065    28 Apr 2022 18:09:09.333      8.2679426065    Earth           Penumbra    20            2151.4267537
28 Apr 2022 18:09:09.333    28 Apr 2022 18:44:44.155      2134.8214296    Earth           Umbra       20            2151.4267537
28 Apr 2022 18:44:44.155    28 Apr 2022 18:44:52.492      8.3373815403    Earth           Penumbra    20            2151.4267537
28 Apr 2022 19:42:36.776    28 Apr 2022 20:18:11.235      2134.4588605    Earth           Umbra       21            2142.8015289
28 Apr 2022 20:18:11.235    28 Apr 2022 20:18:19.578      8.3426684258    Earth           Penumbra    21            2142.8015289
28 Apr 2022 21:15:55.920    28 Apr 2022 21:16:04.198      8.2775460673    Earth           Penumbra    22            2142.3716596
28 Apr 2022 21:16:04.198    28 Apr 2022 21:51:38.292      2134.0941135    Earth           Umbra       22            2142.3716596
28 Apr 2022 22:49:23.327    28 Apr 2022 22:49:31.610      8.2829586812    Earth           Penumbra    23            2150.3651757
28 Apr 2022 22:49:31.610    28 Apr 2022 23:25:05.338      2133.7277672    Earth           Umbra       23            2150.3651757
28 Apr 2022 23:25:05.338    28 Apr 2022 23:25:13.692      8.3544498193    Earth           Penumbra    23            2150.3651757
29 Apr 2022 00:22:50.726    29 Apr 2022 00:22:59.015      8.2887481665    Earth           Penumbra    24            2150.0099417
29 Apr 2022 00:22:59.015    29 Apr 2022 00:58:32.375      2133.3601885    Earth           Umbra       24            2150.0099417
29 Apr 2022 00:58:32.375    29 Apr 2022 00:58:40.736      8.3610049915    Earth           Penumbra    24            2150.0099417
29 Apr 2022 01:56:26.419    29 Apr 2022 02:31:59.406      2132.9868546    Earth           Umbra       25            2132.9868546
29 Apr 2022 03:29:45.561    29 Apr 2022 03:29:53.862      8.3009366062    Earth           Penumbra    26            2149.2739063
29 Apr 2022 03:29:53.862    29 Apr 2022 04:05:26.461      2132.5984184    Earth           Umbra       26            2149.2739063
29 Apr 2022 04:05:26.461    29 Apr 2022 04:05:34.835      8.3745512995    Earth           Penumbra    26            2149.2739063
29 Apr 2022 05:03:13.077    29 Apr 2022 05:03:21.384      8.3073314745    Earth           Penumbra    27            2148.8794104
29 Apr 2022 05:03:21.384    29 Apr 2022 05:38:53.575      2132.1906135    Earth           Umbra       27            2148.8794104
29 Apr 2022 05:38:53.575    29 Apr 2022 05:39:01.956      8.3814654266    Earth           Penumbra    27            2148.8794104
29 Apr 2022 06:36:40.659    29 Apr 2022 06:36:48.973      8.3139253082    Earth           Penumbra    28            2148.4686539
29 Apr 2022 06:36:48.973    29 Apr 2022 07:12:20.739      2131.7662004    Earth           Umbra       28            2148.4686539
29 Apr 2022 07:12:20.739    29 Apr 2022 07:12:29.127      8.3885282278    Earth           Penumbra    28            2148.4686539
29 Apr 2022 08:10:16.572    29 Apr 2022 08:45:47.897      2131.3249095    Earth           Umbra       29            2139.7205713
29 Apr 2022 08:45:47.897    29 Apr 2022 08:45:56.293      8.3956617513    Earth           Penumbra    29            2139.7205713
29 Apr 2022 09:43:35.808    29 Apr 2022 09:43:44.135      8.3271230338    Earth           Penumbra    30            2147.5919406
29 Apr 2022 09:43:44.135    29 Apr 2022 10:19:14.997      2130.8620874    Earth           Umbra       30            2147.5919406
29 Apr 2022 10:19:14.997    29 Apr 2022 10:19:23.400      8.4027302102    Earth           Penumbra    30            2147.5919406
29 Apr 2022 11:17:03.316    29 Apr 2022 11:17:11.650      8.3336816635    Earth           Penumbra    31            2147.1224139
29 Apr 2022 11:17:11.650    29 Apr 2022 11:52:42.029      2130.3789556    Earth           Umbra       31            2147.1224139
29 Apr 2022 11:52:42.029    29 Apr 2022 11:52:50.438      8.4097766667    Earth           Penumbra    31            2147.1224139
29 Apr 2022 12:50:30.806    29 Apr 2022 12:50:39.147      8.3403908531    Earth           Penumbra    32            2138.2227300
29 Apr 2022 12:50:39.147    29 Apr 2022 13:26:09.029      2129.8823392    Earth           Umbra       32            2138.2227300
29 Apr 2022 14:24:06.682    29 Apr 2022 14:59:36.055      2129.3728805    Earth           Umbra       33            2137.7976817
29 Apr 2022 14:59:36.055    29 Apr 2022 14:59:44.480      8.4248012281    Earth           Penumbra    33            2137.7976817
29 Apr 2022 15:57:25.937    29 Apr 2022 15:57:34.291      8.3543027169    Earth           Penumbra    34            2145.6325156
29 Apr 2022 15:57:34.291    29 Apr 2022 16:33:03.136      2128.8454121    Earth           Umbra       34            2145.6325156
29 Apr 2022 16:33:03.136    29 Apr 2022 16:33:11.569      8.4328007069    Earth           Penumbra    34            2145.6325156
29 Apr 2022 17:30:53.589    29 Apr 2022 17:31:01.951      8.3614088944    Earth           Penumbra    35            2145.1040147
29 Apr 2022 17:31:01.951    29 Apr 2022 18:06:30.253      2128.3018336    Earth           Umbra       35            2145.1040147
29 Apr 2022 18:06:30.253    29 Apr 2022 18:06:38.693      8.4407722112    Earth           Penumbra    35            2145.1040147
29 Apr 2022 19:04:21.241    29 Apr 2022 19:04:29.610      8.3686756901    Earth           Penumbra    36            2144.5695995
29 Apr 2022 19:04:29.610    29 Apr 2022 19:39:57.362      2127.7522269    Earth           Umbra       36            2144.5695995
29 Apr 2022 19:39:57.362    29 Apr 2022 19:40:05.811      8.4486968815    Earth           Penumbra    36            2144.5695995
29 Apr 2022 20:37:57.248    29 Apr 2022 21:13:24.451      2127.2031911    Earth           Umbra       37            2135.6600663
29 Apr 2022 21:13:24.451    29 Apr 2022 21:13:32.908      8.4568752092    Earth           Penumbra    37            2135.6600663
29 Apr 2022 22:11:16.496    29 Apr 2022 22:11:24.880      8.3842515713    Earth           Penumbra    38            2143.5044568
29 Apr 2022 22:11:24.880    29 Apr 2022 22:46:51.535      2126.6546397    Earth           Umbra       38            2143.5044568
29 Apr 2022 22:46:51.535    29 Apr 2022 22:47:00.000      8.4655655664    Earth           Penumbra    38            2143.5044568
29 Apr 2022 23:44:44.118    29 Apr 2022 23:44:52.510      8.3926486666    Earth           Penumbra    39            2134.4980139
29 Apr 2022 23:44:52.510    30 Apr 2022 00:20:18.616      2126.1053653    Earth           Umbra       39            2134.4980139
30 Apr 2022 01:18:11.738    30 Apr 2022 01:18:20.139      8.4012962761    Earth           Penumbra    40            2142.4372779
30 Apr 2022 01:18:20.139    30 Apr 2022 01:53:45.691      2125.5519462    Earth           Umbra       40            2142.4372779
30 Apr 2022 01:53:45.691    30 Apr 2022 01:53:54.175      8.4840354044    Earth           Penumbra    40            2142.4372779
30 Apr 2022 02:51:47.801    30 Apr 2022 03:27:12.787      2124.9860707    Earth           Umbra       41            2133.4794669
30 Apr 2022 03:27:12.787    30 Apr 2022 03:27:21.280      8.4933962091    Earth           Penumbra    41            2133.4794669
30 Apr 2022 04:25:07.121    30 Apr 2022 04:25:15.540      8.4190246300    Earth           Penumbra    42            2141.3236200
30 Apr 2022 04:25:15.540    30 Apr 2022 05:00:39.942      2124.4017853    Earth           Umbra       42            2141.3236200
30 Apr 2022 05:00:39.942    30 Apr 2022 05:00:48.445      8.5028101341    Earth           Penumbra    42            2141.3236200
30 Apr 2022 05:58:34.927    30 Apr 2022 05:58:43.355      8.4281566087    Earth           Penumbra    43            2140.7412869
30 Apr 2022 05:58:43.355    30 Apr 2022 06:34:07.156      2123.8007695    Earth           Umbra       43            2140.7412869
30 Apr 2022 06:34:07.156    30 Apr 2022 06:34:15.668      8.5123607889    Earth           Penumbra    43            2140.7412869
30 Apr 2022 07:32:02.753    30 Apr 2022 07:32:11.190      8.4373505088    Earth           Penumbra    44            2140.1437956
30 Apr 2022 07:32:11.190    30 Apr 2022 08:07:34.375      2123.1844444    Earth           Umbra       44            2140.1437956
30 Apr 2022 08:07:34.375    30 Apr 2022 08:07:42.897      8.5220007109    Earth           Penumbra    44            2140.1437956
30 Apr 2022 09:05:30.547    30 Apr 2022 09:05:38.993      8.4464592277    Earth           Penumbra    45            2139.5272831
30 Apr 2022 09:05:38.993    30 Apr 2022 09:41:01.542      2122.5492468    Earth           Umbra       45            2139.5272831
30 Apr 2022 09:41:01.542    30 Apr 2022 09:41:10.074      8.5315771401    Earth           Penumbra    45            2139.5272831
30 Apr 2022 10:39:06.746    30 Apr 2022 11:14:28.642      2121.8955313    Earth           Umbra       46            2121.8955313
30 Apr 2022 12:12:26.012    30 Apr 2022 12:12:34.477      8.4646974108    Earth           Penumbra    47            2138.2459797
30 Apr 2022 12:12:34.477    30 Apr 2022 12:47:55.707      2121.2305181    Earth           Umbra       47            2138.2459797
30 Apr 2022 12:47:55.707    30 Apr 2022 12:48:04.258      8.5507642594    Earth           Penumbra    47            2138.2459797
30 Apr 2022 13:45:53.765    30 Apr 2022 13:46:02.239      8.4740689024    Earth           Penumbra    48            2137.5911886
30 Apr 2022 13:46:02.239    30 Apr 2022 14:21:22.796      2120.5562425    Earth           Umbra       48            2137.5911886
30 Apr 2022 14:21:22.796    30 Apr 2022 14:21:31.357      8.5608772351    Earth           Penumbra    48            2137.5911886
30 Apr 2022 15:19:21.593    30 Apr 2022 15:19:30.076      8.4835629794    Earth           Penumbra    49            2136.9207760
30 Apr 2022 15:19:30.076    30 Apr 2022 15:54:49.942      2119.8658912    Earth           Umbra       49            2136.9207760
30 Apr 2022 15:54:49.942    30 Apr 2022 15:54:58.513      8.5713218199    Earth           Penumbra    49            2136.9207760
30 Apr 2022 16:52:57.972    30 Apr 2022 17:28:17.130      2119.1580056    Earth           Umbra       50            2127.7397625
30 Apr 2022 17:28:17.130    30 Apr 2022 17:28:25.711      8.5817569750    Earth           Penumbra    50            2127.7397625
30 Apr 2022 18:26:17.370    30 Apr 2022 18:26:25.873      8.5027840454    Earth           Penumbra    51            2135.5379198
30 Apr 2022 18:26:25.873    30 Apr 2022 19:01:44.316      2118.4430709    Earth           Umbra       51            2135.5379198
30 Apr 2022 19:01:44.316    30 Apr 2022 19:01:52.908      8.5920648300    Earth           Penumbra    51            2135.5379198
30 Apr 2022 19:59:45.243    30 Apr 2022 19:59:53.755      8.5127099999    Earth           Penumbra    52            2134.8462286
30 Apr 2022 19:59:53.755    30 Apr 2022 20:35:11.486      2117.7309960    Earth           Umbra       52            2134.8462286
30 Apr 2022 20:35:11.486    30 Apr 2022 20:35:20.089      8.6025226163    Earth           Penumbra    52            2134.8462286
30 Apr 2022 21:33:13.110    30 Apr 2022 21:33:21.633      8.5230338853    Earth           Penumbra    53            2125.5453339
30 Apr 2022 21:33:21.633    30 Apr 2022 22:08:38.655      2117.0223000    Earth           Umbra       53            2125.5453339
30 Apr 2022 23:06:40.980    30 Apr 2022 23:06:49.513      8.5337739321    Earth           Penumbra    54            2133.4726213
30 Apr 2022 23:06:49.513    30 Apr 2022 23:42:05.827      2116.3139651    Earth           Umbra       54            2133.4726213
30 Apr 2022 23:42:05.827    30 Apr 2022 23:42:14.452      8.6248821812    Earth           Penumbra    54            2133.4726213
01 May 2022 00:40:17.394    01 May 2022 01:15:32.997      2115.6028655    Earth           Umbra       55            2124.2393921
01 May 2022 01:15:32.997    01 May 2022 01:15:41.634      8.6365265306    Earth           Penumbra    55            2124.2393921
01 May 2022 02:13:36.746    01 May 2022 02:13:45.302      8.5559269879    Earth           Penumbra    56            2132.0862889
01 May 2022 02:13:45.302    01 May 2022 02:49:00.184      2114.8822049    Earth           Umbra       56            2132.0862889
01 May 2022 02:49:00.184    01 May 2022 02:49:08.832      8.6481570499    Earth           Penumbra    56            2132.0862889
01 May 2022 03:47:04.716    01 May 2022 03:47:13.283      8.5671608336    Earth           Penumbra    57            2131.3720496
01 May 2022 03:47:13.283    01 May 2022 04:22:27.428      2114.1451166    Earth           Umbra       57            2131.3720496
01 May 2022 04:22:27.428    01 May 2022 04:22:36.088      8.6597721674    Earth           Penumbra    57            2131.3720496
01 May 2022 05:20:32.768    01 May 2022 05:20:41.347      8.5785483825    Earth           Penumbra    58            2130.6417456
01 May 2022 05:20:41.347    01 May 2022 05:55:54.738      2113.3917109    Earth           Umbra       58            2130.6417456
01 May 2022 05:55:54.738    01 May 2022 05:56:03.410      8.6714862962    Earth           Penumbra    58            2130.6417456
01 May 2022 06:54:00.852    01 May 2022 06:54:09.442      8.5900126258    Earth           Penumbra    59            2129.8977962
01 May 2022 06:54:09.442    01 May 2022 07:29:22.066      2112.6244785    Earth           Umbra       59            2129.8977962
01 May 2022 07:29:22.066    01 May 2022 07:29:30.750      8.6833050940    Earth           Penumbra    59            2129.8977962
01 May 2022 08:27:37.509    01 May 2022 09:02:49.351      2111.8413405    Earth           Umbra       60            2120.5364154
01 May 2022 09:02:49.351    01 May 2022 09:02:58.046      8.6950748577    Earth           Penumbra    60            2120.5364154
01 May 2022 10:00:56.913    01 May 2022 10:01:05.525      8.6126538226    Earth           Penumbra    61            2128.3613984
01 May 2022 10:01:05.525    01 May 2022 10:36:16.567      2111.0420257    Earth           Umbra       61            2128.3613984
01 May 2022 10:36:16.567    01 May 2022 10:36:25.274      8.7067188928    Earth           Penumbra    61            2128.3613984
01 May 2022 11:34:24.889    01 May 2022 11:34:33.513      8.6239970522    Earth           Penumbra    62            2127.5761840
01 May 2022 11:34:33.513    01 May 2022 12:09:43.747      2110.2337304    Earth           Umbra       62            2127.5761840
01 May 2022 12:09:43.747    01 May 2022 12:09:52.465      8.7184565957    Earth           Penumbra    62            2127.5761840
01 May 2022 13:07:52.890    01 May 2022 13:08:01.526      8.6355332751    Earth           Penumbra    63            2126.7864123
01 May 2022 13:08:01.526    01 May 2022 13:43:10.946      2109.4202808    Earth           Umbra       63            2126.7864123
01 May 2022 13:43:10.946    01 May 2022 13:43:19.677      8.7305982015    Earth           Penumbra    63            2126.7864123
01 May 2022 14:41:20.964    01 May 2022 14:41:29.612      8.6472002557    Earth           Penumbra    64            2117.2414901
01 May 2022 14:41:29.612    01 May 2022 15:16:38.206      2108.5942898    Earth           Umbra       64            2117.2414901
01 May 2022 16:14:57.763    01 May 2022 16:50:05.513      2107.7505054    Earth           Umbra       65            2116.5061799
01 May 2022 16:50:05.513    01 May 2022 16:50:14.269      8.7556744460    Earth           Penumbra    65            2116.5061799
01 May 2022 17:48:17.257    01 May 2022 17:48:25.928      8.6706546019    Earth           Penumbra    66            2124.3368568
01 May 2022 17:48:25.928    01 May 2022 18:23:32.826      2106.8981740    Earth           Umbra       66            2124.3368568
01 May 2022 18:23:32.826    01 May 2022 18:23:41.594      8.7680282188    Earth           Penumbra    66            2124.3368568
01 May 2022 19:21:45.392    01 May 2022 19:21:54.074      8.6826047860    Earth           Penumbra    67            2123.5133675
01 May 2022 19:21:54.074    01 May 2022 19:57:00.125      2106.0503575    Earth           Umbra       67            2123.5133675
01 May 2022 19:57:00.125    01 May 2022 19:57:08.905      8.7804052513    Earth           Penumbra    67            2123.5133675
01 May 2022 20:55:13.521    01 May 2022 20:55:22.216      8.6949167540    Earth           Penumbra    68            2122.6976498
01 May 2022 20:55:22.216    01 May 2022 21:30:27.426      2105.2095375    Earth           Umbra       68            2122.6976498
01 May 2022 21:30:27.426    01 May 2022 21:30:36.219      8.7931956165    Earth           Penumbra    68            2122.6976498
01 May 2022 22:28:41.658    01 May 2022 22:28:50.366      8.7076521129    Earth           Penumbra    69            2121.8853208
01 May 2022 22:28:50.366    01 May 2022 23:03:54.737      2104.3711654    Earth           Umbra       69            2121.8853208
01 May 2022 23:03:54.737    01 May 2022 23:04:03.543      8.8065033546    Earth           Penumbra    69            2121.8853208
02 May 2022 00:02:09.798    02 May 2022 00:02:18.518      8.7206929922    Earth           Penumbra    70            2121.0722331
02 May 2022 00:02:18.518    02 May 2022 00:37:22.050      2103.5314684    Earth           Umbra       70            2121.0722331
02 May 2022 00:37:22.050    02 May 2022 00:37:30.870      8.8200716651    Earth           Penumbra    70            2121.0722331
02 May 2022 01:35:37.958    02 May 2022 01:35:46.692      8.7338366546    Earth           Penumbra    71            2120.2526709
02 May 2022 01:35:46.692    02 May 2022 02:10:49.377      2102.6852420    Earth           Umbra       71            2120.2526709
02 May 2022 02:10:49.377    02 May 2022 02:10:58.210      8.8335921988    Earth           Penumbra    71            2120.2526709
02 May 2022 03:09:06.186    02 May 2022 03:09:14.933      8.7470101775    Earth           Penumbra    72            2119.4196627
02 May 2022 03:09:14.933    02 May 2022 03:44:16.759      2101.8256488    Earth           Umbra       72            2119.4196627
02 May 2022 03:44:16.759    02 May 2022 03:44:25.606      8.8470036630    Earth           Penumbra    72            2119.4196627
02 May 2022 04:42:34.501    02 May 2022 04:42:43.261      8.7602776824    Earth           Penumbra    73            2118.5718528
02 May 2022 04:42:43.261    02 May 2022 05:17:44.212      2100.9511273    Earth           Umbra       73            2118.5718528
02 May 2022 05:17:44.212    02 May 2022 05:17:53.073      8.8604478166    Earth           Penumbra    73            2118.5718528
02 May 2022 06:16:02.858    02 May 2022 06:16:11.632      8.7736171670    Earth           Penumbra    74            2117.7120650
02 May 2022 06:16:11.632    02 May 2022 06:51:11.696      2100.0644465    Earth           Umbra       74            2117.7120650
02 May 2022 06:51:11.696    02 May 2022 06:51:20.570      8.8740013540    Earth           Penumbra    74            2117.7120650
02 May 2022 07:49:31.193    02 May 2022 07:49:39.980      8.7868708419    Earth           Penumbra    75            2116.8395230
02 May 2022 07:49:39.980    02 May 2022 08:24:39.145      2099.1651294    Earth           Umbra       75            2116.8395230
02 May 2022 08:24:39.145    02 May 2022 08:24:48.033      8.8875228306    Earth           Penumbra    75            2116.8395230
02 May 2022 09:22:59.475    02 May 2022 09:23:08.275      8.7999670417    Earth           Penumbra    76            2115.9535146
02 May 2022 09:23:08.275    02 May 2022 09:58:06.528      2098.2526730    Earth           Umbra       76            2115.9535146
02 May 2022 09:58:06.528    02 May 2022 09:58:15.429      8.9008745737    Earth           Penumbra    76            2115.9535146
02 May 2022 10:56:27.722    02 May 2022 10:56:36.535      8.8130670134    Earth           Penumbra    77            2115.0611685
02 May 2022 10:56:36.535    02 May 2022 11:31:33.869      2097.3338833    Earth           Umbra       77            2115.0611685
02 May 2022 11:31:33.869    02 May 2022 11:31:42.783      8.9142181445    Earth           Penumbra    77            2115.0611685
02 May 2022 12:29:55.986    02 May 2022 12:30:04.812      8.8263433194    Earth           Penumbra    78            2114.1687237
02 May 2022 12:30:04.812    02 May 2022 13:05:01.227      2096.4144760    Earth           Umbra       78            2114.1687237
02 May 2022 13:05:01.227    02 May 2022 13:05:10.155      8.9279043255    Earth           Penumbra    78            2114.1687237
02 May 2022 14:03:24.320    02 May 2022 14:03:33.160      8.8397676707    Earth           Penumbra    79            2104.3274018
02 May 2022 14:03:33.160    02 May 2022 14:38:28.647      2095.4876341    Earth           Umbra       79            2104.3274018
02 May 2022 15:36:52.725    02 May 2022 15:37:01.578      8.8531983085    Earth           Penumbra    80            2112.3538632
02 May 2022 15:37:01.578    02 May 2022 16:11:56.123      2094.5444698    Earth           Umbra       80            2112.3538632
02 May 2022 16:11:56.123    02 May 2022 16:12:05.079      8.9561951347    Earth           Penumbra    80            2112.3538632
02 May 2022 17:10:21.150    02 May 2022 17:10:30.017      8.8666148018    Earth           Penumbra    81            2111.4280878
02 May 2022 17:10:30.017    02 May 2022 17:45:23.608      2093.5913465    Earth           Umbra       81            2111.4280878
02 May 2022 17:45:23.608    02 May 2022 17:45:32.578      8.9701264864    Earth           Penumbra    81            2111.4280878
02 May 2022 18:43:49.559    02 May 2022 18:43:58.439      8.8801510516    Earth           Penumbra    82            2110.5077570
02 May 2022 18:43:58.439    02 May 2022 19:18:51.083      2092.6436707    Earth           Umbra       82            2110.5077570
02 May 2022 19:18:51.083    02 May 2022 19:19:00.066      8.9839352528    Earth           Penumbra    82            2110.5077570
02 May 2022 20:17:17.960    02 May 2022 20:17:26.854      8.8939903071    Earth           Penumbra    83            2100.6011062
02 May 2022 20:17:26.854    02 May 2022 20:52:18.561      2091.7071159    Earth           Umbra       83            2100.6011062
02 May 2022 21:50:46.373    02 May 2022 21:50:55.281      8.9082410093    Earth           Penumbra    84            2108.6973618
02 May 2022 21:50:55.281    02 May 2022 22:25:46.057      2090.7764308    Earth           Umbra       84            2108.6973618
02 May 2022 22:25:46.057    02 May 2022 22:25:55.070      9.0126900002    Earth           Penumbra    84            2108.6973618
02 May 2022 23:24:14.791    02 May 2022 23:24:23.714      8.9228201774    Earth           Penumbra    85            2107.7968194
02 May 2022 23:24:23.714    02 May 2022 23:59:13.561      2089.8463586    Earth           Umbra       85            2107.7968194
02 May 2022 23:59:13.561    02 May 2022 23:59:22.588      9.0276406961    Earth           Penumbra    85            2107.7968194
03 May 2022 00:57:43.225    03 May 2022 00:57:52.163      8.9375018142    Earth           Penumbra    86            2106.8928761
03 May 2022 00:57:52.163    03 May 2022 01:32:41.076      2088.9128562    Earth           Umbra       86            2106.8928761
03 May 2022 01:32:41.076    03 May 2022 01:32:50.118      9.0425181552    Earth           Penumbra    86            2106.8928761
03 May 2022 02:31:11.719    03 May 2022 02:31:20.671      8.9521325310    Earth           Penumbra    87            2096.9221563
03 May 2022 02:31:20.671    03 May 2022 03:06:08.641      2087.9700238    Earth           Umbra       87            2096.9221563
03 May 2022 04:04:40.301    03 May 2022 04:04:49.268      8.9667667053    Earth           Penumbra    88            2105.0534961
03 May 2022 04:04:49.268    03 May 2022 04:39:36.283      2087.0149646    Earth           Umbra       88            2105.0534961
03 May 2022 04:39:36.283    03 May 2022 04:39:45.355      9.0717648156    Earth           Penumbra    88            2105.0534961
03 May 2022 05:38:17.917    03 May 2022 06:13:03.967      2086.0499675    Earth           Umbra       89            2095.1364089
03 May 2022 06:13:03.967    03 May 2022 06:13:13.053      9.0864414233    Earth           Penumbra    89            2095.1364089
03 May 2022 07:11:37.554    03 May 2022 07:11:46.550      8.9960526559    Earth           Penumbra    90            2103.1730886
03 May 2022 07:11:46.550    03 May 2022 07:46:31.626      2085.0759270    Earth           Umbra       90            2103.1730886
03 May 2022 07:46:31.626    03 May 2022 07:46:40.727      9.1011089156    Earth           Penumbra    90            2103.1730886
03 May 2022 08:45:06.118    03 May 2022 08:45:15.128      9.0104470029    Earth           Penumbra    91            2102.2185418
03 May 2022 08:45:15.128    03 May 2022 09:19:59.221      2084.0925230    Earth           Umbra       91            2102.2185418
03 May 2022 09:19:59.221    03 May 2022 09:20:08.336      9.1155717848    Earth           Penumbra    91            2102.2185418
03 May 2022 10:18:34.638    03 May 2022 10:18:43.663      9.0247505112    Earth           Penumbra    92            2101.2606175
03 May 2022 10:18:43.663    03 May 2022 10:53:26.769      2083.1059556    Earth           Umbra       92            2101.2606175
03 May 2022 10:53:26.769    03 May 2022 10:53:35.899      9.1299114400    Earth           Penumbra    92            2101.2606175
03 May 2022 11:52:03.167    03 May 2022 11:52:12.206      9.0391901205    Earth           Penumbra    93            2100.3073298
03 May 2022 11:52:12.206    03 May 2022 12:26:54.330      2082.1236447    Earth           Umbra       93            2100.3073298
03 May 2022 12:26:54.330    03 May 2022 12:27:03.474      9.1444950085    Earth           Penumbra    93            2100.3073298
03 May 2022 13:25:31.761    03 May 2022 13:25:40.815      9.0537878335    Earth           Penumbra    94            2099.3537175
03 May 2022 13:25:40.815    03 May 2022 14:00:21.955      2081.1404170    Earth           Umbra       94            2099.3537175
03 May 2022 14:00:21.955    03 May 2022 14:00:31.115      9.1595126549    Earth           Penumbra    94            2099.3537175
03 May 2022 14:59:00.429    03 May 2022 14:59:09.498      9.0683817747    Earth           Penumbra    95            2098.3874766
03 May 2022 14:59:09.498    03 May 2022 15:33:49.642      2080.1444350    Earth           Umbra       95            2098.3874766
03 May 2022 15:33:49.642    03 May 2022 15:33:58.817      9.1746598016    Earth           Penumbra    95            2098.3874766
03 May 2022 16:32:29.125    03 May 2022 16:32:38.208      9.0828845627    Earth           Penumbra    96            2097.4102279
03 May 2022 16:32:38.208    03 May 2022 17:07:17.346      2079.1378227    Earth           Umbra       96            2097.4102279
03 May 2022 17:07:17.346    03 May 2022 17:07:26.535      9.1895206016    Earth           Penumbra    96            2097.4102279
03 May 2022 18:05:57.804    03 May 2022 18:06:06.901      9.0974065242    Earth           Penumbra    97            2096.4384104
03 May 2022 18:06:06.901    03 May 2022 18:40:45.038      2078.1369009    Earth           Umbra       97            2096.4384104
03 May 2022 18:40:45.038    03 May 2022 18:40:54.242      9.2041029129    Earth           Penumbra    97            2096.4384104
03 May 2022 19:39:26.473    03 May 2022 19:39:35.585      9.1121503967    Earth           Penumbra    98            2095.4823425
03 May 2022 19:39:35.585    03 May 2022 20:14:12.737      2077.1513529    Earth           Umbra       98            2095.4823425
03 May 2022 20:14:12.737    03 May 2022 20:14:21.955      9.2188392417    Earth           Penumbra    98            2095.4823425
03 May 2022 21:12:55.155    03 May 2022 21:13:04.282      9.1272698832    Earth           Penumbra    99            2094.5378926
03 May 2022 21:13:04.282    03 May 2022 21:47:40.459      2076.1765502    Earth           Umbra       99            2094.5378926
03 May 2022 21:47:40.459    03 May 2022 21:47:49.693      9.2340725125    Earth           Penumbra    99            2094.5378926
03 May 2022 22:46:23.847    03 May 2022 22:46:32.989      9.1427304083    Earth           Penumbra    100           2084.3480332
03 May 2022 22:46:32.989    03 May 2022 23:21:08.195      2075.2053028    Earth           Umbra       100           2084.3480332
04 May 2022 00:19:52.549    04 May 2022 00:20:01.707      9.1582905734    Earth           Penumbra    101           2092.6573047
04 May 2022 00:20:01.707    04 May 2022 00:54:35.941      2074.2338436    Earth           Umbra       101           2092.6573047
04 May 2022 00:54:35.941    04 May 2022 00:54:45.206      9.2651705258    Earth           Penumbra    101           2092.6573047
04 May 2022 01:53:21.301    04 May 2022 01:53:30.475      9.1737221810    Earth           Penumbra    102           2091.7118421
04 May 2022 01:53:30.475    04 May 2022 02:28:03.733      2073.2577733    Earth           Umbra       102           2091.7118421
04 May 2022 02:28:03.733    04 May 2022 02:28:13.013      9.2803465901    Earth           Penumbra    102           2091.7118421
04 May 2022 03:26:50.139    04 May 2022 03:26:59.328      9.1890431475    Earth           Penumbra    103           2090.7579415
04 May 2022 03:26:59.328    04 May 2022 04:01:31.601      2072.2735922    Earth           Umbra       103           2090.7579415
04 May 2022 04:01:31.601    04 May 2022 04:01:40.897      9.2953060870    Earth           Penumbra    103           2090.7579415
04 May 2022 05:00:19.037    04 May 2022 05:00:28.241      9.2043540557    Earth           Penumbra    104           2089.7972543
04 May 2022 05:00:28.241    04 May 2022 05:34:59.524      2071.2826064    Earth           Umbra       104           2089.7972543
04 May 2022 05:34:59.524    04 May 2022 05:35:08.834      9.3102938728    Earth           Penumbra    104           2089.7972543
04 May 2022 06:33:47.927    04 May 2022 06:33:57.147      9.2195819831    Earth           Penumbra    105           2088.8314325
04 May 2022 06:33:57.147    04 May 2022 07:08:27.433      2070.2865594    Earth           Umbra       105           2088.8314325
04 May 2022 07:08:27.433    04 May 2022 07:08:36.758      9.3252910883    Earth           Penumbra    105           2088.8314325
04 May 2022 08:07:16.760    04 May 2022 08:07:25.995      9.2345587676    Earth           Penumbra    106           2087.8602203
04 May 2022 08:07:25.995    04 May 2022 08:41:55.280      2069.2855917    Earth           Umbra       106           2087.8602203
04 May 2022 08:41:55.280    04 May 2022 08:42:04.620      9.3400698504    Earth           Penumbra    106           2087.8602203
04 May 2022 09:40:45.541    04 May 2022 09:40:54.790      9.2493369011    Earth           Penumbra    107           2086.8891587
04 May 2022 09:40:54.790    04 May 2022 10:15:23.075      2068.2852168    Earth           Umbra       107           2086.8891587
04 May 2022 10:15:23.075    04 May 2022 10:15:32.430      9.3546050135    Earth           Penumbra    107           2086.8891587
04 May 2022 11:14:14.319    04 May 2022 11:14:23.583      9.2641722411    Earth           Penumbra    108           2085.9276235
04 May 2022 11:14:23.583    04 May 2022 11:48:50.877      2067.2941986    Earth           Umbra       108           2085.9276235
04 May 2022 11:48:50.877    04 May 2022 11:49:00.246      9.3692527036    Earth           Penumbra    108           2085.9276235
04 May 2022 12:47:43.155    04 May 2022 12:47:52.434      9.2791688279    Earth           Penumbra    109           2084.9733112
04 May 2022 12:47:52.434    04 May 2022 13:22:18.744      2066.3098415    Earth           Umbra       109           2084.9733112
04 May 2022 13:22:18.744    04 May 2022 13:22:28.128      9.3843008392    Earth           Penumbra    109           2084.9733112
04 May 2022 14:21:12.067    04 May 2022 14:21:21.361      9.2941606999    Earth           Penumbra    110           2084.0122038
04 May 2022 14:21:21.361    04 May 2022 14:55:46.679      2065.3185065    Earth           Umbra       110           2084.0122038
04 May 2022 14:55:46.679    04 May 2022 14:55:56.079      9.3995366246    Earth           Penumbra    110           2084.0122038
04 May 2022 15:54:41.011    04 May 2022 15:54:50.320      9.3089844100    Earth           Penumbra    111           2083.0406629
04 May 2022 15:54:50.320    04 May 2022 16:29:14.638      2064.3172097    Earth           Umbra       111           2083.0406629
04 May 2022 16:29:14.638    04 May 2022 16:29:24.052      9.4144687755    Earth           Penumbra    111           2083.0406629
04 May 2022 17:28:09.940    04 May 2022 17:28:19.264      9.3237028224    Earth           Penumbra    112           2082.0739791
04 May 2022 17:28:19.264    04 May 2022 18:02:42.585      2063.3213072    Earth           Umbra       112           2082.0739791
04 May 2022 18:02:42.585    04 May 2022 18:02:52.014      9.4289690489    Earth           Penumbra    112           2082.0739791
04 May 2022 19:01:38.854    04 May 2022 19:01:48.192      9.3385369051    Earth           Penumbra    113           2081.1265931
04 May 2022 19:01:48.192    04 May 2022 19:36:10.537      2062.3446212    Earth           Umbra       113           2081.1265931
04 May 2022 19:36:10.537    04 May 2022 19:36:19.980      9.4434350613    Earth           Penumbra    113           2081.1265931
04 May 2022 20:35:07.779    04 May 2022 20:35:17.133      9.3536859378    Earth           Penumbra    114           2070.7384831
04 May 2022 20:35:17.133    04 May 2022 21:09:38.517      2061.3847972    Earth           Umbra       114           2070.7384831
04 May 2022 22:08:36.718    04 May 2022 22:08:46.087      9.3691643793    Earth           Penumbra    115           2079.2756225
04 May 2022 22:08:46.087    04 May 2022 22:43:06.520      2060.4328840    Earth           Umbra       115           2079.2756225
04 May 2022 22:43:06.520    04 May 2022 22:43:15.993      9.4735740800    Earth           Penumbra    115           2079.2756225
04 May 2022 23:42:05.663    04 May 2022 23:42:15.048      9.3847364886    Earth           Penumbra    116           2078.3577868
04 May 2022 23:42:15.048    05 May 2022 00:16:34.532      2059.4842709    Earth           Umbra       116           2078.3577868
05 May 2022 00:16:34.532    05 May 2022 00:16:44.021      9.4887793763    Earth           Penumbra    116           2078.3577868
05 May 2022 01:15:34.646    05 May 2022 01:15:44.047      9.4001127756    Earth           Penumbra    117           2077.4396817
05 May 2022 01:15:44.047    05 May 2022 01:50:02.583      2058.5360250    Earth           Umbra       117           2077.4396817
05 May 2022 01:50:02.583    05 May 2022 01:50:12.086      9.5035439939    Earth           Penumbra    117           2077.4396817
05 May 2022 02:49:03.708    05 May 2022 02:49:13.124      9.4152382342    Earth           Penumbra    118           2076.5180799
05 May 2022 02:49:13.124    05 May 2022 03:23:30.708      2057.5849247    Earth           Umbra       118           2076.5180799
05 May 2022 03:23:30.708    05 May 2022 03:23:40.226      9.5179169672    Earth           Penumbra    118           2076.5180799
05 May 2022 04:22:32.836    05 May 2022 04:22:42.266      9.4302602811    Earth           Penumbra    119           2075.5936884
05 May 2022 04:22:42.266    05 May 2022 04:56:58.898      2056.6312268    Earth           Umbra       119           2075.5936884
05 May 2022 04:56:58.898    05 May 2022 04:57:08.430      9.5322013018    Earth           Penumbra    119           2075.5936884
05 May 2022 05:56:01.964    05 May 2022 05:56:11.409      9.4451814308    Earth           Penumbra    120           2074.6685799
05 May 2022 05:56:11.409    05 May 2022 06:30:27.086      2055.6768949    Earth           Umbra       120           2074.6685799
05 May 2022 06:30:27.086    05 May 2022 06:30:36.632      9.5465035527    Earth           Penumbra    120           2074.6685799
05 May 2022 07:29:31.032    05 May 2022 07:29:40.492      9.4598234631    Earth           Penumbra    121           2073.7429714
05 May 2022 07:29:40.492    05 May 2022 08:03:55.215      2054.7225562    Earth           Umbra       121           2073.7429714
05 May 2022 08:03:55.215    05 May 2022 08:04:04.775      9.5605917508    Earth           Penumbra    121           2073.7429714
05 May 2022 09:03:00.038    05 May 2022 09:03:09.512      9.4741499168    Earth           Penumbra    122           2072.8215113
05 May 2022 09:03:09.512    05 May 2022 09:37:23.285      2053.7730278    Earth           Umbra       122           2072.8215113
05 May 2022 09:37:23.285    05 May 2022 09:37:32.860      9.5743335667    Earth           Penumbra    122           2072.8215113
05 May 2022 10:36:29.028    05 May 2022 10:36:38.517      9.4884223072    Earth           Penumbra    123           2071.9143870
05 May 2022 10:36:38.517    05 May 2022 11:10:51.355      2052.8379484    Earth           Umbra       123           2071.9143870
05 May 2022 11:10:51.355    05 May 2022 11:11:00.943      9.5880162902    Earth           Penumbra    123           2071.9143870
05 May 2022 12:10:07.570    05 May 2022 12:44:19.487      2051.9176173    Earth           Umbra       124           2061.5196454
05 May 2022 12:44:19.487    05 May 2022 12:44:29.090      9.6020281082    Earth           Penumbra    124           2061.5196454
05 May 2022 13:43:27.181    05 May 2022 13:43:36.698      9.5172493486    Earth           Penumbra    125           2070.1315540
05 May 2022 13:43:36.698    05 May 2022 14:17:47.696      2050.9980347    Earth           Umbra       125           2070.1315540
05 May 2022 14:17:47.696    05 May 2022 14:17:57.312      9.6162700094    Earth           Penumbra    125           2070.1315540
05 May 2022 15:16:56.331    05 May 2022 15:17:05.863      9.5314337290    Earth           Penumbra    126           2069.2325424
05 May 2022 15:17:05.863    05 May 2022 15:51:15.934      2050.0708828    Earth           Umbra       126           2069.2325424
05 May 2022 15:51:15.934    05 May 2022 15:51:25.564      9.6302258782    Earth           Penumbra    126           2069.2325424
05 May 2022 16:50:25.466    05 May 2022 16:50:35.011      9.5453741960    Earth           Penumbra    127           2068.3374765
05 May 2022 16:50:35.011    05 May 2022 17:24:44.160      2049.1484957    Earth           Umbra       127           2068.3374765
05 May 2022 17:24:44.160    05 May 2022 17:24:53.803      9.6436065389    Earth           Penumbra    127           2068.3374765
05 May 2022 18:23:54.578    05 May 2022 18:24:04.137      9.5592920319    Earth           Penumbra    128           2067.4641581
05 May 2022 18:24:04.137    05 May 2022 18:58:12.385      2048.2481316    Earth           Umbra       128           2067.4641581
05 May 2022 18:58:12.385    05 May 2022 18:58:22.042      9.6567344852    Earth           Penumbra    128           2067.4641581
05 May 2022 19:57:23.698    05 May 2022 19:57:33.272      9.5734396367    Earth           Penumbra    129           2066.6148740
05 May 2022 19:57:33.272    05 May 2022 20:31:40.643      2047.3712998    Earth           Umbra       129           2066.6148740
05 May 2022 20:31:40.643    05 May 2022 20:31:50.313      9.6701346338    Earth           Penumbra    129           2066.6148740
05 May 2022 21:30:52.834    05 May 2022 21:31:02.422      9.5878836466    Earth           Penumbra    130           2065.7800601
05 May 2022 21:31:02.422    05 May 2022 22:05:08.930      2046.5082494    Earth           Umbra       130           2065.7800601
05 May 2022 22:05:08.930    05 May 2022 22:05:18.614      9.6839270554    Earth           Penumbra    130           2065.7800601
05 May 2022 23:04:21.973    05 May 2022 23:04:31.576      9.6024046652    Earth           Penumbra    131           2064.9526289
05 May 2022 23:04:31.576    05 May 2022 23:38:37.228      2045.6525283    Earth           Umbra       131           2064.9526289
05 May 2022 23:38:37.228    05 May 2022 23:38:46.926      9.6976959030    Earth           Penumbra    131           2064.9526289
06 May 2022 00:37:51.137    06 May 2022 00:38:00.754      9.6166666830    Earth           Penumbra    132           2064.1295702
06 May 2022 00:38:00.754    06 May 2022 01:12:05.556      2044.8019546    Earth           Umbra       132           2064.1295702
06 May 2022 01:12:05.556    06 May 2022 01:12:15.267      9.7109489492    Earth           Penumbra    132           2064.1295702
06 May 2022 02:11:20.369    06 May 2022 02:11:29.999      9.6305427141    Earth           Penumbra    133           2063.3083915
06 May 2022 02:11:29.999    06 May 2022 02:45:33.954      2043.9542260    Earth           Umbra       133           2063.3083915
06 May 2022 02:45:33.954    06 May 2022 02:45:43.677      9.7236227011    Earth           Penumbra    133           2063.3083915
06 May 2022 03:44:49.668    06 May 2022 03:44:59.312      9.6441842616    Earth           Penumbra    134           2062.4891571
06 May 2022 03:44:59.312    06 May 2022 04:19:02.421      2043.1089285    Earth           Umbra       134           2062.4891571
06 May 2022 04:19:02.421    06 May 2022 04:19:12.157      9.7360443673    Earth           Penumbra    134           2062.4891571
06 May 2022 05:18:18.974    06 May 2022 05:18:28.632      9.6576868789    Earth           Penumbra    135           2061.6739433
06 May 2022 05:18:28.632    06 May 2022 05:52:30.899      2042.2677964    Earth           Umbra       135           2061.6739433
06 May 2022 05:52:30.899    06 May 2022 05:52:40.648      9.7484600614    Earth           Penumbra    135           2061.6739433
06 May 2022 06:51:57.891    06 May 2022 07:25:59.323      2041.4317461    Earth           Umbra       136           2051.1924396
06 May 2022 07:25:59.323    06 May 2022 07:26:09.084      9.7606934491    Earth           Penumbra    136           2051.1924396
06 May 2022 08:25:17.393    06 May 2022 08:25:27.077      9.6836812561    Earth           Penumbra    137           2060.0610129
06 May 2022 08:25:27.077    06 May 2022 08:59:27.681      2040.6048241    Earth           Umbra       137           2060.0610129
06 May 2022 08:59:27.681    06 May 2022 08:59:37.454      9.7725075320    Earth           Penumbra    137           2060.0610129
06 May 2022 09:58:46.534    06 May 2022 09:58:56.230      9.6962757991    Earth           Penumbra    138           2059.2773526
06 May 2022 09:58:56.230    06 May 2022 10:32:56.027      2039.7969880    Earth           Umbra       138           2059.2773526
06 May 2022 10:32:56.027    06 May 2022 10:33:05.811      9.7840887029    Earth           Penumbra    138           2059.2773526
06 May 2022 11:32:15.711    06 May 2022 11:32:25.420      9.7089570947    Earth           Penumbra    139           2058.5165528
06 May 2022 11:32:25.420    06 May 2022 12:06:24.432      2039.0117227    Earth           Umbra       139           2058.5165528
06 May 2022 12:06:24.432    06 May 2022 12:06:34.228      9.7958729253    Earth           Penumbra    139           2058.5165528
06 May 2022 13:05:44.961    06 May 2022 13:05:54.682      9.7216594499    Earth           Penumbra    140           2057.7657600
06 May 2022 13:05:54.682    06 May 2022 13:39:52.919      2038.2361920    Earth           Umbra       140           2057.7657600
06 May 2022 13:39:52.919    06 May 2022 13:40:02.727      9.8079086049    Earth           Penumbra    140           2057.7657600
06 May 2022 14:39:14.250    06 May 2022 14:39:23.984      9.7340905457    Earth           Penumbra    141           2057.0110490
06 May 2022 14:39:23.984    06 May 2022 15:13:21.442      2037.4572590    Earth           Umbra       141           2057.0110490
06 May 2022 15:13:21.442    06 May 2022 15:13:31.261      9.8196994280    Earth           Penumbra    141           2057.0110490
06 May 2022 16:12:43.522    06 May 2022 16:12:53.268      9.7461406840    Earth           Penumbra    142           2056.2592680
06 May 2022 16:12:53.268    06 May 2022 16:46:49.950      2036.6823044    Earth           Umbra       142           2056.2592680
06 May 2022 16:46:49.950    06 May 2022 16:46:59.781      9.8308229470    Earth           Penumbra    142           2056.2592680
06 May 2022 17:46:12.763    06 May 2022 17:46:22.521      9.7580116591    Earth           Penumbra    143           2055.5299356
06 May 2022 17:46:22.521    06 May 2022 18:20:18.452      2035.9304599    Earth           Umbra       143           2055.5299356
06 May 2022 18:20:18.452    06 May 2022 18:20:28.293      9.8414639826    Earth           Penumbra    143           2055.5299356
06 May 2022 19:19:42.005    06 May 2022 19:19:51.775      9.7700001905    Earth           Penumbra    144           2054.8304366
06 May 2022 19:19:51.775    06 May 2022 19:53:46.984      2035.2082421    Earth           Umbra       144           2054.8304366
06 May 2022 19:53:46.984    06 May 2022 19:53:56.836      9.8521942855    Earth           Penumbra    144           2054.8304366
06 May 2022 20:53:11.263    06 May 2022 20:53:21.045      9.7822304349    Earth           Penumbra    145           2054.1522669
06 May 2022 20:53:21.045    06 May 2022 21:27:15.552      2034.5067617    Earth           Umbra       145           2054.1522669
06 May 2022 21:27:15.552    06 May 2022 21:27:25.415      9.8632747424    Earth           Penumbra    145           2054.1522669
06 May 2022 22:26:40.523    06 May 2022 22:26:50.317      9.7945153713    Earth           Penumbra    146           2053.4861772
06 May 2022 22:26:50.317    06 May 2022 23:00:44.135      2033.8172814    Earth           Umbra       146           2053.4861772
06 May 2022 23:00:44.135    06 May 2022 23:00:54.009      9.8743803450    Earth           Penumbra    146           2053.4861772
07 May 2022 00:00:09.793    07 May 2022 00:00:19.600      9.8064935300    Earth           Penumbra    147           2052.8285816
07 May 2022 00:00:19.600    07 May 2022 00:34:12.737      2033.1371381    Earth           Umbra       147           2052.8285816
07 May 2022 00:34:12.737    07 May 2022 00:34:22.622      9.8849500297    Earth           Penumbra    147           2052.8285816
07 May 2022 01:33:39.117    07 May 2022 01:33:48.934      9.8179565161    Earth           Penumbra    148           2052.1777151
07 May 2022 01:33:48.934    07 May 2022 02:07:41.399      2032.4649882    Earth           Umbra       148           2052.1777151
07 May 2022 02:07:41.399    07 May 2022 02:07:51.294      9.8947703722    Earth           Penumbra    148           2052.1777151
07 May 2022 03:07:08.504    07 May 2022 03:07:18.333      9.8290413735    Earth           Penumbra    149           2051.5335254
07 May 2022 03:07:18.333    07 May 2022 03:41:10.134      2031.8003346    Earth           Umbra       149           2051.5335254
07 May 2022 03:41:10.134    07 May 2022 03:41:20.038      9.9041494075    Earth           Penumbra    149           2051.5335254
07 May 2022 04:40:37.905    07 May 2022 04:40:47.745      9.8399241222    Earth           Penumbra    150           2050.8980119
07 May 2022 04:40:47.745    07 May 2022 05:14:38.890      2031.1446386    Earth           Umbra       150           2050.8980119
07 May 2022 05:14:38.890    07 May 2022 05:14:48.803      9.9134492339    Earth           Penumbra    150           2050.8980119
07 May 2022 06:14:07.248    07 May 2022 06:14:17.098      9.8505038652    Earth           Penumbra    151           2050.2720205
07 May 2022 06:14:17.098    07 May 2022 06:48:07.597      2030.4988955    Earth           Umbra       151           2050.2720205
07 May 2022 06:48:07.597    07 May 2022 06:48:17.520      9.9226211314    Earth           Penumbra    151           2050.2720205
07 May 2022 07:47:36.505    07 May 2022 07:47:46.365      9.8606008105    Earth           Penumbra    152           2049.6581443
07 May 2022 07:47:46.365    07 May 2022 08:21:36.232      2029.8661829    Earth           Umbra       152           2049.6581443
07 May 2022 08:21:36.232    07 May 2022 08:21:46.163      9.9313605228    Earth           Penumbra    152           2049.6581443
07 May 2022 09:21:05.713    07 May 2022 09:21:15.583      9.8703652038    Earth           Penumbra    153           2049.0661684
07 May 2022 09:21:15.583    07 May 2022 09:55:04.839      2029.2560946    Earth           Umbra       153           2049.0661684
07 May 2022 09:55:04.839    07 May 2022 09:55:14.779      9.9397085840    Earth           Penumbra    153           2049.0661684
07 May 2022 10:54:34.942    07 May 2022 10:54:44.822      9.8801277112    Earth           Penumbra    154           2048.5033555
07 May 2022 10:54:44.822    07 May 2022 11:28:33.498      2028.6751209    Earth           Umbra       154           2048.5033555
07 May 2022 11:28:33.498    07 May 2022 11:28:43.446      9.9481069366    Earth           Penumbra    154           2048.5033555
07 May 2022 12:28:04.238    07 May 2022 12:28:14.128      9.8899295088    Earth           Penumbra    155           2047.9597314
07 May 2022 12:28:14.128    07 May 2022 13:02:02.241      2028.1130586    Earth           Umbra       155           2047.9597314
07 May 2022 13:02:02.241    07 May 2022 13:02:12.198      9.9567432306    Earth           Penumbra    155           2047.9597314
07 May 2022 14:01:33.577    07 May 2022 14:01:43.476      9.8994569038    Earth           Penumbra    156           2047.4178055
07 May 2022 14:01:43.476    07 May 2022 14:35:31.029      2027.5531429    Earth           Umbra       156           2047.4178055
07 May 2022 14:35:31.029    07 May 2022 14:35:40.994      9.9652057048    Earth           Penumbra    156           2047.4178055
07 May 2022 15:35:02.896    07 May 2022 15:35:12.804      9.9084882997    Earth           Penumbra    157           2046.8778353
07 May 2022 15:35:12.804    07 May 2022 16:08:59.801      2026.9963842    Earth           Umbra       157           2046.8778353
07 May 2022 16:08:59.801    07 May 2022 16:09:09.774      9.9729628419    Earth           Penumbra    157           2046.8778353
07 May 2022 17:08:32.175    07 May 2022 17:08:42.092      9.9171795999    Earth           Penumbra    158           2046.3587553
07 May 2022 17:08:42.092    07 May 2022 17:42:28.554      2026.4615312    Earth           Umbra       158           2046.3587553
07 May 2022 17:42:28.554    07 May 2022 17:42:38.534      9.9800445023    Earth           Penumbra    158           2046.3587553
07 May 2022 18:42:01.445    07 May 2022 18:42:11.371      9.9258649279    Earth           Penumbra    159           2045.8732567
07 May 2022 18:42:11.371    07 May 2022 19:15:57.331      2025.9603926    Earth           Umbra       159           2045.8732567
07 May 2022 19:15:57.331    07 May 2022 19:16:07.318      9.9869991769    Earth           Penumbra    159           2045.8732567
07 May 2022 20:15:30.729    07 May 2022 20:15:40.663      9.9347256473    Earth           Penumbra    160           2045.4159131
07 May 2022 20:15:40.663    07 May 2022 20:49:26.150      2025.4869633    Earth           Umbra       160           2045.4159131
07 May 2022 20:49:26.150    07 May 2022 20:49:36.145      9.9942241679    Earth           Penumbra    160           2045.4159131
07 May 2022 21:49:00.013    07 May 2022 21:49:09.956      9.9436174845    Earth           Penumbra    161           2044.9758261
07 May 2022 21:49:09.956    07 May 2022 22:22:54.987      2025.0306831    Earth           Umbra       161           2044.9758261
07 May 2022 22:22:54.987    07 May 2022 22:23:04.988      10.001525539    Earth           Penumbra    161           2044.9758261
07 May 2022 23:22:29.295    07 May 2022 23:22:39.247      9.9521673401    Earth           Penumbra    162           2044.5476019
07 May 2022 23:22:39.247    07 May 2022 23:56:23.834      2024.5871097    Earth           Umbra       162           2044.5476019
07 May 2022 23:56:23.834    07 May 2022 23:56:33.843      10.008324939    Earth           Penumbra    162           2044.5476019
08 May 2022 00:55:58.612    08 May 2022 00:56:08.572      9.9601102411    Earth           Penumbra    163           2044.1295221
08 May 2022 00:56:08.572    08 May 2022 01:29:52.728      2024.1551387    Earth           Umbra       163           2044.1295221
08 May 2022 01:29:52.728    08 May 2022 01:30:02.742      10.014273156    Earth           Penumbra    163           2044.1295221
08 May 2022 02:29:27.987    08 May 2022 02:29:37.955      9.9675367121    Earth           Penumbra    164           2043.7217027
08 May 2022 02:29:37.955    08 May 2022 03:03:21.689      2023.7345783    Earth           Umbra       164           2043.7217027
08 May 2022 03:03:21.689    08 May 2022 03:03:31.709      10.019587702    Earth           Penumbra    164           2043.7217027
08 May 2022 04:02:57.380    08 May 2022 04:03:07.354      9.9746859516    Earth           Penumbra    165           2043.3263804
08 May 2022 04:03:07.354    08 May 2022 04:36:50.681      2023.3269727    Earth           Umbra       165           2043.3263804
08 May 2022 04:36:50.681    08 May 2022 04:37:00.706      10.024721827    Earth           Penumbra    165           2043.3263804
