GMAT/Constellation/Eclipses/eclipse10.txt

Spacecraft: HSEYE10

Start Time (UTC)            Stop Time (UTC)               Duration (s)    Occ Body        Type        Event Number  Total Duration (s)
27 Apr 2022 12:54:55.594    27 Apr 2022 12:55:06.106      10.511247616    Earth           Penumbra    1             1996.0740134
27 Apr 2022 12:55:06.106    27 Apr 2022 13:28:01.092      1974.9861161    Earth           Umbra       1             1996.0740134
27 Apr 2022 13:28:01.092    27 Apr 2022 13:28:11.668      10.576649720    Earth           Penumbra    1             1996.0740134
27 Apr 2022 14:28:38.464    27 Apr 2022 14:28:49.023      10.559302638    Earth           Penumbra    2             1992.7711568
27 Apr 2022 14:28:49.023    27 Apr 2022 15:01:40.609      1971.5853990    Earth           Umbra       2             1992.7711568
27 Apr 2022 15:01:40.609    27 Apr 2022 15:01:51.235      10.626455199    Earth           Penumbra    2             1992.7711568
27 Apr 2022 16:02:21.373    27 Apr 2022 16:02:31.981      10.608304082    Earth           Penumbra    3             1989.3996063
27 Apr 2022 16:02:31.981    27 Apr 2022 16:35:20.095      1968.1140237    Earth           Umbra       3             1989.3996063
27 Apr 2022 16:35:20.095    27 Apr 2022 16:35:30.773      10.677278449    Earth           Penumbra    3             1989.3996063
27 Apr 2022 17:36:04.341    27 Apr 2022 17:36:14.999      10.658206372    Earth           Penumbra    4             1985.9751944
27 Apr 2022 17:36:14.999    27 Apr 2022 18:08:59.587      1964.5879852    Earth           Umbra       4             1985.9751944
27 Apr 2022 18:08:59.587    27 Apr 2022 18:09:10.316      10.729002859    Earth           Penumbra    4             1985.9751944
27 Apr 2022 19:09:47.359    27 Apr 2022 19:09:58.068      10.708972102    Earth           Penumbra    5             1982.5170917
27 Apr 2022 19:09:58.068    27 Apr 2022 19:42:39.094      1961.0263824    Earth           Umbra       5             1982.5170917
27 Apr 2022 19:42:39.094    27 Apr 2022 19:42:49.876      10.781737184    Earth           Penumbra    5             1982.5170917
27 Apr 2022 20:43:30.387    27 Apr 2022 20:43:41.147      10.760737688    Earth           Penumbra    6             1979.0257608
27 Apr 2022 20:43:41.147    27 Apr 2022 21:16:18.577      1957.4293270    Earth           Umbra       6             1979.0257608
27 Apr 2022 21:16:18.577    27 Apr 2022 21:16:29.413      10.835696105    Earth           Penumbra    6             1979.0257608
27 Apr 2022 22:17:13.396    27 Apr 2022 22:17:24.209      10.813711840    Earth           Penumbra    7             1975.4900081
27 Apr 2022 22:17:24.209    27 Apr 2022 22:49:57.995      1953.7854113    Earth           Umbra       7             1975.4900081
27 Apr 2022 22:49:57.995    27 Apr 2022 22:50:08.886      10.890884965    Earth           Penumbra    7             1975.4900081
27 Apr 2022 23:50:56.422    27 Apr 2022 23:51:07.290      10.867925361    Earth           Penumbra    8             1971.8990213
27 Apr 2022 23:51:07.290    28 Apr 2022 00:23:37.374      1950.0839902    Earth           Umbra       8             1971.8990213
28 Apr 2022 00:23:37.374    28 Apr 2022 00:23:48.321      10.947105743    Earth           Penumbra    8             1971.8990213
28 Apr 2022 01:24:39.567    28 Apr 2022 01:24:50.490      10.923274839    Earth           Penumbra    9             1968.2414304
28 Apr 2022 01:24:50.490    28 Apr 2022 01:57:16.804      1946.3139197    Earth           Umbra       9             1968.2414304
28 Apr 2022 01:57:16.804    28 Apr 2022 01:57:27.808      11.004235852    Earth           Penumbra    9             1968.2414304
28 Apr 2022 02:58:22.890    28 Apr 2022 02:58:33.869      10.979735758    Earth           Penumbra    10            1964.5121117
28 Apr 2022 02:58:33.869    28 Apr 2022 03:30:56.339      1942.4699945    Earth           Umbra       10            1964.5121117
28 Apr 2022 03:30:56.339    28 Apr 2022 03:31:07.402      11.062381533    Earth           Penumbra    10            1964.5121117
28 Apr 2022 04:32:06.316    28 Apr 2022 04:32:17.354      11.037306231    Earth           Penumbra    11            1960.7241397
28 Apr 2022 04:32:17.354    28 Apr 2022 05:04:35.919      1938.5651226    Earth           Umbra       11            1960.7241397
28 Apr 2022 05:04:35.919    28 Apr 2022 05:04:47.040      11.121710949    Earth           Penumbra    11            1960.7241397
28 Apr 2022 06:05:49.712    28 Apr 2022 06:06:00.807      11.095767491    Earth           Penumbra    12            1956.8957529
28 Apr 2022 06:06:00.807    28 Apr 2022 06:38:15.425      1934.6178054    Earth           Umbra       12            1956.8957529
28 Apr 2022 06:38:15.425    28 Apr 2022 06:38:26.607      11.182180094    Earth           Penumbra    12            1956.8957529
28 Apr 2022 07:39:33.042    28 Apr 2022 07:39:44.197      11.154772528    Earth           Penumbra    13            1953.0267316
28 Apr 2022 07:39:44.197    28 Apr 2022 08:11:54.825      1930.6285199    Earth           Umbra       13            1953.0267316
28 Apr 2022 08:11:54.825    28 Apr 2022 08:12:06.069      11.243439128    Earth           Penumbra    13            1953.0267316
28 Apr 2022 09:13:16.398    28 Apr 2022 09:13:27.612      11.214213527    Earth           Penumbra    14            1949.1051891
28 Apr 2022 09:13:27.612    28 Apr 2022 09:45:34.198      1926.5858631    Earth           Umbra       14            1949.1051891
28 Apr 2022 09:45:34.198    28 Apr 2022 09:45:45.503      11.305112438    Earth           Penumbra    14            1949.1051891
28 Apr 2022 10:46:59.861    28 Apr 2022 10:47:11.135      11.274288828    Earth           Penumbra    15            1945.1282430
28 Apr 2022 10:47:11.135    28 Apr 2022 11:19:13.622      1922.4867287    Earth           Umbra       15            1945.1282430
28 Apr 2022 11:19:13.622    28 Apr 2022 11:19:24.989      11.367225484    Earth           Penumbra    15            1945.1282430
28 Apr 2022 12:20:43.419    28 Apr 2022 12:20:54.754      11.335282889    Earth           Penumbra    16            1941.0941419
28 Apr 2022 12:20:54.754    28 Apr 2022 12:52:53.083      1918.3286014    Earth           Umbra       16            1941.0941419
28 Apr 2022 12:52:53.083    28 Apr 2022 12:53:04.513      11.430257605    Earth           Penumbra    16            1941.0941419
28 Apr 2022 13:54:27.032    28 Apr 2022 13:54:38.430      11.397410708    Earth           Penumbra    17            1936.9867518
28 Apr 2022 13:54:38.430    28 Apr 2022 14:26:32.524      1914.0946744    Earth           Umbra       17            1936.9867518
28 Apr 2022 14:26:32.524    28 Apr 2022 14:26:44.019      11.494666769    Earth           Penumbra    17            1936.9867518
28 Apr 2022 15:28:10.697    28 Apr 2022 15:28:22.158      11.460804928    Earth           Penumbra    18            1932.7939132
28 Apr 2022 15:28:22.158    28 Apr 2022 16:00:11.931      1909.7726267    Earth           Umbra       18            1932.7939132
28 Apr 2022 16:00:11.931    28 Apr 2022 16:00:23.491      11.560481577    Earth           Penumbra    18            1932.7939132
28 Apr 2022 17:01:54.434    28 Apr 2022 17:02:05.960      11.525475292    Earth           Penumbra    19            1928.5306668
28 Apr 2022 17:02:05.960    28 Apr 2022 17:33:51.337      1905.3776712    Earth           Umbra       19            1928.5306668
28 Apr 2022 17:33:51.337    28 Apr 2022 17:34:02.965      11.627520353    Earth           Penumbra    19            1928.5306668
28 Apr 2022 18:35:38.237    28 Apr 2022 18:35:49.828      11.591372138    Earth           Penumbra    20            1924.2212175
28 Apr 2022 18:35:49.828    28 Apr 2022 19:07:30.762      1900.9339972    Earth           Umbra       20            1924.2212175
28 Apr 2022 19:07:30.762    28 Apr 2022 19:07:42.458      11.695848161    Earth           Penumbra    20            1924.2212175
28 Apr 2022 20:09:22.069    28 Apr 2022 20:09:33.727      11.658577505    Earth           Penumbra    21            1919.8685118
28 Apr 2022 20:09:33.727    28 Apr 2022 20:41:10.171      1896.4441858    Earth           Umbra       21            1919.8685118
28 Apr 2022 20:41:10.171    28 Apr 2022 20:41:21.937      11.765748519    Earth           Penumbra    21            1919.8685118
28 Apr 2022 21:43:05.900    28 Apr 2022 21:43:17.627      11.727310473    Earth           Penumbra    22            1915.4584180
28 Apr 2022 21:43:17.627    28 Apr 2022 22:14:49.521      1891.8938037    Earth           Umbra       22            1915.4584180
28 Apr 2022 22:14:49.521    28 Apr 2022 22:15:01.358      11.837303778    Earth           Penumbra    22            1915.4584180
28 Apr 2022 23:16:49.759    28 Apr 2022 23:17:01.557      11.797643336    Earth           Penumbra    23            1910.9784370
28 Apr 2022 23:17:01.557    28 Apr 2022 23:48:28.827      1887.2705224    Earth           Umbra       23            1910.9784370
28 Apr 2022 23:48:28.827    28 Apr 2022 23:48:40.738      11.910271284    Earth           Penumbra    23            1910.9784370
29 Apr 2022 00:50:33.745    29 Apr 2022 00:50:45.615      11.869457911    Earth           Penumbra    24            1906.4182434
29 Apr 2022 00:50:45.615    29 Apr 2022 01:22:08.179      1882.5643535    Earth           Umbra       24            1906.4182434
29 Apr 2022 01:22:08.179    29 Apr 2022 01:22:20.164      11.984431953    Earth           Penumbra    24            1906.4182434
29 Apr 2022 02:24:17.930    29 Apr 2022 02:24:29.873      11.942707363    Earth           Penumbra    25            1901.7707587
29 Apr 2022 02:24:29.873    29 Apr 2022 02:55:47.641      1877.7681675    Earth           Umbra       25            1901.7707587
29 Apr 2022 02:55:47.641    29 Apr 2022 02:55:59.701      12.059883855    Earth           Penumbra    25            1901.7707587
29 Apr 2022 03:58:02.252    29 Apr 2022 03:58:14.269      12.017457071    Earth           Penumbra    26            1897.0457076
29 Apr 2022 03:58:14.269    29 Apr 2022 04:29:27.161      1872.8913451    Earth           Umbra       26            1897.0457076
29 Apr 2022 04:29:27.161    29 Apr 2022 04:29:39.298      12.136905477    Earth           Penumbra    26            1897.0457076
29 Apr 2022 05:31:46.568    29 Apr 2022 05:31:58.662      12.093555846    Earth           Penumbra    27            1892.2643647
29 Apr 2022 05:31:58.662    29 Apr 2022 06:03:06.617      1867.9552589    Earth           Umbra       27            1892.2643647
29 Apr 2022 06:03:06.617    29 Apr 2022 06:03:18.833      12.215549941    Earth           Penumbra    27            1892.2643647
29 Apr 2022 07:05:30.823    29 Apr 2022 07:05:42.994      12.170585641    Earth           Penumbra    28            1887.4342517
29 Apr 2022 07:05:42.994    29 Apr 2022 07:36:45.962      1862.9682342    Earth           Umbra       28            1887.4342517
29 Apr 2022 07:36:45.962    29 Apr 2022 07:36:58.258      12.295431888    Earth           Penumbra    28            1887.4342517
29 Apr 2022 08:39:15.100    29 Apr 2022 08:39:27.348      12.248283683    Earth           Penumbra    29            1882.5468933
29 Apr 2022 08:39:27.348    29 Apr 2022 09:10:25.270      1857.9225933    Earth           Umbra       29            1882.5468933
29 Apr 2022 09:10:25.270    29 Apr 2022 09:10:37.646      12.376016343    Earth           Penumbra    29            1882.5468933
29 Apr 2022 10:12:59.491    29 Apr 2022 10:13:11.818      12.326813419    Earth           Penumbra    30            1877.5974595
29 Apr 2022 10:13:11.818    29 Apr 2022 10:44:04.631      1852.8134374    Earth           Umbra       30            1877.5974595
29 Apr 2022 10:44:04.631    29 Apr 2022 10:44:17.088      12.457208696    Earth           Penumbra    30            1877.5974595
29 Apr 2022 11:46:44.000    29 Apr 2022 11:46:56.406      12.406537891    Earth           Penumbra    31            1872.5815197
29 Apr 2022 11:46:56.406    29 Apr 2022 12:17:44.042      1847.6354194    Earth           Umbra       31            1872.5815197
29 Apr 2022 12:17:44.042    29 Apr 2022 12:17:56.581      12.539562467    Earth           Penumbra    31            1872.5815197
29 Apr 2022 13:20:28.585    29 Apr 2022 13:20:41.073      12.487766077    Earth           Penumbra    32            1867.4784831
29 Apr 2022 13:20:41.073    29 Apr 2022 13:51:23.440      1842.3669651    Earth           Umbra       32            1867.4784831
29 Apr 2022 13:51:23.440    29 Apr 2022 13:51:36.064      12.623751874    Earth           Penumbra    32            1867.4784831
29 Apr 2022 14:54:13.241    29 Apr 2022 14:54:25.812      12.570722087    Earth           Penumbra    33            1862.2690263
29 Apr 2022 14:54:25.812    29 Apr 2022 15:25:02.800      1836.9883743    Earth           Umbra       33            1862.2690263
29 Apr 2022 15:25:02.800    29 Apr 2022 15:25:15.510      12.709929992    Earth           Penumbra    33            1862.2690263
29 Apr 2022 16:27:57.986    29 Apr 2022 16:28:10.642      12.655506190    Earth           Penumbra    34            1856.9655309
29 Apr 2022 16:28:10.642    29 Apr 2022 16:58:42.154      1831.5121706    Earth           Umbra       34            1856.9655309
29 Apr 2022 16:58:42.154    29 Apr 2022 16:58:54.952      12.797854166    Earth           Penumbra    34            1856.9655309
29 Apr 2022 18:01:42.818    29 Apr 2022 18:01:55.560      12.742091669    Earth           Penumbra    35            1851.5975603
29 Apr 2022 18:01:55.560    29 Apr 2022 18:32:21.528      1825.9679606    Earth           Umbra       35            1851.5975603
29 Apr 2022 18:32:21.528    29 Apr 2022 18:32:34.416      12.887508050    Earth           Penumbra    35            1851.5975603
29 Apr 2022 19:35:27.703    29 Apr 2022 19:35:40.534      12.830511841    Earth           Penumbra    36            1846.1725099
29 Apr 2022 19:35:40.534    29 Apr 2022 20:06:00.896      1820.3627506    Earth           Umbra       36            1846.1725099
29 Apr 2022 20:06:00.896    29 Apr 2022 20:06:13.876      12.979247456    Earth           Penumbra    36            1846.1725099
29 Apr 2022 21:09:12.611    29 Apr 2022 21:09:25.532      12.920955615    Earth           Penumbra    37            1840.6737225
29 Apr 2022 21:09:25.532    29 Apr 2022 21:39:40.211      1814.6794943    Earth           Umbra       37            1840.6737225
29 Apr 2022 21:39:40.211    29 Apr 2022 21:39:53.284      13.073272607    Earth           Penumbra    37            1840.6737225
29 Apr 2022 22:42:57.563    29 Apr 2022 22:43:10.577      13.013528916    Earth           Penumbra    38            1835.0861315
29 Apr 2022 22:43:10.577    29 Apr 2022 23:13:19.480      1808.9032897    Earth           Umbra       38            1835.0861315
29 Apr 2022 23:13:19.480    29 Apr 2022 23:13:32.649      13.169312873    Earth           Penumbra    38            1835.0861315
30 Apr 2022 00:16:42.655    30 Apr 2022 00:16:55.763      13.108106016    Earth           Penumbra    39            1829.4012376
30 Apr 2022 00:16:55.763    30 Apr 2022 00:46:58.790      1803.0261267    Earth           Umbra       39            1829.4012376
30 Apr 2022 00:46:58.790    30 Apr 2022 00:47:12.057      13.267004897    Earth           Penumbra    39            1829.4012376
30 Apr 2022 01:50:27.969    30 Apr 2022 01:50:41.173      13.204623421    Earth           Penumbra    40            1823.6113113
30 Apr 2022 01:50:41.173    30 Apr 2022 02:20:38.214      1797.0402810    Earth           Umbra       40            1823.6113113
30 Apr 2022 02:20:38.214    30 Apr 2022 02:20:51.580      13.366406830    Earth           Penumbra    40            1823.6113113
30 Apr 2022 03:24:13.459    30 Apr 2022 03:24:26.762      13.303231064    Earth           Penumbra    41            1817.7208654
30 Apr 2022 03:24:26.762    30 Apr 2022 03:54:17.712      1790.9496907    Earth           Umbra       41            1817.7208654
30 Apr 2022 03:54:17.712    30 Apr 2022 03:54:31.179      13.467943633    Earth           Penumbra    41            1817.7208654
30 Apr 2022 04:57:58.977    30 Apr 2022 04:58:12.381      13.403896254    Earth           Penumbra    42            1811.7510074
30 Apr 2022 04:58:12.381    30 Apr 2022 05:27:57.157      1784.7752695    Earth           Umbra       42            1811.7510074
30 Apr 2022 05:27:57.157    30 Apr 2022 05:28:10.728      13.571841619    Earth           Penumbra    42            1811.7510074
30 Apr 2022 06:31:44.446    30 Apr 2022 06:31:57.952      13.506141852    Earth           Penumbra    43            1805.7177508
30 Apr 2022 06:31:57.952    30 Apr 2022 07:01:36.486      1778.5339089    Earth           Umbra       43            1805.7177508
30 Apr 2022 07:01:36.486    30 Apr 2022 07:01:50.163      13.677700027    Earth           Penumbra    43            1805.7177508
30 Apr 2022 08:05:29.932    30 Apr 2022 08:05:43.542      13.609486946    Earth           Penumbra    44            1799.6204295
30 Apr 2022 08:05:43.542    30 Apr 2022 08:35:15.768      1772.2261787    Earth           Umbra       44            1799.6204295
30 Apr 2022 08:35:15.768    30 Apr 2022 08:35:29.553      13.784763857    Earth           Penumbra    44            1799.6204295
30 Apr 2022 09:39:15.542    30 Apr 2022 09:39:29.256      13.713991886    Earth           Penumbra    45            1793.4549784
30 Apr 2022 09:39:29.256    30 Apr 2022 10:08:55.104      1765.8482530    Earth           Umbra       45            1793.4549784
30 Apr 2022 10:08:55.104    30 Apr 2022 10:09:08.997      13.892733562    Earth           Penumbra    45            1793.4549784
30 Apr 2022 11:13:01.294    30 Apr 2022 11:13:15.114      13.820137584    Earth           Penumbra    46            1787.2135251
30 Apr 2022 11:13:15.114    30 Apr 2022 11:42:34.505      1759.3911560    Earth           Umbra       46            1787.2135251
30 Apr 2022 11:42:34.505    30 Apr 2022 11:42:48.507      14.002231497    Earth           Penumbra    46            1787.2135251
30 Apr 2022 12:46:47.150    30 Apr 2022 12:47:01.078      13.928393007    Earth           Penumbra    47            1780.8690127
30 Apr 2022 12:47:01.078    30 Apr 2022 13:16:13.904      1752.8263801    Earth           Umbra       47            1780.8690127
30 Apr 2022 13:16:13.904    30 Apr 2022 13:16:28.019      14.114239602    Earth           Penumbra    47            1780.8690127
30 Apr 2022 14:20:33.100    30 Apr 2022 14:20:47.139      14.039088192    Earth           Penumbra    48            1774.3925372
30 Apr 2022 14:20:47.139    30 Apr 2022 14:49:53.263      1746.1243017    Earth           Umbra       48            1774.3925372
30 Apr 2022 14:49:53.263    30 Apr 2022 14:50:07.493      14.229147322    Earth           Penumbra    48            1774.3925372
30 Apr 2022 15:54:19.164    30 Apr 2022 15:54:33.317      14.152437507    Earth           Penumbra    49            1767.7912821
30 Apr 2022 15:54:33.317    30 Apr 2022 16:23:32.609      1739.2921794    Earth           Umbra       49            1767.7912821
30 Apr 2022 16:23:32.609    30 Apr 2022 16:23:46.955      14.346665167    Earth           Penumbra    49            1767.7912821
30 Apr 2022 17:28:05.342    30 Apr 2022 17:28:19.611      14.268511045    Earth           Penumbra    50            1761.0998164
30 Apr 2022 17:28:19.611    30 Apr 2022 17:57:11.975      1732.3646631    Earth           Umbra       50            1761.0998164
30 Apr 2022 17:57:11.975    30 Apr 2022 17:57:26.442      14.466642262    Earth           Penumbra    50            1761.0998164
30 Apr 2022 19:01:51.604    30 Apr 2022 19:02:05.991      14.387328923    Earth           Penumbra    51            1754.3322422
30 Apr 2022 19:02:05.991    30 Apr 2022 19:30:51.347      1725.3554189    Earth           Umbra       51            1754.3322422
30 Apr 2022 19:30:51.347    30 Apr 2022 19:31:05.936      14.589494455    Earth           Penumbra    51            1754.3322422
30 Apr 2022 20:35:37.918    30 Apr 2022 20:35:52.427      14.509013097    Earth           Penumbra    52            1747.4707850
30 Apr 2022 20:35:52.427    30 Apr 2022 21:04:30.673      1718.2461648    Earth           Umbra       52            1747.4707850
30 Apr 2022 21:04:30.673    30 Apr 2022 21:04:45.388      14.715607103    Earth           Penumbra    52            1747.4707850
30 Apr 2022 22:09:24.300    30 Apr 2022 22:09:38.934      14.633646235    Earth           Penumbra    53            1740.4973617
30 Apr 2022 22:09:38.934    30 Apr 2022 22:38:09.953      1711.0190018    Earth           Umbra       53            1740.4973617
30 Apr 2022 22:38:09.953    30 Apr 2022 22:38:24.798      14.844713663    Earth           Penumbra    53            1740.4973617
30 Apr 2022 23:43:10.840    30 Apr 2022 23:43:25.601      14.761088777    Earth           Penumbra    54            1733.4062657
30 Apr 2022 23:43:25.601    01 May 2022 00:11:49.270      1703.6689376    Earth           Umbra       54            1733.4062657
01 May 2022 00:11:49.270    01 May 2022 00:12:04.246      14.976239239    Earth           Penumbra    54            1733.4062657
01 May 2022 01:16:57.627    01 May 2022 01:17:12.518      14.891280059    Earth           Penumbra    55            1726.1912050
01 May 2022 01:17:12.518    01 May 2022 01:45:28.708      1696.1897899    Earth           Umbra       55            1726.1912050
01 May 2022 01:45:28.708    01 May 2022 01:45:43.818      15.110135113    Earth           Penumbra    55            1726.1912050
01 May 2022 02:50:44.634    01 May 2022 02:50:59.659      15.024503600    Earth           Penumbra    56            1718.8497209
01 May 2022 02:50:59.659    01 May 2022 03:19:08.237      1688.5781892    Earth           Umbra       56            1718.8497209
01 May 2022 03:19:08.237    01 May 2022 03:19:23.484      15.247028042    Earth           Penumbra    56            1718.8497209
01 May 2022 04:24:31.716    01 May 2022 04:24:46.877      15.160942334    Earth           Penumbra    57            1711.3976827
01 May 2022 04:24:46.877    01 May 2022 04:52:47.726      1680.8492880    Earth           Umbra       57            1711.3976827
01 May 2022 04:52:47.726    01 May 2022 04:53:03.114      15.387452370    Earth           Penumbra    57            1711.3976827
01 May 2022 05:58:18.768    01 May 2022 05:58:34.068      15.300086746    Earth           Penumbra    58            1703.8587950
01 May 2022 05:58:34.068    01 May 2022 06:26:27.096      1673.0276550    Earth           Umbra       58            1703.8587950
01 May 2022 06:26:27.096    01 May 2022 06:26:42.627      15.531053231    Earth           Penumbra    58            1703.8587950
01 May 2022 07:32:05.839    01 May 2022 07:32:21.280      15.441123687    Earth           Penumbra    59            1696.2460704
01 May 2022 07:32:21.280    01 May 2022 08:00:06.408      1665.1281920    Earth           Umbra       59            1696.2460704
01 May 2022 08:00:06.408    01 May 2022 08:00:22.085      15.676754701    Earth           Penumbra    59            1696.2460704
01 May 2022 09:05:53.039    01 May 2022 09:06:08.623      15.583893796    Earth           Penumbra    60            1688.5618254
01 May 2022 09:06:08.623    01 May 2022 09:33:45.777      1657.1540314    Earth           Umbra       60            1688.5618254
01 May 2022 09:33:45.777    01 May 2022 09:34:01.601      15.823900164    Earth           Penumbra    60            1688.5618254
01 May 2022 10:39:40.407    01 May 2022 10:39:56.136      15.729035146    Earth           Penumbra    61            1680.7948205
01 May 2022 10:39:56.136    01 May 2022 11:07:25.229      1649.0926360    Earth           Umbra       61            1680.7948205
01 May 2022 11:07:25.229    01 May 2022 11:07:41.202      15.973149380    Earth           Penumbra    61            1680.7948205
01 May 2022 12:13:27.912    01 May 2022 12:13:43.789      15.877327882    Earth           Penumbra    62            1672.9083600
01 May 2022 12:13:43.789    01 May 2022 12:41:04.694      1640.9050829    Earth           Umbra       62            1672.9083600
01 May 2022 12:41:04.694    01 May 2022 12:41:20.820      16.125949170    Earth           Penumbra    62            1672.9083600
01 May 2022 13:47:15.541    01 May 2022 13:47:31.571      16.029272089    Earth           Penumbra    63            1664.8606202
01 May 2022 13:47:31.571    01 May 2022 14:14:44.119      1632.5482276    Earth           Umbra       63            1664.8606202
01 May 2022 14:14:44.119    01 May 2022 14:15:00.402      16.283120541    Earth           Penumbra    63            1664.8606202
01 May 2022 15:21:03.316    01 May 2022 15:21:19.501      16.185186175    Earth           Penumbra    64            1656.6505373
01 May 2022 15:21:19.501    01 May 2022 15:48:23.522      1624.0209708    Earth           Umbra       64            1656.6505373
01 May 2022 15:48:23.522    01 May 2022 15:48:39.966      16.444380290    Earth           Penumbra    64            1656.6505373
01 May 2022 16:54:51.240    01 May 2022 16:55:07.586      16.345313110    Earth           Penumbra    65            1648.3165275
01 May 2022 16:55:07.586    01 May 2022 17:22:02.947      1615.3618594    Earth           Umbra       65            1648.3165275
01 May 2022 17:22:02.947    01 May 2022 17:22:19.557      16.609355004    Earth           Penumbra    65            1648.3165275
01 May 2022 18:28:39.286    01 May 2022 18:28:55.796      16.509773280    Earth           Penumbra    66            1639.8815253
01 May 2022 18:28:55.796    01 May 2022 18:55:42.389      1606.5932625    Earth           Umbra       66            1639.8815253
01 May 2022 18:55:42.389    01 May 2022 18:55:59.168      16.778489447    Earth           Penumbra    66            1639.8815253
01 May 2022 20:02:27.422    01 May 2022 20:02:44.101      16.678622318    Earth           Penumbra    67            1631.3293312
01 May 2022 20:02:44.101    01 May 2022 20:29:21.799      1597.6982573    Earth           Umbra       67            1631.3293312
01 May 2022 20:29:21.799    01 May 2022 20:29:38.751      16.952451551    Earth           Penumbra    67            1631.3293312
01 May 2022 21:36:15.656    01 May 2022 21:36:32.508      16.851801449    Earth           Penumbra    68            1622.6398493
01 May 2022 21:36:32.508    01 May 2022 22:03:01.165      1588.6570014    Earth           Umbra       68            1622.6398493
01 May 2022 22:03:01.165    01 May 2022 22:03:18.296      17.131046439    Earth           Penumbra    68            1622.6398493
01 May 2022 23:10:04.069    01 May 2022 23:10:21.098      17.029069585    Earth           Penumbra    69            1613.8121079
01 May 2022 23:10:21.098    01 May 2022 23:36:40.568      1579.4696503    Earth           Umbra       69            1613.8121079
01 May 2022 23:36:40.568    01 May 2022 23:36:57.881      17.313388037    Earth           Penumbra    69            1613.8121079
02 May 2022 00:43:52.756    02 May 2022 00:44:09.966      17.210381781    Earth           Penumbra    70            1604.8445139
02 May 2022 00:44:09.966    02 May 2022 01:10:20.101      1570.1349456    Earth           Umbra       70            1604.8445139
02 May 2022 01:10:20.101    02 May 2022 01:10:37.600      17.499186541    Earth           Penumbra    70            1604.8445139
02 May 2022 02:17:41.711    02 May 2022 02:17:59.107      17.396302242    Earth           Penumbra    71            1595.7260683
02 May 2022 02:17:59.107    02 May 2022 02:43:59.748      1560.6404242    Earth           Umbra       71            1595.7260683
02 May 2022 02:43:59.748    02 May 2022 02:44:17.437      17.689341854    Earth           Penumbra    71            1595.7260683
02 May 2022 03:51:30.796    02 May 2022 03:51:48.384      17.587436666    Earth           Penumbra    72            1586.4596835
02 May 2022 03:51:48.384    02 May 2022 04:17:39.371      1550.9872928    Earth           Umbra       72            1586.4596835
02 May 2022 04:17:39.371    02 May 2022 04:17:57.256      17.884954100    Earth           Penumbra    72            1586.4596835
02 May 2022 05:25:19.885    02 May 2022 05:25:37.668      17.783317657    Earth           Penumbra    73            1577.0731120
02 May 2022 05:25:37.668    02 May 2022 05:51:18.872      1541.2039251    Earth           Umbra       73            1577.0731120
02 May 2022 05:51:18.872    02 May 2022 05:51:36.958      18.085869262    Earth           Penumbra    73            1577.0731120
02 May 2022 06:59:08.996    02 May 2022 06:59:26.978      17.982604005    Earth           Penumbra    74            1567.6006290
02 May 2022 06:59:26.978    02 May 2022 07:24:58.306      1531.3274875    Earth           Umbra       74            1567.6006290
02 May 2022 07:24:58.306    02 May 2022 07:25:16.596      18.290537421    Earth           Penumbra    74            1567.6006290
02 May 2022 08:32:58.239    02 May 2022 08:33:16.423      18.184615520    Earth           Penumbra    75            1558.0616358
02 May 2022 08:33:16.423    02 May 2022 08:58:37.803      1521.3793841    Earth           Umbra       75            1558.0616358
02 May 2022 08:58:37.803    02 May 2022 08:58:56.300      18.497636227    Earth           Penumbra    75            1558.0616358
02 May 2022 10:06:47.670    02 May 2022 10:07:06.060      18.390185467    Earth           Penumbra    76            1548.4439969
02 May 2022 10:07:06.060    02 May 2022 10:32:17.406      1511.3460602    Earth           Umbra       76            1548.4439969
02 May 2022 10:32:17.406    02 May 2022 10:32:36.114      18.707751262    Earth           Penumbra    76            1548.4439969
02 May 2022 11:40:37.272    02 May 2022 11:40:55.873      18.600743066    Earth           Penumbra    77            1538.6962978
02 May 2022 11:40:55.873    02 May 2022 12:05:57.046      1501.1724968    Earth           Umbra       77            1538.6962978
02 May 2022 12:05:57.046    02 May 2022 12:06:15.969      18.923057942    Earth           Penumbra    77            1538.6962978
02 May 2022 13:14:27.035    02 May 2022 13:14:45.852      18.817180360    Earth           Penumbra    78            1528.7585494
02 May 2022 13:14:45.852    02 May 2022 13:39:36.648      1490.7961581    Earth           Umbra       78            1528.7585494
02 May 2022 13:39:36.648    02 May 2022 13:39:55.794      19.145210856    Earth           Penumbra    78            1528.7585494
02 May 2022 14:48:16.979    02 May 2022 14:48:36.018      19.039877993    Earth           Penumbra    79            1518.6185382
02 May 2022 14:48:36.018    02 May 2022 15:13:16.223      1480.2045841    Earth           Umbra       79            1518.6185382
02 May 2022 15:13:16.223    02 May 2022 15:13:35.597      19.374076102    Earth           Penumbra    79            1518.6185382
02 May 2022 16:22:07.113    02 May 2022 16:22:26.382      19.269219122    Earth           Penumbra    80            1508.3174000
02 May 2022 16:22:26.382    02 May 2022 16:46:55.822      1469.4392718    Earth           Umbra       80            1508.3174000
02 May 2022 16:46:55.822    02 May 2022 16:47:15.431      19.608909055    Earth           Penumbra    80            1508.3174000
02 May 2022 17:55:57.415    02 May 2022 17:56:16.921      19.505640969    Earth           Penumbra    81            1497.8884414
02 May 2022 17:56:16.921    02 May 2022 18:20:35.453      1458.5327308    Earth           Umbra       81            1497.8884414
02 May 2022 18:20:35.453    02 May 2022 18:20:55.304      19.850069610    Earth           Penumbra    81            1497.8884414
02 May 2022 19:29:47.850    02 May 2022 19:30:07.599      19.749291893    Earth           Penumbra    82            1487.3207401
02 May 2022 19:30:07.599    02 May 2022 19:54:15.072      1447.4727875    Earth           Umbra       82            1487.3207401
02 May 2022 19:54:15.072    02 May 2022 19:54:35.170      20.098660723    Earth           Penumbra    82            1487.3207401
02 May 2022 21:03:38.415    02 May 2022 21:03:58.415      19.999804138    Earth           Penumbra    83            1476.5961047
02 May 2022 21:03:58.415    02 May 2022 21:27:54.656      1436.2415946    Earth           Umbra       83            1476.5961047
02 May 2022 21:27:54.656    02 May 2022 21:28:15.011      20.354705967    Earth           Penumbra    83            1476.5961047
02 May 2022 22:37:29.176    02 May 2022 22:37:49.433      20.256511029    Earth           Penumbra    84            1465.7234834
02 May 2022 22:37:49.433    02 May 2022 23:01:34.283      1424.8501328    Earth           Umbra       84            1465.7234834
02 May 2022 23:01:34.283    02 May 2022 23:01:54.900      20.616839617    Earth           Penumbra    84            1465.7234834
03 May 2022 00:11:20.231    03 May 2022 00:11:40.751      20.519285265    Earth           Penumbra    85            1454.7118673
03 May 2022 00:11:40.751    03 May 2022 00:35:14.059      1413.3083467    Earth           Umbra       85            1454.7118673
03 May 2022 00:35:14.059    03 May 2022 00:35:34.943      20.884235320    Earth           Penumbra    85            1454.7118673
03 May 2022 01:45:11.597    03 May 2022 01:45:32.386      20.789278834    Earth           Penumbra    86            1443.5405300
03 May 2022 01:45:32.386    03 May 2022 02:08:53.979      1401.5931109    Earth           Umbra       86            1443.5405300
03 May 2022 02:08:53.979    03 May 2022 02:09:15.137      21.158140304    Earth           Penumbra    86            1443.5405300
03 May 2022 03:19:03.153    03 May 2022 03:19:24.221      21.068016195    Earth           Penumbra    87            1432.1877215
03 May 2022 03:19:24.221    03 May 2022 03:42:33.900      1389.6789681    Earth           Umbra       87            1432.1877215
03 May 2022 03:42:33.900    03 May 2022 03:42:55.341      21.440737217    Earth           Penumbra    87            1432.1877215
03 May 2022 04:52:54.757    03 May 2022 04:53:16.112      21.355374448    Earth           Penumbra    88            1420.6765246
03 May 2022 04:53:16.112    03 May 2022 05:16:13.701      1377.5886850    Earth           Umbra       88            1420.6765246
03 May 2022 05:16:13.701    03 May 2022 05:16:35.433      21.732465166    Earth           Penumbra    88            1420.6765246
03 May 2022 06:26:46.387    03 May 2022 06:27:08.036      21.649078222    Earth           Penumbra    89            1409.0717108
03 May 2022 06:27:08.036    03 May 2022 06:49:53.428      1365.3915722    Earth           Umbra       89            1409.0717108
03 May 2022 06:49:53.428    03 May 2022 06:50:15.459      22.031060408    Earth           Penumbra    89            1409.0717108
03 May 2022 08:00:38.134    03 May 2022 08:01:00.081      21.947206068    Earth           Penumbra    90            1397.4294544
03 May 2022 08:01:00.081    03 May 2022 08:23:33.229      1353.1484056    Earth           Umbra       90            1397.4294544
03 May 2022 08:23:33.229    03 May 2022 08:23:55.563      22.333842725    Earth           Penumbra    90            1397.4294544
03 May 2022 09:34:30.071    03 May 2022 09:34:52.321      22.250584967    Earth           Penumbra    91            1385.7455084
03 May 2022 09:34:52.321    03 May 2022 09:57:13.175      1340.8539526    Earth           Umbra       91            1385.7455084
03 May 2022 09:57:13.175    03 May 2022 09:57:35.816      22.640970850    Earth           Penumbra    91            1385.7455084
03 May 2022 11:08:22.204    03 May 2022 11:08:44.766      22.561995406    Earth           Penumbra    92            1373.9461699
03 May 2022 11:08:44.766    03 May 2022 11:30:53.194      1328.4283762    Earth           Umbra       92            1373.9461699
03 May 2022 11:30:53.194    03 May 2022 11:31:16.150      22.955798276    Earth           Penumbra    92            1373.9461699
03 May 2022 12:42:14.529    03 May 2022 12:42:37.412      22.883516620    Earth           Penumbra    93            1361.9433618
03 May 2022 12:42:37.412    03 May 2022 13:04:33.190      1315.7781896    Earth           Umbra       93            1361.9433618
03 May 2022 13:04:33.190    03 May 2022 13:04:56.472      23.281655554    Earth           Penumbra    93            1361.9433618
03 May 2022 14:16:07.064    03 May 2022 14:16:30.280      23.215558485    Earth           Penumbra    94            1349.7117073
03 May 2022 14:16:30.280    03 May 2022 14:38:13.157      1302.8771931    Earth           Umbra       94            1349.7117073
03 May 2022 14:38:13.157    03 May 2022 14:38:36.776      23.618955701    Earth           Penumbra    94            1349.7117073
03 May 2022 15:49:59.824    03 May 2022 15:50:23.382      23.558238242    Earth           Penumbra    95            1337.2976920
03 May 2022 15:50:23.382    03 May 2022 16:11:53.155      1289.7731745    Earth           Umbra       95            1337.2976920
03 May 2022 16:11:53.155    03 May 2022 16:12:17.122      23.966279242    Earth           Penumbra    95            1337.2976920
03 May 2022 17:23:52.790    03 May 2022 17:24:16.702      23.912435677    Earth           Penumbra    96            1324.7474262
03 May 2022 17:24:16.702    03 May 2022 17:45:33.214      1276.5114357    Earth           Umbra       96            1324.7474262
03 May 2022 17:45:33.214    03 May 2022 17:45:57.537      24.323554826    Earth           Penumbra    96            1324.7474262
03 May 2022 18:57:45.926    03 May 2022 18:58:10.205      24.278906104    Earth           Penumbra    97            1312.0585929
03 May 2022 18:58:10.205    03 May 2022 19:19:13.292      1263.0872076    Earth           Umbra       97            1312.0585929
03 May 2022 19:19:13.292    03 May 2022 19:19:37.985      24.692479160    Earth           Penumbra    97            1312.0585929
03 May 2022 20:31:39.214    03 May 2022 20:32:03.871      24.656933185    Earth           Penumbra    98            1299.2223607
03 May 2022 20:32:03.871    03 May 2022 20:52:53.362      1249.4918397    Earth           Umbra       98            1299.2223607
03 May 2022 20:52:53.362    03 May 2022 20:53:18.436      25.073587848    Earth           Penumbra    98            1299.2223607
03 May 2022 22:05:32.690    03 May 2022 22:05:57.735      25.044578186    Earth           Penumbra    99            1286.2702898
03 May 2022 22:05:57.735    03 May 2022 22:26:33.496      1235.7610077    Earth           Umbra       99            1286.2702898
03 May 2022 22:26:33.496    03 May 2022 22:26:58.961      25.464703899    Earth           Penumbra    99            1286.2702898
03 May 2022 23:39:26.444    03 May 2022 23:39:51.885      25.440935232    Earth           Penumbra    100           1273.2351211
03 May 2022 23:39:51.885    04 May 2022 00:00:13.815      1221.9304765    Earth           Umbra       100           1273.2351211
04 May 2022 00:00:13.815    04 May 2022 00:00:39.679      25.863709417    Earth           Penumbra    100           1273.2351211
04 May 2022 01:13:20.516    04 May 2022 01:13:46.364      25.848097075    Earth           Penumbra    101           1260.0873678
04 May 2022 01:13:46.364    04 May 2022 01:33:54.331      1207.9671344    Earth           Umbra       101           1260.0873678
04 May 2022 01:33:54.331    04 May 2022 01:34:20.603      26.272136404    Earth           Penumbra    101           1260.0873678
04 May 2022 02:47:14.824    04 May 2022 02:47:41.094      26.269827713    Earth           Penumbra    102           1246.7631150
04 May 2022 02:47:41.094    04 May 2022 03:07:34.893      1193.7989956    Earth           Umbra       102           1246.7631150
04 May 2022 03:07:34.893    04 May 2022 03:08:01.587      26.694291690    Earth           Penumbra    102           1246.7631150
04 May 2022 04:21:09.218    04 May 2022 04:21:35.925      26.707222557    Earth           Penumbra    103           1233.2628000
04 May 2022 04:21:35.925    04 May 2022 04:41:15.348      1179.4233481    Earth           Umbra       103           1233.2628000
04 May 2022 04:41:15.348    04 May 2022 04:41:42.481      27.132229367    Earth           Penumbra    103           1233.2628000
04 May 2022 05:55:03.625    04 May 2022 05:55:30.782      27.156418597    Earth           Penumbra    104           1219.6908874
04 May 2022 05:55:30.782    04 May 2022 06:14:55.734      1164.9519225    Earth           Umbra       104           1219.6908874
04 May 2022 06:14:55.734    04 May 2022 06:15:23.316      27.582546277    Earth           Penumbra    104           1219.6908874
04 May 2022 07:28:58.090    04 May 2022 07:29:25.702      27.612232987    Earth           Penumbra    105           1206.1745426
04 May 2022 07:29:25.702    04 May 2022 07:48:36.225      1150.5228262    Earth           Umbra       105           1206.1745426
04 May 2022 07:48:36.225    04 May 2022 07:49:04.264      28.039483423    Earth           Penumbra    105           1206.1745426
04 May 2022 09:02:52.686    04 May 2022 09:03:20.760      28.074265283    Earth           Penumbra    106           1192.7416304
04 May 2022 09:03:20.760    04 May 2022 09:22:16.926      1136.1658545    Earth           Umbra       106           1192.7416304
04 May 2022 09:22:16.926    04 May 2022 09:22:45.428      28.501510690    Earth           Penumbra    106           1192.7416304
04 May 2022 10:36:47.456    04 May 2022 10:37:16.004      28.547773452    Earth           Penumbra    107           1179.2885991
04 May 2022 10:37:16.004    04 May 2022 10:55:57.771      1121.7670399    Earth           Umbra       107           1179.2885991
04 May 2022 10:55:57.771    04 May 2022 10:56:26.744      28.973785776    Earth           Penumbra    107           1179.2885991
04 May 2022 12:10:42.417    04 May 2022 12:11:11.455      29.038173566    Earth           Penumbra    108           1165.6792401
04 May 2022 12:11:11.455    04 May 2022 12:29:38.633      1107.1779198    Earth           Umbra       108           1165.6792401
04 May 2022 12:29:38.633    04 May 2022 12:30:08.096      29.463146743    Earth           Penumbra    108           1165.6792401
04 May 2022 13:44:37.583    04 May 2022 13:45:07.130      29.546457937    Earth           Penumbra    109           1151.8716726
04 May 2022 13:45:07.130    04 May 2022 14:03:19.484      1092.3536616    Earth           Umbra       109           1151.8716726
04 May 2022 14:03:19.484    04 May 2022 14:03:49.455      29.971553071    Earth           Penumbra    109           1151.8716726
04 May 2022 15:18:32.958    04 May 2022 15:19:03.029      30.071017239    Earth           Penumbra    110           1137.9317751
04 May 2022 15:19:03.029    04 May 2022 15:37:00.394      1077.3646232    Earth           Umbra       110           1137.9317751
04 May 2022 15:37:00.394    04 May 2022 15:37:30.890      30.496134690    Earth           Penumbra    110           1137.9317751
04 May 2022 16:52:28.525    04 May 2022 16:52:59.137      30.612049182    Earth           Penumbra    111           1123.9306242
04 May 2022 16:52:59.137    04 May 2022 17:10:41.421      1062.2835071    Earth           Umbra       111           1123.9306242
04 May 2022 17:10:41.421    04 May 2022 17:11:12.456      31.035067909    Earth           Penumbra    111           1123.9306242
04 May 2022 18:26:24.252    04 May 2022 18:26:55.423      31.171565736    Earth           Penumbra    112           1109.8779171
04 May 2022 18:26:55.423    04 May 2022 18:44:22.539      1047.1159697    Earth           Umbra       112           1109.8779171
04 May 2022 18:44:22.539    04 May 2022 18:44:54.130      31.590381672    Earth           Penumbra    112           1109.8779171
04 May 2022 20:00:20.097    04 May 2022 20:00:51.846      31.748973147    Earth           Penumbra    113           1095.7811315
04 May 2022 20:00:51.846    04 May 2022 20:18:03.715      1031.8687292    Earth           Umbra       113           1095.7811315
04 May 2022 20:18:03.715    04 May 2022 20:18:35.878      32.163429132    Earth           Penumbra    113           1095.7811315
04 May 2022 21:34:16.050    04 May 2022 21:34:48.390      32.339273079    Earth           Penumbra    114           1081.7164720
04 May 2022 21:34:48.390    04 May 2022 21:51:45.016      1016.6269368    Earth           Umbra       114           1081.7164720
04 May 2022 21:51:45.016    04 May 2022 21:52:17.767      32.750262099    Earth           Penumbra    114           1081.7164720
04 May 2022 23:08:12.163    04 May 2022 23:08:45.101      32.937855693    Earth           Penumbra    115           1067.7693885
04 May 2022 23:08:45.101    04 May 2022 23:25:26.587      1001.4863254    Earth           Umbra       115           1067.7693885
04 May 2022 23:25:26.587    04 May 2022 23:25:59.932      33.345207386    Earth           Penumbra    115           1067.7693885
05 May 2022 00:42:08.498    05 May 2022 00:42:42.045      33.547016792    Earth           Penumbra    116           1053.9126086
05 May 2022 00:42:42.045    05 May 2022 00:59:08.462      986.41658969    Earth           Umbra       116           1053.9126086
05 May 2022 00:59:08.462    05 May 2022 00:59:42.411      33.949002076    Earth           Penumbra    116           1053.9126086
05 May 2022 02:16:05.030    05 May 2022 02:16:39.206      34.175205335    Earth           Penumbra    117           1040.0178706
05 May 2022 02:16:39.206    05 May 2022 02:32:50.478      971.27284922    Earth           Umbra       117           1040.0178706
05 May 2022 02:32:50.478    05 May 2022 02:33:25.048      34.569816012    Earth           Penumbra    117           1040.0178706
05 May 2022 03:50:01.631    05 May 2022 03:50:36.459      34.827353340    Earth           Penumbra    118           1026.0295428
05 May 2022 03:50:36.459    05 May 2022 04:06:32.447      955.98853166    Earth           Umbra       118           1026.0295428
05 May 2022 04:06:32.447    05 May 2022 04:07:07.661      35.213657760    Earth           Penumbra    118           1026.0295428
05 May 2022 05:23:58.171    05 May 2022 05:24:33.668      35.496754758    Earth           Penumbra    119           1012.0922249
05 May 2022 05:24:33.668    05 May 2022 05:40:14.388      940.72044661    Earth           Umbra       119           1012.0922249
05 May 2022 05:40:14.388    05 May 2022 05:40:50.263      35.875023552    Earth           Penumbra    119           1012.0922249
05 May 2022 06:57:54.603    05 May 2022 06:58:30.773      36.169558705    Earth           Penumbra    120           998.45202029
05 May 2022 06:58:30.773    05 May 2022 07:13:56.515      925.74223720    Earth           Umbra       120           998.45202029
05 May 2022 07:13:56.515    05 May 2022 07:14:33.055      36.540224380    Earth           Penumbra    120           998.45202029
05 May 2022 08:31:50.970    05 May 2022 08:32:27.809      36.838994385    Earth           Penumbra    121           985.22043123
05 May 2022 08:32:27.809    05 May 2022 08:47:38.989      911.18004281    Earth           Umbra       121           985.22043123
05 May 2022 08:47:38.989    05 May 2022 08:48:16.190      37.201394036    Earth           Penumbra    121           985.22043123
05 May 2022 10:05:47.351    05 May 2022 10:06:24.864      37.512807932    Earth           Penumbra    122           972.26916341
05 May 2022 10:06:24.864    05 May 2022 10:21:21.755      896.89113703    Earth           Umbra       122           972.26916341
05 May 2022 10:21:21.755    05 May 2022 10:21:59.620      37.865218450    Earth           Penumbra    122           972.26916341
05 May 2022 11:39:43.816    05 May 2022 11:40:22.020      38.203994022    Earth           Penumbra    123           959.38181943
05 May 2022 11:40:22.020    05 May 2022 11:55:04.653      882.63251013    Earth           Umbra       123           959.38181943
05 May 2022 11:55:04.653    05 May 2022 11:55:43.198      38.545315282    Earth           Penumbra    123           959.38181943
05 May 2022 13:13:40.383    05 May 2022 13:14:19.300      38.916283334    Earth           Penumbra    124           946.48397493
05 May 2022 13:14:19.300    05 May 2022 13:28:47.620      868.32059885    Earth           Umbra       124           946.48397493
05 May 2022 13:28:47.620    05 May 2022 13:29:26.867      39.247092744    Earth           Penumbra    124           946.48397493
05 May 2022 14:47:37.019    05 May 2022 14:48:16.662      39.642540459    Earth           Penumbra    125           933.68557950
05 May 2022 14:48:16.662    05 May 2022 15:02:30.741      854.07948123    Earth           Umbra       125           933.68557950
05 May 2022 15:02:30.741    05 May 2022 15:03:10.705      39.963557816    Earth           Penumbra    125           933.68557950
05 May 2022 16:21:33.684    05 May 2022 16:22:14.060      40.376232227    Earth           Penumbra    126           921.11888481
05 May 2022 16:22:14.060    05 May 2022 16:36:14.117      840.05662742    Earth           Umbra       126           921.11888481
05 May 2022 16:36:14.117    05 May 2022 16:36:54.803      40.686025168    Earth           Penumbra    126           921.11888481
05 May 2022 17:55:30.347    05 May 2022 17:56:11.465      41.117992310    Earth           Penumbra    127           908.81849545
05 May 2022 17:56:11.465    05 May 2022 18:09:57.752      826.28704120    Earth           Umbra       127           908.81849545
05 May 2022 18:09:57.752    05 May 2022 18:10:39.165      41.413461941    Earth           Penumbra    127           908.81849545
05 May 2022 19:29:26.955    05 May 2022 19:30:08.823      41.867352999    Earth           Penumbra    128           896.80381635
05 May 2022 19:30:08.823    05 May 2022 19:43:41.612      812.78981916    Earth           Umbra       128           896.80381635
05 May 2022 19:43:41.612    05 May 2022 19:44:23.759      42.146644194    Earth           Penumbra    128           896.80381635
05 May 2022 21:03:23.439    05 May 2022 21:04:06.051      42.612922029    Earth           Penumbra    129           885.20529151
05 May 2022 21:04:06.051    05 May 2022 21:17:25.767      799.71564633    Earth           Umbra       129           885.20529151
05 May 2022 21:17:25.767    05 May 2022 21:18:08.644      42.876723153    Earth           Penumbra    129           885.20529151
05 May 2022 22:37:19.778    05 May 2022 22:38:03.117      43.338619347    Earth           Penumbra    130           874.19364396
05 May 2022 22:38:03.117    05 May 2022 22:51:10.384      787.26681682    Earth           Umbra       130           874.19364396
05 May 2022 22:51:10.384    05 May 2022 22:51:53.972      43.588207802    Earth           Penumbra    130           874.19364396
06 May 2022 00:11:16.036    06 May 2022 00:12:00.078      44.041299855    Earth           Penumbra    131           863.76974814
06 May 2022 00:12:00.078    06 May 2022 00:24:55.530      775.45229568    Earth           Umbra       131           863.76974814
06 May 2022 00:24:55.530    06 May 2022 00:25:39.806      44.276152609    Earth           Penumbra    131           863.76974814
06 May 2022 01:45:12.263    06 May 2022 01:45:56.998      44.735692022    Earth           Penumbra    132           853.72580934
06 May 2022 01:45:56.998    06 May 2022 01:58:41.035      764.03656475    Earth           Umbra       132           853.72580934
06 May 2022 01:58:41.035    06 May 2022 01:59:25.988      44.953552564    Earth           Penumbra    132           853.72580934
06 May 2022 03:19:08.395    06 May 2022 03:19:53.831      45.435302239    Earth           Penumbra    133           843.89947993
06 May 2022 03:19:53.831    06 May 2022 03:32:26.661      752.83009642    Earth           Umbra       133           843.89947993
06 May 2022 03:32:26.661    06 May 2022 03:33:12.295      45.634081273    Earth           Penumbra    133           843.89947993
06 May 2022 04:53:04.270    06 May 2022 04:53:50.400      46.129431948    Earth           Penumbra    134           834.43631869
06 May 2022 04:53:50.400    06 May 2022 05:06:12.398      741.99827244    Earth           Umbra       134           834.43631869
06 May 2022 05:06:12.398    06 May 2022 05:06:58.707      46.308614302    Earth           Penumbra    134           834.43631869
06 May 2022 06:26:59.732    06 May 2022 06:27:46.518      46.785811346    Earth           Penumbra    135           825.71261575
06 May 2022 06:27:46.518    06 May 2022 06:39:58.498      731.98057255    Earth           Umbra       135           825.71261575
06 May 2022 06:39:58.498    06 May 2022 06:40:45.445      46.946231858    Earth           Penumbra    135           825.71261575
06 May 2022 08:00:54.744    06 May 2022 08:01:42.125      47.380136792    Earth           Penumbra    136           817.96864624
06 May 2022 08:01:42.125    06 May 2022 08:13:45.190      723.06595427    Earth           Umbra       136           817.96864624
06 May 2022 08:13:45.190    06 May 2022 08:14:32.713      47.522555175    Earth           Penumbra    136           817.96864624
06 May 2022 09:34:49.414    06 May 2022 09:35:37.333      47.919053980    Earth           Penumbra    137           811.07482488
06 May 2022 09:35:37.333    06 May 2022 09:47:32.445      715.11285166    Earth           Umbra       137           811.07482488
06 May 2022 09:47:32.445    06 May 2022 09:48:20.488      48.042919231    Earth           Penumbra    137           811.07482488
06 May 2022 11:08:43.891    06 May 2022 11:09:32.319      48.427816120    Earth           Penumbra    138           804.70803527
06 May 2022 11:09:32.319    06 May 2022 11:21:20.067      707.74847833    Earth           Umbra       138           804.70803527
06 May 2022 11:21:20.067    06 May 2022 11:22:08.599      48.531740822    Earth           Penumbra    138           804.70803527
06 May 2022 12:42:38.235    06 May 2022 12:43:27.153      48.917906312    Earth           Penumbra    139           798.71471539
06 May 2022 12:43:27.153    06 May 2022 12:55:07.948      700.79537029    Earth           Umbra       139           798.71471539
06 May 2022 12:55:07.948    06 May 2022 12:55:56.950      49.001438788    Earth           Penumbra    139           798.71471539
06 May 2022 14:16:32.379    06 May 2022 14:17:21.754      49.374702643    Earth           Penumbra    140           793.22834685
06 May 2022 14:17:21.754    06 May 2022 14:28:56.169      694.41477852    Earth           Umbra       140           793.22834685
06 May 2022 14:28:56.169    06 May 2022 14:29:45.607      49.438865692    Earth           Penumbra    140           793.22834685
06 May 2022 15:50:26.235    06 May 2022 15:51:16.012      49.777193356    Earth           Penumbra    141           788.45340230
06 May 2022 15:51:16.012    06 May 2022 16:02:44.866      688.85366813    Earth           Umbra       141           788.45340230
06 May 2022 16:02:44.866    06 May 2022 16:03:34.688      49.822540814    Earth           Penumbra    141           788.45340230
06 May 2022 17:24:19.767    06 May 2022 17:25:09.887      50.119092024    Earth           Penumbra    142           784.45294686
06 May 2022 17:25:09.887    06 May 2022 17:36:34.077      684.18996757    Earth           Umbra       142           784.45294686
06 May 2022 17:36:34.077    06 May 2022 17:37:24.220      50.143887266    Earth           Penumbra    142           784.45294686
06 May 2022 18:58:12.947    06 May 2022 18:59:03.349      50.402039720    Earth           Penumbra    143           781.21803211
06 May 2022 18:59:03.349    06 May 2022 19:10:23.761      680.41235340    Earth           Umbra       143           781.21803211
06 May 2022 19:10:23.761    06 May 2022 19:11:14.165      50.403638987    Earth           Penumbra    143           781.21803211
06 May 2022 20:32:05.692    06 May 2022 20:32:56.307      50.615160295    Earth           Penumbra    144           778.85713225
06 May 2022 20:32:56.307    06 May 2022 20:44:13.956      677.64891348    Earth           Umbra       144           778.85713225
06 May 2022 20:44:13.956    06 May 2022 20:45:04.549      50.593058474    Earth           Penumbra    144           778.85713225
06 May 2022 22:05:57.940    06 May 2022 22:06:48.677      50.737013260    Earth           Penumbra    145           777.55916321
06 May 2022 22:06:48.677    06 May 2022 22:18:04.806      676.12877676    Earth           Umbra       145           777.55916321
06 May 2022 22:18:04.806    06 May 2022 22:18:55.499      50.693373196    Earth           Penumbra    145           777.55916321
06 May 2022 23:39:49.747    06 May 2022 23:40:40.510      50.762646168    Earth           Penumbra    146           777.32948324
06 May 2022 23:40:40.510    06 May 2022 23:51:56.377      675.86722994    Earth           Umbra       146           777.32948324
06 May 2022 23:51:56.377    06 May 2022 23:52:47.077      50.699607132    Earth           Penumbra    146           777.32948324
07 May 2022 01:13:41.239    07 May 2022 01:14:31.956      50.717156637    Earth           Penumbra    147           777.88184396
07 May 2022 01:14:31.956    07 May 2022 01:25:48.486      676.53015697    Earth           Umbra       147           777.88184396
07 May 2022 01:25:48.486    07 May 2022 01:26:39.121      50.634530350    Earth           Penumbra    147           777.88184396
07 May 2022 02:47:32.455    07 May 2022 02:48:23.086      50.630729890    Earth           Penumbra    148           778.91193921
07 May 2022 02:48:23.086    07 May 2022 02:59:40.841      677.75446542    Earth           Umbra       148           778.91193921
07 May 2022 02:59:40.841    07 May 2022 03:00:31.367      50.526743894    Earth           Penumbra    148           778.91193921
07 May 2022 04:21:23.275    07 May 2022 04:22:13.778      50.503134902    Earth           Penumbra    149           780.45623907
07 May 2022 04:22:13.778    07 May 2022 04:33:33.354      679.57641823    Earth           Umbra       149           780.45623907
07 May 2022 04:33:33.354    07 May 2022 04:34:23.731      50.376685930    Earth           Penumbra    149           780.45623907
07 May 2022 05:55:13.507    07 May 2022 05:56:03.810      50.303101726    Earth           Penumbra    150           782.87596952
07 May 2022 05:56:03.810    07 May 2022 06:07:26.228      682.41790698    Earth           Umbra       150           782.87596952
07 May 2022 06:07:26.228    07 May 2022 06:08:16.382      50.154960807    Earth           Penumbra    150           782.87596952
07 May 2022 07:29:03.067    07 May 2022 07:29:53.073      50.005882897    Earth           Penumbra    151           786.45112143
07 May 2022 07:29:53.073    07 May 2022 07:41:19.680      686.60727020    Earth           Umbra       151           786.45112143
07 May 2022 07:41:19.680    07 May 2022 07:42:09.518      49.837968335    Earth           Penumbra    151           786.45112143
07 May 2022 09:02:52.072    07 May 2022 09:03:41.696      49.623814586    Earth           Penumbra    152           791.06028378
07 May 2022 09:03:41.696    07 May 2022 09:15:13.695      691.99882715    Earth           Umbra       152           791.06028378
07 May 2022 09:15:13.695    07 May 2022 09:16:03.132      49.437642039    Earth           Penumbra    152           791.06028378
07 May 2022 10:36:40.738    07 May 2022 10:37:29.932      49.193886446    Earth           Penumbra    153           796.31805330
07 May 2022 10:37:29.932    07 May 2022 10:49:08.067      698.13454530    Earth           Umbra       153           796.31805330
07 May 2022 10:49:08.067    07 May 2022 10:49:57.056      48.989621561    Earth           Penumbra    153           796.31805330
07 May 2022 12:10:29.192    07 May 2022 12:11:17.933      48.740728386    Earth           Penumbra    154           801.97404223
07 May 2022 12:11:17.933    07 May 2022 12:23:02.648      704.71541133    Earth           Umbra       154           801.97404223
07 May 2022 12:23:02.648    07 May 2022 12:23:51.166      48.517902510    Earth           Penumbra    154           801.97404223
07 May 2022 13:44:17.392    07 May 2022 13:45:05.652      48.260134156    Earth           Penumbra    155           808.09168123
