GMAT/Constellation/Eclipses/eclipse15.txt

Spacecraft: HSEYE15

Start Time (UTC)            Stop Time (UTC)               Duration (s)    Occ Body        Type        Event Number  Total Duration (s)
27 Apr 2022 12:18:22.324    27 Apr 2022 12:18:32.332      10.008638946    Earth           Penumbra    1             2044.7862432
27 Apr 2022 12:18:32.332    27 Apr 2022 12:52:17.213      2024.8802703    Earth           Umbra       1             2044.7862432
27 Apr 2022 12:52:17.213    27 Apr 2022 12:52:27.110      9.8973339773    Earth           Penumbra    1             2044.7862432
27 Apr 2022 13:51:52.598    27 Apr 2022 13:52:02.585      9.9874439416    Earth           Penumbra    2             2046.1104106
27 Apr 2022 13:52:02.585    27 Apr 2022 14:25:48.833      2026.2471103    Earth           Umbra       2             2046.1104106
27 Apr 2022 14:25:48.833    27 Apr 2022 14:25:58.708      9.8758563981    Earth           Penumbra    2             2046.1104106
27 Apr 2022 15:25:22.809    27 Apr 2022 15:25:32.775      9.9660694599    Earth           Penumbra    3             2047.4289865
27 Apr 2022 15:25:32.775    27 Apr 2022 15:59:20.384      2027.6088913    Earth           Umbra       3             2047.4289865
27 Apr 2022 15:59:20.384    27 Apr 2022 15:59:30.238      9.8540258361    Earth           Penumbra    3             2047.4289865
27 Apr 2022 16:58:53.015    27 Apr 2022 16:59:02.960      9.9449304049    Earth           Penumbra    4             2048.7588991
27 Apr 2022 16:59:02.960    27 Apr 2022 17:32:51.942      2028.9818058    Earth           Umbra       4             2048.7588991
27 Apr 2022 17:32:51.942    27 Apr 2022 17:33:01.774      9.8321628990    Earth           Penumbra    4             2048.7588991
27 Apr 2022 18:32:23.222    27 Apr 2022 18:32:33.146      9.9240934127    Earth           Penumbra    5             2050.1033484
27 Apr 2022 18:32:33.146    27 Apr 2022 19:06:23.515      2030.3688042    Earth           Umbra       5             2050.1033484
27 Apr 2022 19:06:23.515    27 Apr 2022 19:06:33.325      9.8104508361    Earth           Penumbra    5             2050.1033484
27 Apr 2022 20:05:53.395    27 Apr 2022 20:06:03.298      9.9032099009    Earth           Penumbra    6             2051.4549960
27 Apr 2022 20:06:03.298    27 Apr 2022 20:39:55.061      2031.7630109    Earth           Umbra       6             2051.4549960
27 Apr 2022 20:39:55.061    27 Apr 2022 20:40:04.850      9.7887752345    Earth           Penumbra    6             2051.4549960
27 Apr 2022 21:39:23.528    27 Apr 2022 21:39:33.410      9.8819089704    Earth           Penumbra    7             2052.8041642
27 Apr 2022 21:39:33.410    27 Apr 2022 22:13:26.565      2033.1553275    Earth           Umbra       7             2052.8041642
27 Apr 2022 22:13:26.565    27 Apr 2022 22:13:36.332      9.7669276991    Earth           Penumbra    7             2052.8041642
27 Apr 2022 23:12:53.658    27 Apr 2022 23:13:03.518      9.8601821344    Earth           Penumbra    8             2044.3981006
27 Apr 2022 23:13:03.518    27 Apr 2022 23:46:58.056      2034.5379185    Earth           Umbra       8             2044.3981006
28 Apr 2022 00:46:23.797    28 Apr 2022 00:46:33.636      9.8383591161    Earth           Penumbra    9             2055.4716164
28 Apr 2022 00:46:33.636    28 Apr 2022 01:20:29.546      2035.9106658    Earth           Umbra       9             2055.4716164
28 Apr 2022 01:20:29.546    28 Apr 2022 01:20:39.269      9.7225914127    Earth           Penumbra    9             2055.4716164
28 Apr 2022 02:19:53.902    28 Apr 2022 02:20:03.719      9.8167193471    Earth           Penumbra    10            2056.8003446
28 Apr 2022 02:20:03.719    28 Apr 2022 02:54:01.002      2037.2831149    Earth           Umbra       10            2056.8003446
28 Apr 2022 02:54:01.002    28 Apr 2022 02:54:10.702      9.7005103366    Earth           Penumbra    10            2056.8003446
28 Apr 2022 03:53:23.904    28 Apr 2022 03:53:33.699      9.7952178796    Earth           Penumbra    11            2058.1368629
28 Apr 2022 03:53:33.699    28 Apr 2022 04:27:32.362      2038.6628820    Earth           Umbra       11            2058.1368629
28 Apr 2022 04:27:32.362    28 Apr 2022 04:27:42.041      9.6787630697    Earth           Penumbra    11            2058.1368629
28 Apr 2022 05:26:53.784    28 Apr 2022 05:27:03.557      9.7736947238    Earth           Penumbra    12            2059.4793829
28 Apr 2022 05:27:03.557    28 Apr 2022 06:01:03.606      2040.0484121    Earth           Umbra       12            2059.4793829
28 Apr 2022 06:01:03.606    28 Apr 2022 06:01:13.263      9.6572760609    Earth           Penumbra    12            2059.4793829
28 Apr 2022 07:00:23.602    28 Apr 2022 07:00:33.354      9.7522407188    Earth           Penumbra    13            2060.8276220
28 Apr 2022 07:00:33.354    28 Apr 2022 07:34:34.793      2041.4394715    Earth           Umbra       13            2060.8276220
28 Apr 2022 07:34:34.793    28 Apr 2022 07:34:44.429      9.6359097515    Earth           Penumbra    13            2060.8276220
28 Apr 2022 08:33:53.448    28 Apr 2022 08:34:03.180      9.7311205231    Earth           Penumbra    14            2062.1882639
28 Apr 2022 08:34:03.180    28 Apr 2022 09:08:06.022      2042.8424230    Earth           Umbra       14            2062.1882639
28 Apr 2022 09:08:06.022    28 Apr 2022 09:08:15.637      9.6147204051    Earth           Penumbra    14            2062.1882639
28 Apr 2022 10:07:23.349    28 Apr 2022 10:07:33.059      9.7103357082    Earth           Penumbra    15            2063.5589443
28 Apr 2022 10:07:33.059    28 Apr 2022 10:41:37.314      2044.2548025    Earth           Umbra       15            2063.5589443
28 Apr 2022 10:41:37.314    28 Apr 2022 10:41:46.908      9.5938060898    Earth           Penumbra    15            2063.5589443
28 Apr 2022 11:40:53.236    28 Apr 2022 11:41:02.926      9.6895175753    Earth           Penumbra    16            2064.9202553
28 Apr 2022 11:41:02.926    28 Apr 2022 12:15:08.583      2045.6577294    Earth           Umbra       16            2064.9202553
28 Apr 2022 12:15:08.583    28 Apr 2022 12:15:18.156      9.5730083878    Earth           Penumbra    16            2064.9202553
28 Apr 2022 13:14:23.040    28 Apr 2022 13:14:32.709      9.6683738055    Earth           Penumbra    17            2066.2568589
28 Apr 2022 13:14:32.709    28 Apr 2022 13:48:39.745      2047.0364743    Earth           Umbra       17            2066.2568589
28 Apr 2022 13:48:39.745    28 Apr 2022 13:48:49.297      9.5520107774    Earth           Penumbra    17            2066.2568589
28 Apr 2022 14:47:52.775    28 Apr 2022 14:48:02.422      9.6470672172    Earth           Penumbra    18            2067.5764460
28 Apr 2022 14:48:02.422    28 Apr 2022 15:22:10.821      2048.3986309    Earth           Umbra       18            2067.5764460
28 Apr 2022 15:22:10.821    28 Apr 2022 15:22:20.352      9.5307478798    Earth           Penumbra    18            2067.5764460
28 Apr 2022 16:21:22.502    28 Apr 2022 16:21:32.128      9.6259979415    Earth           Penumbra    19            2068.8974403
28 Apr 2022 16:21:32.128    28 Apr 2022 16:55:41.890      2049.7619816    Earth           Umbra       19            2068.8974403
28 Apr 2022 16:55:41.890    28 Apr 2022 16:55:51.399      9.5094607794    Earth           Penumbra    19            2068.8974403
28 Apr 2022 17:54:52.237    28 Apr 2022 17:55:01.843      9.6053105663    Earth           Penumbra    20            2070.2275267
28 Apr 2022 17:55:01.843    28 Apr 2022 18:29:12.976      2051.1338787    Earth           Umbra       20            2070.2275267
28 Apr 2022 18:29:12.976    28 Apr 2022 18:29:22.465      9.4883374404    Earth           Penumbra    20            2070.2275267
28 Apr 2022 19:28:21.947    28 Apr 2022 19:28:31.532      9.5847328892    Earth           Penumbra    21            2071.5614440
28 Apr 2022 19:28:31.532    28 Apr 2022 20:02:44.041      2052.5093965    Earth           Umbra       21            2071.5614440
28 Apr 2022 20:02:44.041    28 Apr 2022 20:02:53.508      9.4673146843    Earth           Penumbra    21            2071.5614440
28 Apr 2022 21:01:51.616    28 Apr 2022 21:02:01.179      9.5638874103    Earth           Penumbra    22            2072.8895276
28 Apr 2022 21:02:01.179    28 Apr 2022 21:36:15.059      2053.8794007    Earth           Umbra       22            2072.8895276
28 Apr 2022 21:36:15.059    28 Apr 2022 21:36:24.505      9.4462394365    Earth           Penumbra    22            2072.8895276
28 Apr 2022 22:35:21.275    28 Apr 2022 22:35:30.817      9.5426927204    Earth           Penumbra    23            2074.2029628
28 Apr 2022 22:35:30.817    28 Apr 2022 23:09:46.052      2055.2352140    Earth           Umbra       23            2074.2029628
28 Apr 2022 23:09:46.052    28 Apr 2022 23:09:55.477      9.4250560622    Earth           Penumbra    23            2074.2029628
29 Apr 2022 00:08:50.947    29 Apr 2022 00:09:00.468      9.5214257366    Earth           Penumbra    24            2075.5002862
29 Apr 2022 00:09:00.468    29 Apr 2022 00:43:17.043      2056.5750176    Earth           Umbra       24            2075.5002862
29 Apr 2022 00:43:17.043    29 Apr 2022 00:43:26.447      9.4038428273    Earth           Penumbra    24            2075.5002862
29 Apr 2022 01:42:20.599    29 Apr 2022 01:42:30.099      9.5003888360    Earth           Penumbra    25            2067.4085104
29 Apr 2022 01:42:30.099    29 Apr 2022 02:16:48.007      2057.9081215    Earth           Umbra       25            2067.4085104
29 Apr 2022 03:15:50.162    29 Apr 2022 03:15:59.641      9.4796015066    Earth           Penumbra    26            2078.0864454
29 Apr 2022 03:15:59.641    29 Apr 2022 03:50:18.886      2059.2447587    Earth           Umbra       26            2078.0864454
29 Apr 2022 03:50:18.886    29 Apr 2022 03:50:28.248      9.3620852334    Earth           Penumbra    26            2078.0864454
29 Apr 2022 04:49:19.604    29 Apr 2022 04:49:29.063      9.4589122455    Earth           Penumbra    27            2079.3852012
29 Apr 2022 04:49:29.063    29 Apr 2022 05:23:49.648      2060.5845699    Earth           Umbra       27            2079.3852012
29 Apr 2022 05:23:49.648    29 Apr 2022 05:23:58.989      9.3417190947    Earth           Penumbra    27            2079.3852012
29 Apr 2022 06:22:48.976    29 Apr 2022 06:22:58.415      9.4383502845    Earth           Penumbra    28            2080.6843606
29 Apr 2022 06:22:58.415    29 Apr 2022 06:57:20.339      2061.9244225    Earth           Umbra       28            2080.6843606
29 Apr 2022 06:57:20.339    29 Apr 2022 06:57:29.661      9.3215877539    Earth           Penumbra    28            2080.6843606
29 Apr 2022 07:56:27.788    29 Apr 2022 08:30:51.058      2063.2693166    Earth           Umbra       29            2072.5709978
29 Apr 2022 08:30:51.058    29 Apr 2022 08:31:00.359      9.3016811530    Earth           Penumbra    29            2072.5709978
29 Apr 2022 09:29:47.825    29 Apr 2022 09:29:57.223      9.3983525760    Earth           Penumbra    30            2083.3015486
29 Apr 2022 09:29:57.223    29 Apr 2022 10:04:21.845      2064.6211323    Earth           Umbra       30            2083.3015486
29 Apr 2022 10:04:21.845    29 Apr 2022 10:04:31.127      9.2820637277    Earth           Penumbra    30            2083.3015486
29 Apr 2022 11:03:17.283    29 Apr 2022 11:03:26.662      9.3786512269    Earth           Penumbra    31            2084.6058462
29 Apr 2022 11:03:26.662    29 Apr 2022 11:37:52.626      2065.9645522    Earth           Umbra       31            2084.6058462
29 Apr 2022 11:37:52.626    29 Apr 2022 11:38:01.889      9.2626427533    Earth           Penumbra    31            2084.6058462
29 Apr 2022 12:36:46.666    29 Apr 2022 12:36:56.024      9.3587223091    Earth           Penumbra    32            2085.8829110
29 Apr 2022 12:36:56.024    29 Apr 2022 13:11:23.305      2067.2810427    Earth           Umbra       32            2085.8829110
29 Apr 2022 13:11:23.305    29 Apr 2022 13:11:32.548      9.2431460274    Earth           Penumbra    32            2085.8829110
29 Apr 2022 14:10:15.974    29 Apr 2022 14:10:25.312      9.3386396882    Earth           Penumbra    33            2087.1341741
29 Apr 2022 14:10:25.312    29 Apr 2022 14:44:53.884      2068.5720734    Earth           Umbra       33            2087.1341741
29 Apr 2022 14:44:53.884    29 Apr 2022 14:45:03.108      9.2234610231    Earth           Penumbra    33            2087.1341741
29 Apr 2022 15:43:45.269    29 Apr 2022 15:43:54.588      9.3187701772    Earth           Penumbra    34            2088.3774845
29 Apr 2022 15:43:54.588    29 Apr 2022 16:18:24.443      2069.8549556    Earth           Umbra       34            2088.3774845
29 Apr 2022 16:18:24.443    29 Apr 2022 16:18:33.647      9.2037587310    Earth           Penumbra    34            2088.3774845
29 Apr 2022 17:17:14.581    29 Apr 2022 17:17:23.880      9.2993209139    Earth           Penumbra    35            2089.6243883
29 Apr 2022 17:17:23.880    29 Apr 2022 17:51:55.021      2071.1408450    Earth           Umbra       35            2089.6243883
29 Apr 2022 17:51:55.021    29 Apr 2022 17:52:04.205      9.1842224007    Earth           Penumbra    35            2089.6243883
29 Apr 2022 18:50:43.876    29 Apr 2022 18:50:53.156      9.2801033054    Earth           Penumbra    36            2090.8722472
29 Apr 2022 18:50:53.156    29 Apr 2022 19:25:25.584      2072.4273174    Earth           Umbra       36            2090.8722472
29 Apr 2022 19:25:25.584    29 Apr 2022 19:25:34.749      9.1648265719    Earth           Penumbra    36            2090.8722472
29 Apr 2022 20:24:13.132    29 Apr 2022 20:24:22.393      9.2607574537    Earth           Penumbra    37            2092.1119864
29 Apr 2022 20:24:22.393    29 Apr 2022 20:58:56.099      2073.7057743    Earth           Umbra       37            2092.1119864
29 Apr 2022 20:58:56.099    29 Apr 2022 20:59:05.244      9.1454546317    Earth           Penumbra    37            2092.1119864
29 Apr 2022 21:57:42.373    29 Apr 2022 21:57:51.614      9.2411337420    Earth           Penumbra    38            2093.3346063
29 Apr 2022 21:57:51.614    29 Apr 2022 22:32:26.582      2074.9673996    Earth           Umbra       38            2093.3346063
29 Apr 2022 22:32:26.582    29 Apr 2022 22:32:35.708      9.1260729474    Earth           Penumbra    38            2093.3346063
29 Apr 2022 23:31:11.629    29 Apr 2022 23:31:20.850      9.2214405653    Earth           Penumbra    39            2094.5371376
29 Apr 2022 23:31:20.850    30 Apr 2022 00:05:57.059      2076.2089467    Earth           Umbra       39            2094.5371376
30 Apr 2022 00:05:57.059    30 Apr 2022 00:06:06.166      9.1067503556    Earth           Penumbra    39            2094.5371376
30 Apr 2022 01:04:40.877    30 Apr 2022 01:04:50.079      9.2019887874    Earth           Penumbra    40            2095.7281044
30 Apr 2022 01:04:50.079    30 Apr 2022 01:39:27.517      2077.4385024    Earth           Umbra       40            2095.7281044
30 Apr 2022 01:39:27.517    30 Apr 2022 01:39:36.605      9.0876132133    Earth           Penumbra    40            2095.7281044
30 Apr 2022 02:38:10.051    30 Apr 2022 02:38:19.234      9.1828588746    Earth           Penumbra    41            2096.9197454
30 Apr 2022 02:38:19.234    30 Apr 2022 03:12:57.902      2078.6680861    Earth           Umbra       41            2096.9197454
30 Apr 2022 03:12:57.902    30 Apr 2022 03:13:06.971      9.0688004508    Earth           Penumbra    41            2096.9197454
30 Apr 2022 04:11:39.110    30 Apr 2022 04:11:48.274      9.1639203834    Earth           Penumbra    42            2089.0634629
30 Apr 2022 04:11:48.274    30 Apr 2022 04:46:28.174      2079.8995425    Earth           Umbra       42            2089.0634629
30 Apr 2022 05:45:17.236    30 Apr 2022 06:19:58.364      2081.1278991    Earth           Umbra       43            2081.1278991
30 Apr 2022 07:18:37.086    30 Apr 2022 07:18:46.213      9.1267622542    Earth           Penumbra    44            2091.4823070
30 Apr 2022 07:18:46.213    30 Apr 2022 07:53:28.568      2082.3555447    Earth           Umbra       44            2091.4823070
30 Apr 2022 08:52:06.147    30 Apr 2022 08:52:15.256      9.1088163899    Earth           Penumbra    45            2092.6959078
30 Apr 2022 08:52:15.256    30 Apr 2022 09:26:58.843      2083.5870914    Earth           Umbra       45            2092.6959078
30 Apr 2022 10:25:35.227    30 Apr 2022 10:25:44.318      9.0910635190    Earth           Penumbra    46            2102.8824840
30 Apr 2022 10:25:44.318    30 Apr 2022 11:00:29.130      2084.8119090    Earth           Umbra       46            2102.8824840
30 Apr 2022 11:00:29.130    30 Apr 2022 11:00:38.110      8.9795114938    Earth           Penumbra    46            2102.8824840
30 Apr 2022 11:59:04.242    30 Apr 2022 11:59:13.315      9.0731673175    Earth           Penumbra    47            2104.0453706
30 Apr 2022 11:59:13.315    30 Apr 2022 12:33:59.325      2086.0099886    Earth           Umbra       47            2104.0453706
30 Apr 2022 12:33:59.325    30 Apr 2022 12:34:08.288      8.9622147032    Earth           Penumbra    47            2104.0453706
30 Apr 2022 13:32:33.179    30 Apr 2022 13:32:42.234      9.0551240137    Earth           Penumbra    48            2105.1765887
30 Apr 2022 13:32:42.234    30 Apr 2022 14:07:29.411      2087.1766732    Earth           Umbra       48            2105.1765887
30 Apr 2022 14:07:29.411    30 Apr 2022 14:07:38.356      8.9447915554    Earth           Penumbra    48            2105.1765887
30 Apr 2022 15:06:02.098    30 Apr 2022 15:06:11.135      9.0372532723    Earth           Penumbra    49            2106.2915187
30 Apr 2022 15:06:11.135    30 Apr 2022 15:40:59.462      2088.3269127    Earth           Umbra       49            2106.2915187
30 Apr 2022 15:40:59.462    30 Apr 2022 15:41:08.390      8.9273526915    Earth           Penumbra    49            2106.2915187
30 Apr 2022 16:39:31.038    30 Apr 2022 16:39:40.058      9.0198040358    Earth           Penumbra    50            2107.4046095
30 Apr 2022 16:39:40.058    30 Apr 2022 17:14:29.533      2089.4747336    Earth           Umbra       50            2107.4046095
30 Apr 2022 17:14:29.533    30 Apr 2022 17:14:38.443      8.9100719313    Earth           Penumbra    50            2107.4046095
30 Apr 2022 18:12:59.973    30 Apr 2022 18:13:08.976      9.0026741498    Earth           Penumbra    51            2108.5161725
30 Apr 2022 18:13:08.976    30 Apr 2022 18:47:59.596      2090.6205396    Earth           Umbra       51            2108.5161725
30 Apr 2022 18:47:59.596    30 Apr 2022 18:48:08.489      8.8929587044    Earth           Penumbra    51            2108.5161725
30 Apr 2022 19:46:37.857    30 Apr 2022 20:21:29.614      2091.7566237    Earth           Umbra       52            2100.6325421
30 Apr 2022 20:21:29.614    30 Apr 2022 20:21:38.489      8.8759184000    Earth           Penumbra    52            2100.6325421
30 Apr 2022 21:19:57.751    30 Apr 2022 21:20:06.719      8.9681952959    Earth           Penumbra    53            2110.7016179
30 Apr 2022 21:20:06.719    30 Apr 2022 21:54:59.594      2092.8744913    Earth           Umbra       53            2110.7016179
30 Apr 2022 21:54:59.594    30 Apr 2022 21:55:08.453      8.8589312159    Earth           Penumbra    53            2110.7016179
30 Apr 2022 22:53:26.645    30 Apr 2022 22:53:35.596      8.9507774916    Earth           Penumbra    54            2111.7628869
30 Apr 2022 22:53:35.596    30 Apr 2022 23:28:29.566      2093.9700459    Earth           Umbra       54            2111.7628869
30 Apr 2022 23:28:29.566    30 Apr 2022 23:28:38.408      8.8420634740    Earth           Penumbra    54            2111.7628869
01 May 2022 00:26:55.542    01 May 2022 00:27:04.476      8.9335828554    Earth           Penumbra    55            2112.8086542
01 May 2022 00:27:04.476    01 May 2022 01:01:59.526      2095.0496628    Earth           Umbra       55            2112.8086542
01 May 2022 01:01:59.526    01 May 2022 01:02:08.351      8.8254085276    Earth           Penumbra    55            2112.8086542
01 May 2022 02:00:24.381    01 May 2022 02:00:33.298      8.9167478029    Earth           Penumbra    56            2113.8518654
01 May 2022 02:00:33.298    01 May 2022 02:35:29.424      2096.1260566    Earth           Umbra       56            2113.8518654
01 May 2022 02:35:29.424    01 May 2022 02:35:38.233      8.8090609876    Earth           Penumbra    56            2113.8518654
01 May 2022 03:33:53.112    01 May 2022 03:34:02.012      8.9001774089    Earth           Penumbra    57            2114.8968944
01 May 2022 03:34:02.012    01 May 2022 04:08:59.216      2097.2036333    Earth           Umbra       57            2114.8968944
01 May 2022 04:08:59.216    01 May 2022 04:09:08.009      8.7930837180    Earth           Penumbra    57            2114.8968944
01 May 2022 05:07:21.758    01 May 2022 05:07:30.642      8.8838226395    Earth           Penumbra    58            2107.1606770
01 May 2022 05:07:30.642    01 May 2022 05:42:28.919      2098.2768544    Earth           Umbra       58            2107.1606770
01 May 2022 06:40:50.410    01 May 2022 06:40:59.278      8.8678299682    Earth           Penumbra    59            2108.2128304
01 May 2022 06:40:59.278    01 May 2022 07:15:58.623      2099.3450004    Earth           Umbra       59            2108.2128304
01 May 2022 08:14:27.983    01 May 2022 08:49:28.397      2100.4136333    Earth           Umbra       60            2100.4136333
01 May 2022 09:47:47.887    01 May 2022 09:47:56.724      8.8370541343    Earth           Penumbra    61            2110.3141061
01 May 2022 09:47:56.724    01 May 2022 10:22:58.201      2101.4770520    Earth           Umbra       61            2110.3141061
01 May 2022 11:21:16.589    01 May 2022 11:21:25.411      8.8217319106    Earth           Penumbra    62            2120.0555169
01 May 2022 11:21:25.411    01 May 2022 11:56:27.927      2102.5160010    Earth           Umbra       62            2120.0555169
01 May 2022 11:56:27.927    01 May 2022 11:56:36.645      8.7177839479    Earth           Penumbra    62            2120.0555169
01 May 2022 12:54:45.211    01 May 2022 12:54:54.017      8.8062672992    Earth           Penumbra    63            2121.0297887
01 May 2022 12:54:54.017    01 May 2022 13:29:57.538      2103.5204612    Earth           Umbra       63            2121.0297887
01 May 2022 13:29:57.538    01 May 2022 13:30:06.241      8.7030601921    Earth           Penumbra    63            2121.0297887
01 May 2022 14:28:13.809    01 May 2022 14:28:22.599      8.7909268448    Earth           Penumbra    64            2121.9807428
01 May 2022 14:28:22.599    01 May 2022 15:03:27.101      2104.5014968    Earth           Umbra       64            2121.9807428
01 May 2022 15:03:27.101    01 May 2022 15:03:35.789      8.6883191485    Earth           Penumbra    64            2121.9807428
01 May 2022 16:01:42.430    01 May 2022 16:01:51.206      8.7759836926    Earth           Penumbra    65            2122.9244924
01 May 2022 16:01:51.206    01 May 2022 16:36:56.681      2105.4747851    Earth           Umbra       65            2122.9244924
01 May 2022 16:36:56.681    01 May 2022 16:37:05.355      8.6737236357    Earth           Penumbra    65            2122.9244924
01 May 2022 17:35:11.058    01 May 2022 17:35:19.819      8.7614148972    Earth           Penumbra    66            2123.8644397
01 May 2022 17:35:19.819    01 May 2022 18:10:26.263      2106.4437159    Earth           Umbra       66            2123.8644397
01 May 2022 18:10:26.263    01 May 2022 18:10:34.922      8.6593088578    Earth           Penumbra    66            2123.8644397
01 May 2022 19:08:39.655    01 May 2022 19:08:48.402      8.7469429127    Earth           Penumbra    67            2124.7936811
01 May 2022 19:08:48.402    01 May 2022 19:43:55.803      2107.4017360    Earth           Umbra       67            2124.7936811
01 May 2022 19:43:55.803    01 May 2022 19:44:04.448      8.6450022063    Earth           Penumbra    67            2124.7936811
01 May 2022 20:42:16.962    01 May 2022 21:17:25.302      2108.3408538    Earth           Umbra       68            2116.9716361
01 May 2022 21:17:25.302    01 May 2022 21:17:33.933      8.6307823076    Earth           Penumbra    68            2116.9716361
01 May 2022 22:15:36.817    01 May 2022 22:15:45.534      8.7176516186    Earth           Penumbra    69            2126.5910892
01 May 2022 22:15:45.534    01 May 2022 22:50:54.791      2109.2567136    Earth           Umbra       69            2126.5910892
01 May 2022 22:50:54.791    01 May 2022 22:51:03.408      8.6167239700    Earth           Penumbra    69            2126.5910892
01 May 2022 23:49:05.416    01 May 2022 23:49:14.119      8.7031538598    Earth           Penumbra    70            2127.4600630
01 May 2022 23:49:14.119    02 May 2022 00:24:24.273      2110.1540056    Earth           Umbra       70            2127.4600630
02 May 2022 00:24:24.273    02 May 2022 00:24:32.876      8.6029035738    Earth           Penumbra    70            2127.4600630
02 May 2022 01:22:33.972    02 May 2022 01:22:42.661      8.6890251143    Earth           Penumbra    71            2128.3235400
02 May 2022 01:22:42.661    02 May 2022 01:57:53.706      2111.0451343    Earth           Umbra       71            2128.3235400
02 May 2022 01:57:53.706    02 May 2022 01:58:02.295      8.5893805255    Earth           Penumbra    71            2128.3235400
02 May 2022 02:56:02.428    02 May 2022 02:56:11.103      8.6752166622    Earth           Penumbra    72            2129.1882752
02 May 2022 02:56:11.103    02 May 2022 03:31:23.040      2111.9368458    Earth           Umbra       72            2129.1882752
02 May 2022 03:31:23.040    02 May 2022 03:31:31.617      8.5762126604    Earth           Penumbra    72            2129.1882752
02 May 2022 04:29:30.796    02 May 2022 04:29:39.458      8.6616562097    Earth           Penumbra    73            2130.0492624
02 May 2022 04:29:39.458    02 May 2022 05:04:52.282      2112.8241911    Earth           Umbra       73            2130.0492624
02 May 2022 05:04:52.282    02 May 2022 05:05:00.845      8.5634150659    Earth           Penumbra    73            2130.0492624
02 May 2022 06:03:07.808    02 May 2022 06:38:21.511      2113.7034894    Earth           Umbra       74            2122.2544533
02 May 2022 06:38:21.511    02 May 2022 06:38:30.062      8.5509638535    Earth           Penumbra    74            2122.2544533
02 May 2022 07:36:27.593    02 May 2022 07:36:36.229      8.6357209249    Earth           Penumbra    75            2131.7542037
02 May 2022 07:36:36.229    02 May 2022 08:11:50.809      2114.5796442    Earth           Umbra       75            2131.7542037
02 May 2022 08:11:50.809    02 May 2022 08:11:59.347      8.5388385924    Earth           Penumbra    75            2131.7542037
02 May 2022 09:09:56.076    02 May 2022 09:10:04.700      8.6233174894    Earth           Penumbra    76            2132.6016883
02 May 2022 09:10:04.700    02 May 2022 09:45:20.151      2115.4513796    Earth           Umbra       76            2132.6016883
02 May 2022 09:45:20.151    02 May 2022 09:45:28.678      8.5269911913    Earth           Penumbra    76            2132.6016883
02 May 2022 10:43:24.520    02 May 2022 10:43:33.131      8.6109105963    Earth           Penumbra    77            2124.9129790
02 May 2022 10:43:33.131    02 May 2022 11:18:49.433      2116.3020684    Earth           Umbra       77            2124.9129790
02 May 2022 12:16:52.882    02 May 2022 12:17:01.480      8.5983716883    Earth           Penumbra    78            2125.7160528
02 May 2022 12:17:01.480    02 May 2022 12:52:18.598      2117.1176811    Earth           Umbra       78            2125.7160528
02 May 2022 13:50:21.211    02 May 2022 13:50:29.797      8.5859060171    Earth           Penumbra    79            2134.9820296
02 May 2022 13:50:29.797    02 May 2022 14:25:47.702      2117.9043684    Earth           Umbra       79            2134.9820296
02 May 2022 14:25:47.702    02 May 2022 14:25:56.193      8.4917551372    Earth           Penumbra    79            2134.9820296
02 May 2022 15:23:49.567    02 May 2022 15:23:58.140      8.5737958434    Earth           Penumbra    80            2135.7319724
02 May 2022 15:23:58.140    02 May 2022 15:59:16.819      2118.6780689    Earth           Umbra       80            2135.7319724
02 May 2022 15:59:16.819    02 May 2022 15:59:25.299      8.4801076446    Earth           Penumbra    80            2135.7319724
02 May 2022 16:57:17.939    02 May 2022 16:57:26.501      8.5620880011    Earth           Penumbra    81            2136.4758315
02 May 2022 16:57:26.501    02 May 2022 17:32:45.946      2119.4450925    Earth           Umbra       81            2136.4758315
02 May 2022 17:32:45.946    02 May 2022 17:32:54.414      8.4686509450    Earth           Penumbra    81            2136.4758315
02 May 2022 18:30:46.287    02 May 2022 18:30:54.837      8.5505634081    Earth           Penumbra    82            2137.2082000
02 May 2022 18:30:54.837    02 May 2022 19:06:15.038      2120.2003053    Earth           Umbra       82            2137.2082000
02 May 2022 19:06:15.038    02 May 2022 19:06:23.495      8.4573312895    Earth           Penumbra    82            2137.2082000
02 May 2022 20:04:14.611    02 May 2022 20:04:23.150      8.5389781510    Earth           Penumbra    83            2137.9213009
02 May 2022 20:04:23.150    02 May 2022 20:39:44.086      2120.9362014    Earth           Umbra       83            2137.9213009
02 May 2022 20:39:44.086    02 May 2022 20:39:52.532      8.4461213322    Earth           Penumbra    83            2137.9213009
02 May 2022 21:37:42.945    02 May 2022 21:37:51.472      8.5273152567    Earth           Penumbra    84            2138.6110099
02 May 2022 21:37:51.472    02 May 2022 22:13:13.121      2121.6486038    Earth           Umbra       84            2138.6110099
02 May 2022 22:13:13.121    02 May 2022 22:13:21.556      8.4350908524    Earth           Penumbra    84            2138.6110099
02 May 2022 23:11:11.297    02 May 2022 23:11:19.813      8.5157991503    Earth           Penumbra    85            2139.2810146
02 May 2022 23:11:19.813    02 May 2022 23:46:42.154      2122.3408970    Earth           Umbra       85            2139.2810146
02 May 2022 23:46:42.154    02 May 2022 23:46:50.578      8.4243184305    Earth           Penumbra    85            2139.2810146
03 May 2022 00:44:39.620    03 May 2022 00:44:48.124      8.5046410561    Earth           Penumbra    86            2139.9429587
03 May 2022 00:44:48.124    03 May 2022 01:20:11.149      2123.0244699    Earth           Umbra       86            2139.9429587
03 May 2022 01:20:11.149    03 May 2022 01:20:19.563      8.4138477570    Earth           Penumbra    86            2139.9429587
03 May 2022 02:18:07.854    03 May 2022 02:18:16.348      8.4938412881    Earth           Penumbra    87            2140.6053605
03 May 2022 02:18:16.348    03 May 2022 02:53:40.055      2123.7078067    Earth           Umbra       87            2140.6053605
03 May 2022 02:53:40.055    03 May 2022 02:53:48.459      8.4037124645    Earth           Penumbra    87            2140.6053605
03 May 2022 03:51:35.996    03 May 2022 03:51:44.480      8.4833240951    Earth           Penumbra    88            2132.8706971
03 May 2022 03:51:44.480    03 May 2022 04:27:08.867      2124.3873730    Earth           Umbra       88            2132.8706971
03 May 2022 05:25:04.125    03 May 2022 05:25:12.598      8.4731535986    Earth           Penumbra    89            2141.9148353
03 May 2022 05:25:12.598    03 May 2022 06:00:37.655      2125.0571368    Earth           Umbra       89            2141.9148353
03 May 2022 06:00:37.655    03 May 2022 06:00:46.039      8.3845448331    Earth           Penumbra    89            2141.9148353
03 May 2022 06:58:32.322    03 May 2022 06:58:40.785      8.4634533268    Earth           Penumbra    90            2142.5590432
03 May 2022 06:58:40.785    03 May 2022 07:34:06.505      2125.7201031    Earth           Umbra       90            2142.5590432
03 May 2022 07:34:06.505    03 May 2022 07:34:14.881      8.3754867199    Earth           Penumbra    90            2142.5590432
03 May 2022 08:32:00.582    03 May 2022 08:32:09.036      8.4541255259    Earth           Penumbra    91            2143.1992313
03 May 2022 08:32:09.036    03 May 2022 09:07:35.414      2126.3783851    Earth           Umbra       91            2143.1992313
03 May 2022 09:07:35.414    03 May 2022 09:07:43.781      8.3667206112    Earth           Penumbra    91            2143.1992313
03 May 2022 10:05:37.262    03 May 2022 10:41:04.281      2127.0193282    Earth           Umbra       92            2135.3774468
03 May 2022 10:41:04.281    03 May 2022 10:41:12.639      8.3581185783    Earth           Penumbra    92            2135.3774468
03 May 2022 11:38:56.971    03 May 2022 11:39:05.407      8.4354683524    Earth           Penumbra    93            2144.4116339
03 May 2022 11:39:05.407    03 May 2022 12:14:33.033      2127.6266414    Earth           Umbra       93            2144.4116339
03 May 2022 12:14:33.033    03 May 2022 12:14:41.383      8.3495240891    Earth           Penumbra    93            2144.4116339
03 May 2022 13:12:25.085    03 May 2022 13:12:33.511      8.4261072334    Earth           Penumbra    94            2144.9681244
03 May 2022 13:12:33.511    03 May 2022 13:48:01.712      2128.2011096    Earth           Umbra       94            2144.9681244
03 May 2022 13:48:01.712    03 May 2022 13:48:10.053      8.3409075974    Earth           Penumbra    94            2144.9681244
03 May 2022 14:45:53.223    03 May 2022 14:46:01.641      8.4170516348    Earth           Penumbra    95            2145.5069118
03 May 2022 14:46:01.641    03 May 2022 15:21:30.398      2128.7574716    Earth           Umbra       95            2145.5069118
03 May 2022 15:21:30.398    03 May 2022 15:21:38.730      8.3323885454    Earth           Penumbra    95            2145.5069118
03 May 2022 16:19:21.388    03 May 2022 16:19:29.797      8.4084043396    Earth           Penumbra    96            2137.7130428
03 May 2022 16:19:29.797    03 May 2022 16:54:59.101      2129.3046385    Earth           Umbra       96            2137.7130428
03 May 2022 17:52:57.938    03 May 2022 18:28:27.778      2129.8391960    Earth           Umbra       97            2138.1550925
03 May 2022 18:28:27.778    03 May 2022 18:28:36.093      8.3158964175    Earth           Penumbra    97            2138.1550925
03 May 2022 19:26:17.663    03 May 2022 19:26:26.055      8.3916271222    Earth           Penumbra    98            2147.0535068
03 May 2022 19:26:26.055    03 May 2022 20:01:56.409      2130.3540186    Earth           Umbra       98            2147.0535068
03 May 2022 20:01:56.409    03 May 2022 20:02:04.717      8.3078611060    Earth           Penumbra    98            2147.0535068
03 May 2022 20:59:45.795    03 May 2022 20:59:54.178      8.3831835072    Earth           Penumbra    99            2147.5284948
03 May 2022 20:59:54.178    03 May 2022 21:35:25.023      2130.8452998    Earth           Umbra       99            2147.5284948
03 May 2022 21:35:25.023    03 May 2022 21:35:33.323      8.3000115585    Earth           Penumbra    99            2147.5284948
03 May 2022 22:33:13.949    03 May 2022 22:33:22.324      8.3748464473    Earth           Penumbra    100           2147.9829624
03 May 2022 22:33:22.324    03 May 2022 23:08:53.639      2131.3156786    Earth           Umbra       100           2147.9829624
03 May 2022 23:08:53.639    03 May 2022 23:09:01.932      8.2924373564    Earth           Penumbra    100           2147.9829624
04 May 2022 00:06:42.087    04 May 2022 00:06:50.453      8.3668419393    Earth           Penumbra    101           2148.4272292
04 May 2022 00:06:50.453    04 May 2022 00:42:22.229      2131.7752142    Earth           Umbra       101           2148.4272292
04 May 2022 00:42:22.229    04 May 2022 00:42:30.514      8.2851730753    Earth           Penumbra    101           2148.4272292
04 May 2022 01:40:10.146    04 May 2022 01:40:18.506      8.3592215320    Earth           Penumbra    102           2148.8708058
04 May 2022 01:40:18.506    04 May 2022 02:15:50.739      2132.2333492    Earth           Umbra       102           2148.8708058
04 May 2022 02:15:50.739    04 May 2022 02:15:59.017      8.2782350597    Earth           Penumbra    102           2148.8708058
04 May 2022 03:13:46.466    04 May 2022 03:49:19.155      2132.6883835    Earth           Umbra       103           2132.6883835
04 May 2022 04:47:06.058    04 May 2022 04:47:14.403      8.3449573140    Earth           Penumbra    104           2149.7431931
04 May 2022 04:47:14.403    04 May 2022 05:22:47.536      2133.1327858    Earth           Umbra       104           2149.7431931
04 May 2022 05:22:47.536    04 May 2022 05:22:55.801      8.2654500380    Earth           Penumbra    104           2149.7431931
04 May 2022 06:20:34.067    04 May 2022 06:20:42.406      8.3384596626    Earth           Penumbra    105           2150.1649426
04 May 2022 06:20:42.406    04 May 2022 06:56:15.973      2133.5668781    Earth           Umbra       105           2150.1649426
04 May 2022 06:56:15.973    04 May 2022 06:56:24.232      8.2596049178    Earth           Penumbra    105           2150.1649426
04 May 2022 07:54:02.151    04 May 2022 07:54:10.484      8.3323696861    Earth           Penumbra    106           2150.5812732
04 May 2022 07:54:10.484    04 May 2022 08:29:44.478      2133.9948354    Earth           Umbra       106           2150.5812732
04 May 2022 08:29:44.478    04 May 2022 08:29:52.733      8.2540681469    Earth           Penumbra    106           2150.5812732
04 May 2022 09:27:30.226    04 May 2022 09:27:38.553      8.3264013520    Earth           Penumbra    107           2150.9838322
04 May 2022 09:27:38.553    04 May 2022 10:03:12.961      2134.4087036    Earth           Umbra       107           2150.9838322
04 May 2022 10:03:12.961    04 May 2022 10:03:21.210      8.2487271982    Earth           Penumbra    107           2150.9838322
04 May 2022 11:01:06.544    04 May 2022 11:36:41.336      2134.7918475    Earth           Umbra       108           2143.0352768
04 May 2022 11:36:41.336    04 May 2022 11:36:49.579      8.2434293116    Earth           Penumbra    108           2143.0352768
04 May 2022 12:34:26.171    04 May 2022 12:34:34.486      8.3142496878    Earth           Penumbra    109           2143.4541013
04 May 2022 12:34:34.486    04 May 2022 13:10:09.626      2135.1398516    Earth           Umbra       109           2143.4541013
04 May 2022 14:07:54.141    04 May 2022 14:08:02.449      8.3084218553    Earth           Penumbra    110           2152.0061502
04 May 2022 14:08:02.449    04 May 2022 14:43:37.914      2135.4648592    Earth           Umbra       110           2152.0061502
04 May 2022 14:43:37.914    04 May 2022 14:43:46.147      8.2328690565    Earth           Penumbra    110           2152.0061502
04 May 2022 15:41:22.145    04 May 2022 15:41:30.448      8.3029925823    Earth           Penumbra    111           2152.3085814
04 May 2022 15:41:30.448    04 May 2022 16:17:06.226      2135.7777797    Earth           Umbra       111           2152.3085814
04 May 2022 16:17:06.226    04 May 2022 16:17:14.454      8.2278091111    Earth           Penumbra    111           2152.3085814
04 May 2022 17:14:50.144    04 May 2022 17:14:58.442      8.2978685154    Earth           Penumbra    112           2152.5980072
04 May 2022 17:14:58.442    04 May 2022 17:50:34.520      2136.0772003    Earth           Umbra       112           2152.5980072
04 May 2022 17:50:34.520    04 May 2022 17:50:42.742      8.2229383872    Earth           Penumbra    112           2152.5980072
04 May 2022 18:48:26.413    04 May 2022 19:24:02.769      2136.3563111    Earth           Umbra       113           2144.5745300
04 May 2022 19:24:02.769    04 May 2022 19:24:10.987      8.2182188518    Earth           Penumbra    113           2144.5745300
04 May 2022 20:21:46.098    04 May 2022 20:21:54.386      8.2877624547    Earth           Penumbra    114           2153.1130791
04 May 2022 20:21:54.386    04 May 2022 20:57:30.997      2136.6116274    Earth           Umbra       114           2153.1130791
04 May 2022 20:57:30.997    04 May 2022 20:57:39.211      8.2136891666    Earth           Penumbra    114           2153.1130791
04 May 2022 21:55:14.101    04 May 2022 21:55:22.384      8.2827691454    Earth           Penumbra    115           2145.1283777
04 May 2022 21:55:22.384    04 May 2022 22:30:59.229      2136.8456086    Earth           Umbra       115           2145.1283777
04 May 2022 23:28:42.099    04 May 2022 23:28:50.377      8.2780741272    Earth           Penumbra    116           2153.5506345
04 May 2022 23:28:50.377    05 May 2022 00:04:27.444      2137.0670386    Earth           Umbra       116           2153.5506345
05 May 2022 00:04:27.444    05 May 2022 00:04:35.650      8.2055218401    Earth           Penumbra    116           2153.5506345
05 May 2022 01:02:10.032    05 May 2022 01:02:18.305      8.2737792400    Earth           Penumbra    117           2153.7612628
05 May 2022 01:02:18.305    05 May 2022 01:37:55.591      2137.2855541    Earth           Umbra       117           2153.7612628
05 May 2022 01:37:55.591    05 May 2022 01:38:03.793      8.2019294612    Earth           Penumbra    117           2153.7612628
05 May 2022 02:35:37.874    05 May 2022 02:35:46.143      8.2698351354    Earth           Penumbra    118           2153.9698462
05 May 2022 02:35:46.143    05 May 2022 03:11:23.645      2137.5013254    Earth           Umbra       118           2153.9698462
05 May 2022 03:11:23.645    05 May 2022 03:11:31.843      8.1986856647    Earth           Penumbra    118           2153.9698462
05 May 2022 04:09:05.682    05 May 2022 04:09:13.948      8.2662414992    Earth           Penumbra    119           2154.1682691
05 May 2022 04:09:13.948    05 May 2022 04:44:51.654      2137.7062079    Earth           Umbra       119           2154.1682691
05 May 2022 04:44:51.654    05 May 2022 04:44:59.850      8.1958196824    Earth           Penumbra    119           2154.1682691
05 May 2022 05:42:33.550    05 May 2022 05:42:41.813      8.2631026860    Earth           Penumbra    120           2146.1606346
05 May 2022 05:42:41.813    05 May 2022 06:18:19.711      2137.8975319    Earth           Umbra       120           2146.1606346
05 May 2022 07:16:01.503    05 May 2022 07:16:09.764      8.2604026655    Earth           Penumbra    121           2154.5316743
05 May 2022 07:16:09.764    05 May 2022 07:51:47.844      2138.0801004    Earth           Umbra       121           2154.5316743
05 May 2022 07:51:47.844    05 May 2022 07:51:56.035      8.1911711837    Earth           Penumbra    121           2154.5316743
05 May 2022 08:49:37.723    05 May 2022 09:25:15.973      2138.2507885    Earth           Umbra       122           2146.4400270
05 May 2022 09:25:15.973    05 May 2022 09:25:24.163      8.1892384216    Earth           Penumbra    122           2146.4400270
05 May 2022 10:22:57.353    05 May 2022 10:23:05.609      8.2552952575    Earth           Penumbra    123           2154.8371736
05 May 2022 10:23:05.609    05 May 2022 10:58:44.003      2138.3944912    Earth           Umbra       123           2154.8371736
05 May 2022 10:58:44.003    05 May 2022 10:58:52.190      8.1873870688    Earth           Penumbra    123           2154.8371736
05 May 2022 11:56:25.184    05 May 2022 11:56:33.437      8.2526631304    Earth           Penumbra    124           2154.9405312
05 May 2022 11:56:33.437    05 May 2022 12:32:11.939      2138.5023412    Earth           Umbra       124           2154.9405312
05 May 2022 12:32:11.939    05 May 2022 12:32:20.124      8.1855269149    Earth           Penumbra    124           2154.9405312
05 May 2022 13:29:53.030    05 May 2022 13:30:01.281      8.2502309117    Earth           Penumbra    125           2155.0166561
05 May 2022 13:30:01.281    05 May 2022 14:05:39.863      2138.5827122    Earth           Umbra       125           2155.0166561
05 May 2022 14:05:39.863    05 May 2022 14:05:48.047      8.1837129663    Earth           Penumbra    125           2155.0166561
05 May 2022 15:03:20.919    05 May 2022 15:03:29.168      8.2481812220    Earth           Penumbra    126           2155.0778686
05 May 2022 15:03:29.168    05 May 2022 15:39:07.815      2138.6476139    Earth           Umbra       126           2155.0778686
05 May 2022 15:39:07.815    05 May 2022 15:39:15.997      8.1820734660    Earth           Penumbra    126           2155.0778686
05 May 2022 16:36:57.061    05 May 2022 17:12:35.759      2138.6978569    Earth           Umbra       127           2146.8785040
05 May 2022 17:12:35.759    05 May 2022 17:12:43.939      8.1806470756    Earth           Penumbra    127           2146.8785040
05 May 2022 18:10:16.688    05 May 2022 18:10:24.933      8.2449292531    Earth           Penumbra    128           2155.1512853
05 May 2022 18:10:24.933    05 May 2022 18:46:03.660      2138.7269565    Earth           Umbra       128           2155.1512853
05 May 2022 18:46:03.660    05 May 2022 18:46:11.839      8.1793995341    Earth           Penumbra    128           2155.1512853
05 May 2022 19:43:44.561    05 May 2022 19:43:52.804      8.2433947362    Earth           Penumbra    129           2155.1532781
05 May 2022 19:43:52.804    05 May 2022 20:19:31.536      2138.7315333    Earth           Umbra       129           2155.1532781
05 May 2022 20:19:31.536    05 May 2022 20:19:39.714      8.1783500151    Earth           Penumbra    129           2155.1532781
05 May 2022 21:17:12.459    05 May 2022 21:17:20.701      8.2419196260    Earth           Penumbra    130           2146.9562234
05 May 2022 21:17:20.701    05 May 2022 21:52:59.416      2138.7143038    Earth           Umbra       130           2146.9562234
05 May 2022 22:50:40.363    05 May 2022 22:50:48.604      8.2407076028    Earth           Penumbra    131           2155.1010171
05 May 2022 22:50:48.604    05 May 2022 23:26:27.287      2138.6831404    Earth           Umbra       131           2155.1010171
05 May 2022 23:26:27.287    05 May 2022 23:26:35.464      8.1771691097    Earth           Penumbra    131           2155.1010171
06 May 2022 00:24:16.454    06 May 2022 00:59:55.101      2138.6472682    Earth           Umbra       132           2146.8243625
06 May 2022 00:59:55.101    06 May 2022 01:00:03.278      8.1770943012    Earth           Penumbra    132           2146.8243625
06 May 2022 01:57:35.977    06 May 2022 01:57:44.216      8.2394845784    Earth           Penumbra    133           2155.0252732
06 May 2022 01:57:44.216    06 May 2022 02:33:22.825      2138.6084215    Earth           Umbra       133           2155.0252732
06 May 2022 02:33:22.825    06 May 2022 02:33:31.002      8.1773671322    Earth           Penumbra    133           2155.0252732
06 May 2022 03:31:03.698    06 May 2022 03:31:11.937      8.2394352299    Earth           Penumbra    134           2154.9760929
06 May 2022 03:31:11.937    06 May 2022 04:06:50.496      2138.5586393    Earth           Umbra       134           2154.9760929
06 May 2022 04:06:50.496    06 May 2022 04:06:58.674      8.1780184060    Earth           Penumbra    134           2154.9760929
06 May 2022 05:04:31.472    06 May 2022 05:04:39.712      8.2398372469    Earth           Penumbra    135           2146.7321921
06 May 2022 05:04:39.712    06 May 2022 05:40:18.205      2138.4923549    Earth           Umbra       135           2146.7321921
06 May 2022 06:38:07.581    06 May 2022 07:13:45.995      2138.4136504    Earth           Umbra       136           2146.5941136
06 May 2022 07:13:45.995    06 May 2022 07:13:54.175      8.1804631976    Earth           Penumbra    136           2146.5941136
06 May 2022 08:11:27.234    06 May 2022 08:11:35.475      8.2418181002    Earth           Penumbra    137           2154.7477416
06 May 2022 08:11:35.475    06 May 2022 08:47:13.799      2138.3237953    Earth           Umbra       137           2154.7477416
06 May 2022 08:47:13.799    06 May 2022 08:47:21.981      8.1821281579    Earth           Penumbra    137           2154.7477416
06 May 2022 09:44:55.061    06 May 2022 09:45:03.304      8.2429021946    Earth           Penumbra    138           2154.6376905
06 May 2022 09:45:03.304    06 May 2022 10:20:41.515      2138.2108757    Earth           Umbra       138           2154.6376905
06 May 2022 10:20:41.515    06 May 2022 10:20:49.699      8.1839125603    Earth           Penumbra    138           2154.6376905
06 May 2022 11:18:22.823    06 May 2022 11:18:31.067      8.2439221675    Earth           Penumbra    139           2146.3067497
06 May 2022 11:18:31.067    06 May 2022 11:54:09.130      2138.0628275    Earth           Umbra       139           2146.3067497
06 May 2022 12:51:50.594    06 May 2022 12:51:58.839      8.2450949005    Earth           Penumbra    140           2154.3160479
06 May 2022 12:51:58.839    06 May 2022 13:27:36.722      2137.8834239    Earth           Umbra       140           2154.3160479
06 May 2022 13:27:36.722    06 May 2022 13:27:44.910      8.1875291420    Earth           Penumbra    140           2154.3160479
06 May 2022 14:25:26.660    06 May 2022 15:01:04.344      2137.6846656    Earth           Umbra       141           2145.8741765
06 May 2022 15:01:04.344    06 May 2022 15:01:12.534      8.1895109382    Earth           Penumbra    141           2145.8741765
06 May 2022 15:58:46.249    06 May 2022 15:58:54.498      8.2485288614    Earth           Penumbra    142           2153.9098850
06 May 2022 15:58:54.498    06 May 2022 16:34:31.967      2137.4696292    Earth           Umbra       142           2153.9098850
06 May 2022 16:34:31.967    06 May 2022 16:34:40.159      8.1917269039    Earth           Penumbra    142           2153.9098850
06 May 2022 17:32:14.069    06 May 2022 17:32:22.319      8.2506621606    Earth           Penumbra    143           2145.4829470
06 May 2022 17:32:22.319    06 May 2022 18:07:59.552      2137.2322848    Earth           Umbra       143           2145.4829470
06 May 2022 19:05:41.884    06 May 2022 19:05:50.137      8.2528652390    Earth           Penumbra    144           2153.4186994
06 May 2022 19:05:50.137    06 May 2022 19:41:27.106      2136.9690284    Earth           Umbra       144           2153.4186994
06 May 2022 19:41:27.106    06 May 2022 19:41:35.303      8.1968057086    Earth           Penumbra    144           2153.4186994
06 May 2022 20:39:17.981    06 May 2022 21:14:54.664      2136.6830831    Earth           Umbra       145           2144.8828248
06 May 2022 21:14:54.664    06 May 2022 21:15:02.864      8.1997417845    Earth           Penumbra    145           2144.8828248
06 May 2022 22:12:37.581    06 May 2022 22:12:45.838      8.2576259505    Earth           Penumbra    146           2152.8426370
06 May 2022 22:12:45.838    06 May 2022 22:48:22.220      2136.3819682    Earth           Umbra       146           2152.8426370
06 May 2022 22:48:22.220    06 May 2022 22:48:30.423      8.2030427875    Earth           Penumbra    146           2152.8426370
06 May 2022 23:46:05.395    06 May 2022 23:46:13.656      8.2605274511    Earth           Penumbra    147           2144.3346745
06 May 2022 23:46:13.656    07 May 2022 00:21:49.730      2136.0741470    Earth           Umbra       147           2144.3346745
07 May 2022 01:19:33.127    07 May 2022 01:19:41.391      8.2638589432    Earth           Penumbra    148           2152.2369934
07 May 2022 01:19:41.391    07 May 2022 01:55:17.153      2135.7623852    Earth           Umbra       148           2152.2369934
07 May 2022 01:55:17.153    07 May 2022 01:55:25.364      8.2107493188    Earth           Penumbra    148           2152.2369934
07 May 2022 02:53:00.810    07 May 2022 02:53:09.078      8.2675886806    Earth           Penumbra    149           2151.9222254
07 May 2022 02:53:09.078    07 May 2022 03:28:44.517      2135.4394712    Earth           Umbra       149           2151.9222254
07 May 2022 03:28:44.517    07 May 2022 03:28:52.732      8.2151655341    Earth           Penumbra    149           2151.9222254
07 May 2022 04:26:36.810    07 May 2022 05:02:11.908      2135.0973745    Earth           Umbra       150           2143.3173658
07 May 2022 05:02:11.908    07 May 2022 05:02:20.128      8.2199913100    Earth           Penumbra    150           2143.3173658
07 May 2022 05:59:56.367    07 May 2022 06:00:04.644      8.2764522289    Earth           Penumbra    151           2143.0147667
07 May 2022 06:00:04.644    07 May 2022 06:35:39.382      2134.7383145    Earth           Umbra       151           2143.0147667
07 May 2022 07:33:24.239    07 May 2022 07:33:32.521      8.2814449095    Earth           Penumbra    152           2150.8792386
07 May 2022 07:33:32.521    07 May 2022 08:09:06.888      2134.3670683    Earth           Umbra       152           2150.8792386
07 May 2022 08:09:06.888    07 May 2022 08:09:15.119      8.2307253848    Earth           Penumbra    152           2150.8792386
07 May 2022 09:06:52.056    07 May 2022 09:07:00.342      8.2864611642    Earth           Penumbra    153           2150.4990697
07 May 2022 09:07:00.342    07 May 2022 09:42:34.318      2133.9761955    Earth           Umbra       153           2150.4990697
07 May 2022 09:42:34.318    07 May 2022 09:42:42.555      8.2364130300    Earth           Penumbra    153           2150.4990697
07 May 2022 10:40:19.799    07 May 2022 10:40:28.091      8.2914079539    Earth           Penumbra    154           2150.0856328
07 May 2022 10:40:28.091    07 May 2022 11:16:01.643      2133.5520870    Earth           Umbra       154           2150.0856328
07 May 2022 11:16:01.643    07 May 2022 11:16:09.885      8.2421377650    Earth           Penumbra    154           2150.0856328
07 May 2022 12:13:47.543    07 May 2022 12:13:55.839      8.2964650705    Earth           Penumbra    155           2141.3900107
07 May 2022 12:13:55.839    07 May 2022 12:49:28.933      2133.0935456    Earth           Umbra       155           2141.3900107
07 May 2022 13:47:15.338    07 May 2022 13:47:23.640      8.3018528530    Earth           Penumbra    156           2149.1669421
07 May 2022 13:47:23.640    07 May 2022 14:22:56.251      2132.6113182    Earth           Umbra       156           2149.1669421
07 May 2022 14:22:56.251    07 May 2022 14:23:04.505      8.2537711132    Earth           Penumbra    156           2149.1669421
07 May 2022 15:20:43.163    07 May 2022 15:20:51.471      8.3076369949    Earth           Penumbra    157           2148.6781117
07 May 2022 15:20:51.471    07 May 2022 15:56:23.581      2132.1105637    Earth           Umbra       157           2148.6781117
07 May 2022 15:56:23.581    07 May 2022 15:56:31.841      8.2599110669    Earth           Penumbra    157           2148.6781117
07 May 2022 16:54:10.977    07 May 2022 16:54:19.291      8.3137172274    Earth           Penumbra    158           2148.1659408
07 May 2022 16:54:19.291    07 May 2022 17:29:50.877      2131.5859088    Earth           Umbra       158           2148.1659408
07 May 2022 17:29:50.877    07 May 2022 17:29:59.143      8.2663147361    Earth           Penumbra    158           2148.1659408
07 May 2022 18:27:47.106    07 May 2022 19:03:18.140      2131.0331715    Earth           Umbra       159           2131.0331715
07 May 2022 20:01:06.620    07 May 2022 20:01:14.946      8.3262448199    Earth           Penumbra    160           2147.0622418
07 May 2022 20:01:14.946    07 May 2022 20:36:45.402      2130.4560926    Earth           Umbra       160           2147.0622418
07 May 2022 20:36:45.402    07 May 2022 20:36:53.682      8.2799044205    Earth           Penumbra    160           2147.0622418
07 May 2022 21:34:34.474    07 May 2022 21:34:42.807      8.3327625878    Earth           Penumbra    161           2146.4824965
07 May 2022 21:34:42.807    07 May 2022 22:10:12.669      2129.8624979    Earth           Umbra       161           2146.4824965
07 May 2022 22:10:12.669    07 May 2022 22:10:20.956      8.2872359664    Earth           Penumbra    161           2146.4824965
07 May 2022 23:08:02.300    07 May 2022 23:08:10.640      8.3396833157    Earth           Penumbra    162           2145.8947045
07 May 2022 23:08:10.640    07 May 2022 23:43:39.900      2129.2600416    Earth           Umbra       162           2145.8947045
07 May 2022 23:43:39.900    07 May 2022 23:43:48.195      8.2949795877    Earth           Penumbra    162           2145.8947045
08 May 2022 00:41:30.051    08 May 2022 00:41:38.398      8.3470761543    Earth           Penumbra    163           2145.3020554
08 May 2022 00:41:38.398    08 May 2022 01:17:07.050      2128.6518644    Earth           Umbra       163           2145.3020554
08 May 2022 01:17:07.050    08 May 2022 01:17:15.353      8.3031148533    Earth           Penumbra    163           2145.3020554
08 May 2022 02:14:57.748    08 May 2022 02:15:06.103      8.3549131290    Earth           Penumbra    164           2144.6983481
08 May 2022 02:15:06.103    08 May 2022 02:50:34.134      2128.0317894    Earth           Umbra       164           2144.6983481
08 May 2022 02:50:34.134    08 May 2022 02:50:42.446      8.3116455353    Earth           Penumbra    164           2144.6983481
08 May 2022 03:48:25.481    08 May 2022 03:48:33.845      8.3632234717    Earth           Penumbra    165           2144.0737906
08 May 2022 03:48:33.845    08 May 2022 04:24:01.234      2127.3899612    Earth           Umbra       165           2144.0737906
08 May 2022 04:24:01.234    08 May 2022 04:24:09.555      8.3206058946    Earth           Penumbra    165           2144.0737906
08 May 2022 05:21:53.320    08 May 2022 05:22:01.692      8.3720571594    Earth           Penumbra    166           2135.0979727
08 May 2022 05:22:01.692    08 May 2022 05:57:28.418      2126.7259155    Earth           Umbra       166           2135.0979727
08 May 2022 06:55:21.220    08 May 2022 06:55:29.601      8.3812768338    Earth           Penumbra    167           2142.7677177
08 May 2022 06:55:29.601    08 May 2022 07:30:55.648      2126.0467035    Earth           Umbra       167           2142.7677177
08 May 2022 07:30:55.648    08 May 2022 07:31:03.988      8.3397373790    Earth           Penumbra    167           2142.7677177
08 May 2022 08:28:57.467    08 May 2022 09:04:22.818      2125.3501736    Earth           Umbra       168           2133.6998806
08 May 2022 09:04:22.818    08 May 2022 09:04:31.167      8.3497070242    Earth           Penumbra    168           2133.6998806
08 May 2022 10:02:16.856    08 May 2022 10:02:25.256      8.3998459973    Earth           Penumbra    169           2141.3826590
08 May 2022 10:02:25.256    08 May 2022 10:37:49.879      2124.6230584    Earth           Umbra       169           2141.3826590
08 May 2022 10:37:49.879    08 May 2022 10:37:58.239      8.3597546211    Earth           Penumbra    169           2141.3826590
08 May 2022 11:35:44.624    08 May 2022 11:35:53.034      8.4091772558    Earth           Penumbra    170           2140.6383737
08 May 2022 11:35:53.034    08 May 2022 12:11:16.893      2123.8593694    Earth           Umbra       170           2140.6383737
08 May 2022 12:11:16.893    08 May 2022 12:11:25.263      8.3698270493    Earth           Penumbra    170           2140.6383737
