GMAT/Constellation/Eclipses/eclipse5.txt

Spacecraft: HSEYE5

Start Time (UTC)            Stop Time (UTC)               Duration (s)    Occ Body        Type        Event Number  Total Duration (s)
27 Apr 2022 12:17:14.597    27 Apr 2022 12:17:26.751      12.154674064    Earth           Penumbra    1             1900.0482747
27 Apr 2022 12:17:26.751    27 Apr 2022 12:48:42.636      1875.8846853    Earth           Umbra       1             1900.0482747
27 Apr 2022 12:48:42.636    27 Apr 2022 12:48:54.645      12.008915388    Earth           Penumbra    1             1900.0482747
27 Apr 2022 13:50:44.802    27 Apr 2022 13:50:56.888      12.085403921    Earth           Penumbra    2             1904.2567415
27 Apr 2022 13:50:56.888    27 Apr 2022 14:22:17.117      1880.2290005    Earth           Umbra       2             1904.2567415
27 Apr 2022 14:22:17.117    27 Apr 2022 14:22:29.059      11.942337092    Earth           Penumbra    2             1904.2567415
27 Apr 2022 15:24:14.946    27 Apr 2022 15:24:26.963      12.016604003    Earth           Penumbra    3             1908.4121338
27 Apr 2022 15:24:26.963    27 Apr 2022 15:55:51.482      1884.5193036    Earth           Umbra       3             1908.4121338
27 Apr 2022 15:55:51.482    27 Apr 2022 15:56:03.358      11.876226193    Earth           Penumbra    3             1908.4121338
27 Apr 2022 16:57:45.024    27 Apr 2022 16:57:56.973      11.948503449    Earth           Penumbra    4             1912.5027052
27 Apr 2022 16:57:56.973    27 Apr 2022 17:29:25.716      1888.7434351    Earth           Umbra       4             1912.5027052
27 Apr 2022 17:29:25.716    27 Apr 2022 17:29:37.527      11.810766568    Earth           Penumbra    4             1912.5027052
27 Apr 2022 18:31:15.064    27 Apr 2022 18:31:26.945      11.881291482    Earth           Penumbra    5             1916.5369036
27 Apr 2022 18:31:26.945    27 Apr 2022 19:02:59.855      1892.9095511    Earth           Umbra       5             1916.5369036
27 Apr 2022 19:02:59.855    27 Apr 2022 19:03:11.601      11.746061000    Earth           Penumbra    5             1916.5369036
27 Apr 2022 20:04:45.112    27 Apr 2022 20:04:56.927      11.814897694    Earth           Penumbra    6             1920.5447912
27 Apr 2022 20:04:56.927    27 Apr 2022 20:36:33.975      1897.0478387    Earth           Umbra       6             1920.5447912
27 Apr 2022 20:36:33.975    27 Apr 2022 20:36:45.657      11.682054796    Earth           Penumbra    6             1920.5447912
27 Apr 2022 21:38:15.197    27 Apr 2022 21:38:26.946      11.749223701    Earth           Penumbra    7             1924.5358858
27 Apr 2022 21:38:26.946    27 Apr 2022 22:10:08.114      1901.1678023    Earth           Umbra       7             1924.5358858
27 Apr 2022 22:10:08.114    27 Apr 2022 22:10:19.733      11.618859856    Earth           Penumbra    7             1924.5358858
27 Apr 2022 23:11:45.300    27 Apr 2022 23:11:56.984      11.684536992    Earth           Penumbra    8             1928.4751630
27 Apr 2022 23:11:56.984    27 Apr 2022 23:43:42.218      1905.2338035    Earth           Umbra       8             1928.4751630
27 Apr 2022 23:43:42.218    27 Apr 2022 23:43:53.775      11.556822562    Earth           Penumbra    8             1928.4751630
28 Apr 2022 00:45:15.378    28 Apr 2022 00:45:26.999      11.621329479    Earth           Penumbra    9             1932.3266939
28 Apr 2022 00:45:26.999    28 Apr 2022 01:17:16.208      1909.2091468    Earth           Umbra       9             1932.3266939
28 Apr 2022 01:17:16.208    28 Apr 2022 01:17:27.704      11.496217630    Earth           Penumbra    9             1932.3266939
28 Apr 2022 02:18:45.398    28 Apr 2022 02:18:56.958      11.559732549    Earth           Penumbra    10            1936.1026004
28 Apr 2022 02:18:56.958    28 Apr 2022 02:50:50.063      1913.1058090    Earth           Umbra       10            1936.1026004
28 Apr 2022 02:50:50.063    28 Apr 2022 02:51:01.500      11.437058891    Earth           Penumbra    10            1936.1026004
28 Apr 2022 03:52:15.347    28 Apr 2022 03:52:26.846      11.499313067    Earth           Penumbra    11            1939.8419808
28 Apr 2022 03:52:26.846    28 Apr 2022 04:24:23.809      1916.9635201    Earth           Umbra       11            1939.8419808
28 Apr 2022 04:24:23.809    28 Apr 2022 04:24:35.189      11.379147694    Earth           Penumbra    11            1939.8419808
28 Apr 2022 05:25:45.234    28 Apr 2022 05:25:56.674      11.439600494    Earth           Penumbra    12            1943.5590407
28 Apr 2022 05:25:56.674    28 Apr 2022 05:57:57.471      1920.7972412    Earth           Umbra       12            1943.5590407
28 Apr 2022 05:57:57.471    28 Apr 2022 05:58:08.793      11.322198948    Earth           Penumbra    12            1943.5590407
28 Apr 2022 06:59:15.104    28 Apr 2022 06:59:26.484      11.380638205    Earth           Penumbra    13            1947.2390342
28 Apr 2022 06:59:26.484    28 Apr 2022 07:31:31.077      1924.5923772    Earth           Umbra       13            1947.2390342
28 Apr 2022 07:31:31.077    28 Apr 2022 07:31:42.343      11.266018718    Earth           Penumbra    13            1947.2390342
28 Apr 2022 08:32:45.010    28 Apr 2022 08:32:56.333      11.322788929    Earth           Penumbra    14            1950.8704015
28 Apr 2022 08:32:56.333    28 Apr 2022 09:05:04.670      1928.3369613    Earth           Umbra       14            1950.8704015
28 Apr 2022 09:05:04.670    28 Apr 2022 09:05:15.881      11.210651323    Earth           Penumbra    14            1950.8704015
28 Apr 2022 10:06:14.974    28 Apr 2022 10:06:26.240      11.266168964    Earth           Penumbra    15            1954.4556909
28 Apr 2022 10:06:26.240    28 Apr 2022 10:38:38.273      1932.0332825    Earth           Umbra       15            1954.4556909
28 Apr 2022 10:38:38.273    28 Apr 2022 10:38:49.429      11.156239465    Earth           Penumbra    15            1954.4556909
28 Apr 2022 11:39:44.963    28 Apr 2022 11:39:56.173      11.210474360    Earth           Penumbra    16            1957.9994645
28 Apr 2022 11:39:56.173    28 Apr 2022 12:12:11.859      1935.6863113    Earth           Umbra       16            1957.9994645
28 Apr 2022 12:12:11.859    28 Apr 2022 12:12:22.962      11.102678790    Earth           Penumbra    16            1957.9994645
28 Apr 2022 13:13:14.928    28 Apr 2022 13:13:26.083      11.155278585    Earth           Penumbra    17            1961.5013537
28 Apr 2022 13:13:26.083    28 Apr 2022 13:45:45.380      1939.2964544    Earth           Umbra       17            1961.5013537
28 Apr 2022 13:45:45.380    28 Apr 2022 13:45:56.429      11.049620714    Earth           Penumbra    17            1961.5013537
28 Apr 2022 14:46:44.838    28 Apr 2022 14:46:55.939      11.100425734    Earth           Penumbra    18            1964.9546876
28 Apr 2022 14:46:55.939    28 Apr 2022 15:19:18.796      1942.8573701    Earth           Umbra       18            1964.9546876
28 Apr 2022 15:19:18.796    28 Apr 2022 15:19:29.793      10.996891733    Earth           Penumbra    18            1964.9546876
28 Apr 2022 16:20:14.687    28 Apr 2022 16:20:25.733      11.046072026    Earth           Penumbra    19            1968.3494529
28 Apr 2022 16:20:25.733    28 Apr 2022 16:52:52.092      1946.3587259    Earth           Umbra       19            1968.3494529
28 Apr 2022 16:52:52.092    28 Apr 2022 16:53:03.037      10.944654979    Earth           Penumbra    19            1968.3494529
28 Apr 2022 17:53:44.500    28 Apr 2022 17:53:55.492      10.992409196    Earth           Penumbra    20            1971.6891015
28 Apr 2022 17:53:55.492    28 Apr 2022 18:26:25.296      1949.8036234    Earth           Umbra       20            1971.6891015
28 Apr 2022 18:26:25.296    28 Apr 2022 18:26:36.189      10.893068870    Earth           Penumbra    20            1971.6891015
28 Apr 2022 19:27:14.324    28 Apr 2022 19:27:25.263      10.939435987    Earth           Penumbra    21            1974.9984513
28 Apr 2022 19:27:25.263    28 Apr 2022 19:59:58.480      1953.2169262    Earth           Umbra       21            1974.9984513
28 Apr 2022 19:59:58.480    28 Apr 2022 20:00:09.322      10.842089087    Earth           Penumbra    21            1974.9984513
28 Apr 2022 21:00:44.189    28 Apr 2022 21:00:55.076      10.887049930    Earth           Penumbra    22            1978.2938257
28 Apr 2022 21:00:55.076    28 Apr 2022 21:33:31.692      1956.6150699    Earth           Umbra       22            1978.2938257
28 Apr 2022 21:33:31.692    28 Apr 2022 21:33:42.483      10.791705886    Earth           Penumbra    22            1978.2938257
28 Apr 2022 22:34:14.080    28 Apr 2022 22:34:24.915      10.835379583    Earth           Penumbra    23            1981.5535122
28 Apr 2022 22:34:24.915    28 Apr 2022 23:07:04.891      1959.9759876    Earth           Umbra       23            1981.5535122
28 Apr 2022 23:07:04.891    28 Apr 2022 23:07:15.634      10.742144950    Earth           Penumbra    23            1981.5535122
29 Apr 2022 00:07:43.953    29 Apr 2022 00:07:54.738      10.784811876    Earth           Penumbra    24            1984.7439768
29 Apr 2022 00:07:54.738    29 Apr 2022 00:40:38.004      1963.2654799    Earth           Umbra       24            1984.7439768
29 Apr 2022 00:40:38.004    29 Apr 2022 00:40:48.697      10.693685082    Earth           Penumbra    24            1984.7439768
29 Apr 2022 01:41:13.778    29 Apr 2022 01:41:24.514      10.735561803    Earth           Penumbra    25            1987.8676388
29 Apr 2022 01:41:24.514    29 Apr 2022 02:14:11.000      1966.4856636    Earth           Umbra       25            1987.8676388
29 Apr 2022 02:14:11.000    29 Apr 2022 02:14:21.646      10.646413348    Earth           Penumbra    25            1987.8676388
29 Apr 2022 03:14:43.543    29 Apr 2022 03:14:54.230      10.687364393    Earth           Penumbra    26            1990.9568122
29 Apr 2022 03:14:54.230    29 Apr 2022 03:47:43.900      1969.6692362    Earth           Umbra       26            1990.9568122
29 Apr 2022 03:47:43.900    29 Apr 2022 03:47:54.500      10.600211564    Earth           Penumbra    26            1990.9568122
29 Apr 2022 04:48:13.252    29 Apr 2022 04:48:23.892      10.639809771    Earth           Penumbra    27            1994.0277316
29 Apr 2022 04:48:23.892    29 Apr 2022 05:21:16.725      1972.8330596    Earth           Umbra       27            1994.0277316
29 Apr 2022 05:21:16.725    29 Apr 2022 05:21:27.280      10.554862220    Earth           Penumbra    27            1994.0277316
29 Apr 2022 06:21:42.941    29 Apr 2022 06:21:53.534      10.592837585    Earth           Penumbra    28            1997.0687286
29 Apr 2022 06:21:53.534    29 Apr 2022 06:54:49.499      1975.9657241    Earth           Umbra       28            1997.0687286
29 Apr 2022 06:54:49.499    29 Apr 2022 06:55:00.010      10.510166979    Earth           Penumbra    28            1997.0687286
29 Apr 2022 07:55:12.663    29 Apr 2022 07:55:23.209      10.546707467    Earth           Penumbra    29            2000.0683531
29 Apr 2022 07:55:23.209    29 Apr 2022 08:28:22.265      1979.0555594    Earth           Umbra       29            2000.0683531
29 Apr 2022 08:28:22.265    29 Apr 2022 08:28:32.731      10.466086236    Earth           Penumbra    29            2000.0683531
29 Apr 2022 09:28:42.445    29 Apr 2022 09:28:52.946      10.501563689    Earth           Penumbra    30            2003.0289668
29 Apr 2022 09:28:52.946    29 Apr 2022 10:01:55.051      1982.1046910    Earth           Umbra       30            2003.0289668
29 Apr 2022 10:01:55.051    29 Apr 2022 10:02:05.474      10.422712087    Earth           Penumbra    30            2003.0289668
29 Apr 2022 11:02:12.262    29 Apr 2022 11:02:22.719      10.457189684    Earth           Penumbra    31            2005.9543922
29 Apr 2022 11:02:22.719    29 Apr 2022 11:35:27.836      1985.1171885    Earth           Umbra       31            2005.9543922
29 Apr 2022 11:35:27.836    29 Apr 2022 11:35:38.216      10.380014044    Earth           Penumbra    31            2005.9543922
29 Apr 2022 12:35:42.066    29 Apr 2022 12:35:52.479      10.413233098    Earth           Penumbra    32            2008.8422047
29 Apr 2022 12:35:52.479    29 Apr 2022 13:09:00.571      1988.0912341    Earth           Umbra       32            2008.8422047
29 Apr 2022 13:09:00.571    29 Apr 2022 13:09:10.908      10.337737505    Earth           Penumbra    32            2008.8422047
29 Apr 2022 14:09:11.821    29 Apr 2022 14:09:22.190      10.369525454    Earth           Penumbra    33            2011.6859437
29 Apr 2022 14:09:22.190    29 Apr 2022 14:42:33.211      1991.0207197    Earth           Umbra       33            2011.6859437
29 Apr 2022 14:42:33.211    29 Apr 2022 14:42:43.507      10.295698594    Earth           Penumbra    33            2011.6859437
29 Apr 2022 15:42:41.517    29 Apr 2022 15:42:51.843      10.326168279    Earth           Penumbra    34            2014.4776128
29 Apr 2022 15:42:51.843    29 Apr 2022 16:16:05.741      1993.8974281    Earth           Umbra       34            2014.4776128
29 Apr 2022 16:16:05.741    29 Apr 2022 16:16:15.995      10.254016437    Earth           Penumbra    34            2014.4776128
29 Apr 2022 17:16:11.177    29 Apr 2022 17:16:21.460      10.283342621    Earth           Penumbra    35            2017.2179099
29 Apr 2022 17:16:21.460    29 Apr 2022 17:49:38.182      1996.7216773    Earth           Umbra       35            2017.2179099
29 Apr 2022 17:49:38.182    29 Apr 2022 17:49:48.395      10.212890001    Earth           Penumbra    35            2017.2179099
29 Apr 2022 18:49:40.849    29 Apr 2022 18:49:51.090      10.241089971    Earth           Penumbra    36            2019.9258985
29 Apr 2022 18:49:51.090    29 Apr 2022 19:23:10.602      1999.5125025    Earth           Umbra       36            2019.9258985
29 Apr 2022 19:23:10.602    29 Apr 2022 19:23:20.775      10.172306083    Earth           Penumbra    36            2019.9258985
29 Apr 2022 20:23:10.566    29 Apr 2022 20:23:20.765      10.199325776    Earth           Penumbra    37            2022.6204433
29 Apr 2022 20:23:20.765    29 Apr 2022 20:56:43.054      2002.2889330    Earth           Umbra       37            2022.6204433
29 Apr 2022 20:56:43.054    29 Apr 2022 20:56:53.187      10.132184532    Earth           Penumbra    37            2022.6204433
29 Apr 2022 21:56:40.315    29 Apr 2022 21:56:50.473      10.158093413    Earth           Penumbra    38            2025.2907642
29 Apr 2022 21:56:50.473    29 Apr 2022 22:30:15.513      2005.0400320    Earth           Umbra       38            2025.2907642
29 Apr 2022 22:30:15.513    29 Apr 2022 22:30:25.606      10.092638817    Earth           Penumbra    38            2025.2907642
29 Apr 2022 23:30:10.053    29 Apr 2022 23:30:20.170      10.117686773    Earth           Penumbra    39            2027.9081739
29 Apr 2022 23:30:20.170    30 Apr 2022 00:03:47.907      2007.7365532    Earth           Umbra       39            2027.9081739
30 Apr 2022 00:03:47.907    30 Apr 2022 00:03:57.961      10.053933912    Earth           Penumbra    39            2027.9081739
30 Apr 2022 01:03:39.749    30 Apr 2022 01:03:49.828      10.078346939    Earth           Penumbra    40            2030.4683108
30 Apr 2022 01:03:49.828    30 Apr 2022 01:37:20.201      2010.3737519    Earth           Umbra       40            2030.4683108
30 Apr 2022 01:37:20.201    30 Apr 2022 01:37:30.218      10.016211891    Earth           Penumbra    40            2030.4683108
30 Apr 2022 02:37:09.394    30 Apr 2022 02:37:19.434      10.039950698    Earth           Penumbra    41            2032.9967078
30 Apr 2022 02:37:19.434    30 Apr 2022 03:10:52.411      2012.9773422    Earth           Umbra       41            2032.9967078
30 Apr 2022 03:10:52.411    30 Apr 2022 03:11:02.391      9.9794149166    Earth           Penumbra    41            2032.9967078
30 Apr 2022 04:10:38.989    30 Apr 2022 04:10:48.991      10.002149467    Earth           Penumbra    42            2035.5106366
30 Apr 2022 04:10:48.991    30 Apr 2022 04:44:24.556      2015.5651148    Earth           Umbra       42            2035.5106366
30 Apr 2022 04:44:24.556    30 Apr 2022 04:44:34.499      9.9433723139    Earth           Penumbra    42            2035.5106366
30 Apr 2022 05:44:08.561    30 Apr 2022 05:44:18.526      9.9648137460    Earth           Penumbra    43            2038.0012462
30 Apr 2022 05:44:18.526    30 Apr 2022 06:17:56.654      2018.1285325    Earth           Umbra       43            2038.0012462
30 Apr 2022 06:17:56.654    30 Apr 2022 06:18:06.562      9.9078998901    Earth           Penumbra    43            2038.0012462
30 Apr 2022 07:17:38.161    30 Apr 2022 07:17:48.090      9.9281255272    Earth           Penumbra    44            2040.4565830
30 Apr 2022 07:17:48.090    30 Apr 2022 07:51:28.745      2020.6555418    Earth           Umbra       44            2040.4565830
30 Apr 2022 07:51:28.745    30 Apr 2022 07:51:38.618      9.8729156074    Earth           Penumbra    44            2040.4565830
30 Apr 2022 08:51:07.823    30 Apr 2022 08:51:17.716      9.8922347417    Earth           Penumbra    45            2042.8782198
30 Apr 2022 08:51:17.716    30 Apr 2022 09:25:00.863      2023.1475222    Earth           Umbra       45            2042.8782198
30 Apr 2022 09:25:00.863    30 Apr 2022 09:25:10.702      9.8384628422    Earth           Penumbra    45            2042.8782198
30 Apr 2022 10:24:37.529    30 Apr 2022 10:24:47.386      9.8569961730    Earth           Penumbra    46            2045.2701633
30 Apr 2022 10:24:47.386    30 Apr 2022 10:58:32.995      2025.6086208    Earth           Umbra       46            2045.2701633
30 Apr 2022 10:58:32.995    30 Apr 2022 10:58:42.799      9.8045463092    Earth           Penumbra    46            2045.2701633
30 Apr 2022 11:58:07.231    30 Apr 2022 11:58:17.053      9.8221068154    Earth           Penumbra    47            2047.6289789
30 Apr 2022 11:58:17.053    30 Apr 2022 12:32:05.089      2028.0358890    Earth           Umbra       47            2047.6289789
30 Apr 2022 12:32:05.089    30 Apr 2022 12:32:14.860      9.7709830734    Earth           Penumbra    47            2047.6289789
30 Apr 2022 13:31:36.889    30 Apr 2022 13:31:46.677      9.7873991355    Earth           Penumbra    48            2049.9477776
30 Apr 2022 13:31:46.677    30 Apr 2022 14:05:37.100      2030.4227857    Earth           Umbra       48            2049.9477776
30 Apr 2022 14:05:37.100    30 Apr 2022 14:05:46.837      9.7375927144    Earth           Penumbra    48            2049.9477776
30 Apr 2022 15:05:06.491    30 Apr 2022 15:05:16.244      9.7529363120    Earth           Penumbra    49            2052.2202708
30 Apr 2022 15:05:16.244    30 Apr 2022 15:39:09.007      2032.7628775    Earth           Umbra       49            2052.2202708
30 Apr 2022 15:39:09.007    30 Apr 2022 15:39:18.711      9.7044569557    Earth           Penumbra    49            2052.2202708
30 Apr 2022 16:38:36.056    30 Apr 2022 16:38:45.775      9.7188817919    Earth           Penumbra    50            2054.4461052
30 Apr 2022 16:38:45.775    30 Apr 2022 17:12:40.830      2035.0554339    Earth           Umbra       50            2054.4461052
30 Apr 2022 17:12:40.830    30 Apr 2022 17:12:50.502      9.6717895358    Earth           Penumbra    50            2054.4461052
30 Apr 2022 18:12:05.631    30 Apr 2022 18:12:15.316      9.6853006398    Earth           Penumbra    51            2056.6391537
30 Apr 2022 18:12:15.316    30 Apr 2022 18:46:12.631      2037.3142286    Earth           Umbra       51            2056.6391537
30 Apr 2022 18:46:12.631    30 Apr 2022 18:46:22.270      9.6396244015    Earth           Penumbra    51            2056.6391537
30 Apr 2022 19:45:35.254    30 Apr 2022 19:45:44.907      9.6521315631    Earth           Penumbra    52            2058.8178210
30 Apr 2022 19:45:44.907    30 Apr 2022 20:19:44.464      2039.5578505    Earth           Umbra       52            2058.8178210
30 Apr 2022 20:19:44.464    30 Apr 2022 20:19:54.072      9.6078389673    Earth           Penumbra    52            2058.8178210
30 Apr 2022 21:19:04.915    30 Apr 2022 21:19:14.535      9.6193720470    Earth           Penumbra    53            2060.9795769
30 Apr 2022 21:19:14.535    30 Apr 2022 21:53:16.318      2041.7837509    Earth           Umbra       53            2060.9795769
30 Apr 2022 21:53:16.318    30 Apr 2022 21:53:25.895      9.5764539787    Earth           Penumbra    53            2060.9795769
30 Apr 2022 22:52:34.571    30 Apr 2022 22:52:44.158      9.5872330014    Earth           Penumbra    54            2053.5562136
30 Apr 2022 22:52:44.158    30 Apr 2022 23:26:48.127      2043.9689806    Earth           Umbra       54            2053.5562136
01 May 2022 00:26:04.191    01 May 2022 00:26:13.747      9.5559621113    Earth           Penumbra    55            2065.1764241
01 May 2022 00:26:13.747    01 May 2022 01:00:19.852      2046.1046912    Earth           Umbra       55            2065.1764241
01 May 2022 01:00:19.852    01 May 2022 01:00:29.368      9.5157707809    Earth           Penumbra    55            2065.1764241
01 May 2022 01:59:33.766    01 May 2022 01:59:43.292      9.5255332883    Earth           Penumbra    56            2067.2221586
01 May 2022 01:59:43.292    01 May 2022 02:33:51.502      2048.2099746    Earth           Umbra       56            2067.2221586
01 May 2022 02:33:51.502    01 May 2022 02:34:00.989      9.4866507920    Earth           Penumbra    56            2067.2221586
01 May 2022 03:33:03.297    01 May 2022 03:33:12.793      9.4956642715    Earth           Penumbra    57            2069.2564764
01 May 2022 03:33:12.793    01 May 2022 04:07:23.095      2050.3026112    Earth           Umbra       57            2069.2564764
01 May 2022 04:07:23.095    01 May 2022 04:07:32.553      9.4582009362    Earth           Penumbra    57            2069.2564764
01 May 2022 05:06:32.803    01 May 2022 05:06:42.269      9.4661875279    Earth           Penumbra    58            2071.2732865
01 May 2022 05:06:42.269    01 May 2022 05:40:54.646      2052.3768380    Earth           Umbra       58            2071.2732865
01 May 2022 05:40:54.646    01 May 2022 05:41:04.077      9.4302609097    Earth           Penumbra    58            2071.2732865
01 May 2022 06:40:02.333    01 May 2022 06:40:11.770      9.4372146414    Earth           Penumbra    59            2073.2600578
01 May 2022 06:40:11.770    01 May 2022 07:14:26.190      2054.4201199    Earth           Umbra       59            2073.2600578
01 May 2022 07:14:26.190    01 May 2022 07:14:35.593      9.4027232146    Earth           Penumbra    59            2073.2600578
01 May 2022 08:13:31.923    01 May 2022 08:13:41.332      9.4088955433    Earth           Penumbra    60            2075.2169261
01 May 2022 08:13:41.332    01 May 2022 08:47:57.764      2056.4324320    Earth           Umbra       60            2075.2169261
01 May 2022 08:47:57.764    01 May 2022 08:48:07.140      9.3755985377    Earth           Penumbra    60            2075.2169261
01 May 2022 09:47:01.565    01 May 2022 09:47:10.946      9.3811343657    Earth           Penumbra    61            2077.1483674
01 May 2022 09:47:10.946    01 May 2022 10:21:29.364      2058.4183352    Earth           Umbra       61            2077.1483674
01 May 2022 10:21:29.364    01 May 2022 10:21:38.713      9.3488978804    Earth           Penumbra    61            2077.1483674
01 May 2022 11:20:31.212    01 May 2022 11:20:40.566      9.3536746223    Earth           Penumbra    62            2079.0509525
01 May 2022 11:20:40.566    01 May 2022 11:55:00.940      2060.3747805    Earth           Umbra       62            2079.0509525
01 May 2022 11:55:00.940    01 May 2022 11:55:10.263      9.3224974000    Earth           Penumbra    62            2079.0509525
01 May 2022 12:54:00.821    01 May 2022 12:54:10.147      9.3263453222    Earth           Penumbra    63            2080.9171501
01 May 2022 12:54:10.147    01 May 2022 13:28:32.442      2062.2945784    Earth           Umbra       63            2080.9171501
01 May 2022 13:28:32.442    01 May 2022 13:28:41.738      9.2962264200    Earth           Penumbra    63            2080.9171501
01 May 2022 14:27:30.375    01 May 2022 14:27:39.674      9.2991888989    Earth           Penumbra    64            2082.7417709
01 May 2022 14:27:39.674    01 May 2022 15:02:03.847      2064.1724527    Earth           Umbra       64            2082.7417709
01 May 2022 15:02:03.847    01 May 2022 15:02:13.117      9.2701292597    Earth           Penumbra    64            2082.7417709
01 May 2022 16:00:59.891    01 May 2022 16:01:09.163      9.2723439680    Earth           Penumbra    65            2084.5245508
01 May 2022 16:01:09.163    01 May 2022 16:35:35.171      2066.0077828    Earth           Umbra       65            2084.5245508
01 May 2022 16:35:35.171    01 May 2022 16:35:44.415      9.2444240581    Earth           Penumbra    65            2084.5245508
01 May 2022 17:34:29.415    01 May 2022 17:34:38.660      9.2458919389    Earth           Penumbra    66            2086.2752630
01 May 2022 17:34:38.660    01 May 2022 18:09:06.471      2067.8101801    Earth           Umbra       66            2086.2752630
01 May 2022 18:09:06.471    01 May 2022 18:09:15.690      9.2191909673    Earth           Penumbra    66            2086.2752630
01 May 2022 19:07:58.988    01 May 2022 19:08:08.208      9.2197919497    Earth           Penumbra    67            2088.0100010
01 May 2022 19:08:08.208    01 May 2022 19:42:37.804      2069.5959117    Earth           Umbra       67            2088.0100010
01 May 2022 19:42:37.804    01 May 2022 19:42:46.998      9.1942973435    Earth           Penumbra    67            2088.0100010
01 May 2022 20:41:37.799    01 May 2022 21:16:09.167      2071.3680663    Earth           Umbra       68            2080.5377510
01 May 2022 21:16:09.167    01 May 2022 21:16:18.337      9.1696847230    Earth           Penumbra    68            2080.5377510
01 May 2022 22:15:07.392    01 May 2022 22:49:40.502      2073.1104194    Earth           Umbra       69            2082.2559526
01 May 2022 22:49:40.502    01 May 2022 22:49:49.647      9.1455332120    Earth           Penumbra    69            2082.2559526
01 May 2022 23:48:27.809    01 May 2022 23:48:36.953      9.1441272525    Earth           Penumbra    70            2093.0786412
01 May 2022 23:48:36.953    02 May 2022 00:23:11.766      2074.8124483    Earth           Umbra       70            2093.0786412
02 May 2022 00:23:11.766    02 May 2022 00:23:20.888      9.1220656643    Earth           Penumbra    70            2093.0786412
02 May 2022 01:21:57.356    02 May 2022 01:22:06.476      9.1202834621    Earth           Penumbra    71            2094.7069123
02 May 2022 01:22:06.476    02 May 2022 01:56:42.964      2076.4873040    Earth           Umbra       71            2094.7069123
02 May 2022 01:56:42.964    02 May 2022 01:56:52.063      9.0993248275    Earth           Penumbra    71            2094.7069123
02 May 2022 02:55:26.864    02 May 2022 02:55:35.961      9.0969759040    Earth           Penumbra    72            2096.3260175
02 May 2022 02:55:35.961    02 May 2022 03:30:14.113      2078.1518488    Earth           Umbra       72            2096.3260175
02 May 2022 03:30:14.113    02 May 2022 03:30:23.190      9.0771928313    Earth           Penumbra    72            2096.3260175
02 May 2022 04:28:56.346    02 May 2022 04:29:05.420      9.0740188141    Earth           Penumbra    73            2097.9325184
02 May 2022 04:29:05.420    02 May 2022 05:03:45.223      2079.8029843    Earth           Umbra       73            2097.9325184
02 May 2022 05:03:45.223    02 May 2022 05:03:54.279      9.0555153438    Earth           Penumbra    73            2097.9325184
02 May 2022 06:02:25.846    02 May 2022 06:02:34.898      9.0514605981    Earth           Penumbra    74            2099.5136168
02 May 2022 06:02:34.898    02 May 2022 06:37:16.326      2081.4279704    Earth           Umbra       74            2099.5136168
02 May 2022 06:37:16.326    02 May 2022 06:37:25.360      9.0341858100    Earth           Penumbra    74            2099.5136168
02 May 2022 07:35:55.406    02 May 2022 07:36:04.436      9.0294414433    Earth           Penumbra    75            2101.0674953
02 May 2022 07:36:04.436    02 May 2022 08:10:47.461      2083.0248673    Earth           Umbra       75            2101.0674953
02 May 2022 08:10:47.461    02 May 2022 08:10:56.474      9.0131866280    Earth           Penumbra    75            2101.0674953
02 May 2022 09:09:25.024    02 May 2022 09:09:34.032      9.0079129441    Earth           Penumbra    76            2093.6064091
02 May 2022 09:09:34.032    02 May 2022 09:44:18.630      2084.5984961    Earth           Umbra       76            2093.6064091
02 May 2022 10:42:54.656    02 May 2022 10:43:03.642      8.9866459602    Earth           Penumbra    77            2104.1053300
02 May 2022 10:43:03.642    02 May 2022 11:17:49.789      2086.1465559    Earth           Umbra       77            2104.1053300
02 May 2022 11:17:49.789    02 May 2022 11:17:58.761      8.9721280849    Earth           Penumbra    77            2104.1053300
02 May 2022 12:16:24.255    02 May 2022 12:16:33.221      8.9654776733    Earth           Penumbra    78            2105.5786340
02 May 2022 12:16:33.221    02 May 2022 12:51:20.882      2087.6613309    Earth           Umbra       78            2105.5786340
02 May 2022 12:51:20.882    02 May 2022 12:51:29.834      8.9518254390    Earth           Penumbra    78            2105.5786340
02 May 2022 13:49:53.802    02 May 2022 13:50:02.746      8.9444237994    Earth           Penumbra    79            2107.0141140
02 May 2022 13:50:02.746    02 May 2022 14:24:51.884      2089.1380545    Earth           Umbra       79            2107.0141140
02 May 2022 14:24:51.884    02 May 2022 14:25:00.816      8.9316356345    Earth           Penumbra    79            2107.0141140
02 May 2022 15:23:23.308    02 May 2022 15:23:32.231      8.9236138389    Earth           Penumbra    80            2108.4121790
02 May 2022 15:23:32.231    02 May 2022 15:58:22.808      2090.5767955    Earth           Umbra       80            2108.4121790
02 May 2022 15:58:22.808    02 May 2022 15:58:31.720      8.9117695810    Earth           Penumbra    80            2108.4121790
02 May 2022 16:56:52.819    02 May 2022 16:57:01.722      8.9031304582    Earth           Penumbra    81            2109.7798019
02 May 2022 16:57:01.722    02 May 2022 17:31:53.706      2091.9843216    Earth           Umbra       81            2109.7798019
02 May 2022 17:31:53.706    02 May 2022 17:32:02.599      8.8923498639    Earth           Penumbra    81            2109.7798019
02 May 2022 18:30:22.380    02 May 2022 18:30:31.263      8.8829507120    Earth           Penumbra    82            2111.1298355
02 May 2022 18:30:31.263    02 May 2022 19:05:24.637      2093.3736255    Earth           Umbra       82            2111.1298355
02 May 2022 19:05:24.637    02 May 2022 19:05:33.510      8.8732592412    Earth           Penumbra    82            2111.1298355
02 May 2022 20:03:51.990    02 May 2022 20:04:00.853      8.8630422251    Earth           Penumbra    83            2112.4683255
02 May 2022 20:04:00.853    02 May 2022 20:38:55.604      2094.7509123    Earth           Umbra       83            2112.4683255
02 May 2022 20:38:55.604    02 May 2022 20:39:04.459      8.8543710415    Earth           Penumbra    83            2112.4683255
02 May 2022 21:37:21.608    02 May 2022 21:37:30.451      8.8435011799    Earth           Penumbra    84            2113.7856571
02 May 2022 21:37:30.451    02 May 2022 22:12:26.557      2096.1063515    Earth           Umbra       84            2113.7856571
02 May 2022 22:12:26.557    02 May 2022 22:12:35.393      8.8358043926    Earth           Penumbra    84            2113.7856571
02 May 2022 23:10:51.197    02 May 2022 23:11:00.022      8.8245369145    Earth           Penumbra    85            2115.0721311
02 May 2022 23:11:00.022    02 May 2022 23:45:57.452      2097.4297891    Earth           Umbra       85            2115.0721311
02 May 2022 23:45:57.452    02 May 2022 23:46:06.269      8.8178050937    Earth           Penumbra    85            2115.0721311
03 May 2022 00:44:20.752    03 May 2022 00:44:29.558      8.8062386960    Earth           Penumbra    86            2107.5356357
03 May 2022 00:44:29.558    03 May 2022 01:19:28.288      2098.7293970    Earth           Umbra       86            2107.5356357
03 May 2022 02:17:50.273    03 May 2022 02:17:59.061      8.7884625653    Earth           Penumbra    87            2108.8087846
03 May 2022 02:17:59.061    03 May 2022 02:52:59.081      2100.0203221    Earth           Umbra       87            2108.8087846
03 May 2022 03:51:19.768    03 May 2022 03:51:28.539      8.7710127002    Earth           Penumbra    88            2118.8402141
03 May 2022 03:51:28.539    03 May 2022 04:26:29.841      2101.3018741    Earth           Umbra       88            2118.8402141
03 May 2022 04:26:29.841    03 May 2022 04:26:38.608      8.7673272821    Earth           Penumbra    88            2118.8402141
03 May 2022 05:24:49.276    03 May 2022 05:24:58.030      8.7538872147    Earth           Penumbra    89            2120.0667507
03 May 2022 05:24:58.030    03 May 2022 06:00:00.591      2102.5615927    Earth           Umbra       89            2120.0667507
03 May 2022 06:00:00.591    03 May 2022 06:00:09.343      8.7512708036    Earth           Penumbra    89            2120.0667507
03 May 2022 06:58:27.578    03 May 2022 07:33:31.374      2103.7953569    Earth           Umbra       90            2112.5308447
03 May 2022 07:33:31.374    03 May 2022 07:33:40.109      8.7354877847    Earth           Penumbra    90            2112.5308447
03 May 2022 08:31:57.191    03 May 2022 09:07:02.199      2105.0078060    Earth           Umbra       91            2113.7277956
03 May 2022 09:07:02.199    03 May 2022 09:07:10.919      8.7199895410    Earth           Penumbra    91            2113.7277956
03 May 2022 10:05:26.826    03 May 2022 10:40:33.024      2106.1979264    Earth           Umbra       92            2114.9026348
03 May 2022 10:40:33.024    03 May 2022 10:40:41.729      8.7047084933    Earth           Penumbra    92            2114.9026348
03 May 2022 11:38:47.747    03 May 2022 11:38:56.436      8.6890345439    Earth           Penumbra    93            2124.7364310
03 May 2022 11:38:56.436    03 May 2022 12:14:03.793      2107.3578898    Earth           Umbra       93            2124.7364310
03 May 2022 12:14:03.793    03 May 2022 12:14:12.483      8.6895066546    Earth           Penumbra    93            2124.7364310
03 May 2022 13:12:17.321    03 May 2022 13:12:25.994      8.6731776595    Earth           Penumbra    94            2125.8304017
03 May 2022 13:12:25.994    03 May 2022 13:47:34.477      2108.4828535    Earth           Umbra       94            2125.8304017
03 May 2022 13:47:34.477    03 May 2022 13:47:43.151      8.6743705091    Earth           Penumbra    94            2125.8304017
03 May 2022 14:45:46.853    03 May 2022 14:45:55.510      8.6575103109    Earth           Penumbra    95            2126.8907566
03 May 2022 14:45:55.510    03 May 2022 15:21:05.084      2109.5737492    Earth           Umbra       95            2126.8907566
03 May 2022 15:21:05.084    03 May 2022 15:21:13.744      8.6594971363    Earth           Penumbra    95            2126.8907566
03 May 2022 16:19:16.386    03 May 2022 16:19:25.028      8.6421211367    Earth           Penumbra    96            2127.9229176
03 May 2022 16:19:25.028    03 May 2022 16:54:35.664      2110.6357468    Earth           Umbra       96            2127.9229176
03 May 2022 16:54:35.664    03 May 2022 16:54:44.309      8.6450496688    Earth           Penumbra    96            2127.9229176
03 May 2022 17:52:45.968    03 May 2022 17:52:54.595      8.6269953637    Earth           Penumbra    97            2128.9363004
03 May 2022 17:52:54.595    03 May 2022 18:28:06.274      2111.6783725    Earth           Umbra       97            2128.9363004
03 May 2022 18:28:06.274    03 May 2022 18:28:14.905      8.6309325532    Earth           Penumbra    97            2128.9363004
03 May 2022 19:26:15.606    03 May 2022 19:26:24.218      8.6120999884    Earth           Penumbra    98            2129.9378578
03 May 2022 19:26:24.218    03 May 2022 20:01:36.926      2112.7087826    Earth           Umbra       98            2129.9378578
03 May 2022 20:01:36.926    03 May 2022 20:01:45.543      8.6169751128    Earth           Penumbra    98            2129.9378578
03 May 2022 20:59:45.256    03 May 2022 20:59:53.854      8.5974972462    Earth           Penumbra    99            2130.9233734
03 May 2022 20:59:53.854    03 May 2022 21:35:07.576      2113.7226454    Earth           Umbra       99            2130.9233734
03 May 2022 21:35:07.576    03 May 2022 21:35:16.180      8.6032307823    Earth           Penumbra    99            2130.9233734
03 May 2022 22:33:14.883    03 May 2022 22:33:23.466      8.5833653575    Earth           Penumbra    100           2123.2951220
03 May 2022 22:33:23.466    03 May 2022 23:08:38.178      2114.7117566    Earth           Umbra       100           2123.2951220
04 May 2022 00:06:44.478    04 May 2022 00:06:53.048      8.5698306793    Earth           Penumbra    101           2124.2503282
04 May 2022 00:06:53.048    04 May 2022 00:42:08.729      2115.6804976    Earth           Umbra       101           2124.2503282
04 May 2022 01:40:14.045    04 May 2022 01:40:22.601      8.5568020586    Earth           Penumbra    102           2125.1984969
04 May 2022 01:40:22.601    04 May 2022 02:15:39.243      2116.6416948    Earth           Umbra       102           2125.1984969
04 May 2022 03:13:43.586    04 May 2022 03:13:52.131      8.5440931027    Earth           Penumbra    103           2134.6940637
04 May 2022 03:13:52.131    04 May 2022 03:49:09.727      2117.5966186    Earth           Umbra       103           2134.6940637
04 May 2022 03:49:09.727    04 May 2022 03:49:18.280      8.5533520672    Earth           Penumbra    103           2134.6940637
04 May 2022 04:47:13.136    04 May 2022 04:47:21.667      8.5316585493    Earth           Penumbra    104           2135.6071654
04 May 2022 04:47:21.667    04 May 2022 05:22:40.201      2118.5336432    Earth           Umbra       104           2135.6071654
04 May 2022 05:22:40.201    04 May 2022 05:22:48.743      8.5418636212    Earth           Penumbra    104           2135.6071654
04 May 2022 06:20:42.740    04 May 2022 06:20:51.259      8.5195986670    Earth           Penumbra    105           2136.4966817
04 May 2022 06:20:51.259    04 May 2022 06:56:10.706      2119.4464765    Earth           Umbra       105           2136.4966817
04 May 2022 06:56:10.706    04 May 2022 06:56:19.236      8.5306065157    Earth           Penumbra    105           2136.4966817
04 May 2022 07:54:12.412    04 May 2022 07:54:20.920      8.5079276003    Earth           Penumbra    106           2137.3665023
04 May 2022 07:54:20.920    04 May 2022 08:29:41.258      2120.3389848    Earth           Umbra       106           2137.3665023
04 May 2022 08:29:41.258    04 May 2022 08:29:49.778      8.5195898660    Earth           Penumbra    106           2137.3665023
04 May 2022 09:27:42.115    04 May 2022 09:27:50.611      8.4964847309    Earth           Penumbra    107           2138.2169239
04 May 2022 09:27:50.611    04 May 2022 10:03:11.823      2121.2116739    Earth           Umbra       107           2138.2169239
04 May 2022 10:03:11.823    04 May 2022 10:03:20.332      8.5087652667    Earth           Penumbra    107           2138.2169239
04 May 2022 11:01:11.798    04 May 2022 11:01:20.283      8.4850915242    Earth           Penumbra    108           2139.0402500
04 May 2022 11:01:20.283    04 May 2022 11:36:42.341      2122.0571509    Earth           Umbra       108           2139.0402500
04 May 2022 11:36:42.341    04 May 2022 11:36:50.839      8.4980076179    Earth           Penumbra    108           2139.0402500
04 May 2022 12:34:41.433    04 May 2022 12:34:49.907      8.4737382364    Earth           Penumbra    109           2139.8311508
04 May 2022 12:34:49.907    04 May 2022 13:10:12.777      2122.8701343    Earth           Umbra       109           2139.8311508
04 May 2022 13:10:12.777    04 May 2022 13:10:21.265      8.4872782580    Earth           Penumbra    109           2139.8311508
04 May 2022 14:08:11.024    04 May 2022 14:08:19.487      8.4625386517    Earth           Penumbra    110           2140.5915250
04 May 2022 14:08:19.487    04 May 2022 14:43:43.139      2123.6522316    Earth           Umbra       110           2140.5915250
04 May 2022 14:43:43.139    04 May 2022 14:43:51.616      8.4767547785    Earth           Penumbra    110           2140.5915250
04 May 2022 15:41:40.612    04 May 2022 15:41:49.064      8.4515776369    Earth           Penumbra    111           2141.3262987
04 May 2022 15:41:49.064    04 May 2022 16:17:13.472      2124.4080868    Earth           Umbra       111           2141.3262987
04 May 2022 16:17:13.472    04 May 2022 16:17:21.938      8.4666342591    Earth           Penumbra    111           2141.3262987
04 May 2022 17:15:10.248    04 May 2022 17:15:18.688      8.4408514202    Earth           Penumbra    112           2142.0418170
04 May 2022 17:15:18.688    04 May 2022 17:50:43.833      2125.1441048    Earth           Umbra       112           2142.0418170
04 May 2022 17:50:43.833    04 May 2022 17:50:52.289      8.4568607504    Earth           Penumbra    112           2142.0418170
04 May 2022 18:48:39.943    04 May 2022 18:48:48.373      8.4303225973    Earth           Penumbra    113           2142.7442567
04 May 2022 18:48:48.373    04 May 2022 19:24:14.240      2125.8667036    Earth           Umbra       113           2142.7442567
04 May 2022 19:24:14.240    04 May 2022 19:24:22.687      8.4472305723    Earth           Penumbra    113           2142.7442567
04 May 2022 20:22:09.658    04 May 2022 20:22:18.078      8.4200304584    Earth           Penumbra    114           2143.4335069
04 May 2022 20:22:18.078    04 May 2022 20:57:44.654      2126.5757500    Earth           Umbra       114           2143.4335069
04 May 2022 20:57:44.654    04 May 2022 20:57:53.092      8.4377264371    Earth           Penumbra    114           2143.4335069
04 May 2022 21:55:47.764    04 May 2022 22:31:15.030      2127.2660554    Earth           Umbra       115           2135.6946307
04 May 2022 22:31:15.030    04 May 2022 22:31:23.458      8.4285752848    Earth           Penumbra    115           2135.6946307
04 May 2022 23:29:17.422    05 May 2022 00:04:45.361      2127.9395719    Earth           Umbra       116           2136.3595483
05 May 2022 00:04:45.361    05 May 2022 00:04:53.781      8.4199763951    Earth           Penumbra    116           2136.3595483
05 May 2022 01:02:47.055    05 May 2022 01:38:15.662      2128.6064295    Earth           Umbra       117           2137.0183351
05 May 2022 01:38:15.662    05 May 2022 01:38:24.073      8.4119055653    Earth           Penumbra    117           2137.0183351
05 May 2022 02:36:16.667    05 May 2022 03:11:45.936      2129.2692569    Earth           Umbra       118           2137.6734619
05 May 2022 03:11:45.936    05 May 2022 03:11:54.340      8.4042050061    Earth           Penumbra    118           2137.6734619
05 May 2022 04:09:37.907    05 May 2022 04:09:46.282      8.3750205813    Earth           Penumbra    119           2146.6895230
05 May 2022 04:09:46.282    05 May 2022 04:45:16.200      2129.9177560    Earth           Umbra       119           2146.6895230
05 May 2022 04:45:16.200    05 May 2022 04:45:24.596      8.3967464743    Earth           Penumbra    119           2146.6895230
05 May 2022 05:43:07.581    05 May 2022 05:43:15.948      8.3670226741    Earth           Penumbra    120           2147.3002573
05 May 2022 05:43:15.948    05 May 2022 06:18:46.492      2130.5437490    Earth           Umbra       120           2147.3002573
05 May 2022 06:18:46.492    05 May 2022 06:18:54.881      8.3894856507    Earth           Penumbra    120           2147.3002573
05 May 2022 07:16:37.326    05 May 2022 07:16:45.686      8.3593755495    Earth           Penumbra    121           2147.8915329
05 May 2022 07:16:45.686    05 May 2022 07:52:16.836      2131.1497250    Earth           Umbra       121           2147.8915329
05 May 2022 07:52:16.836    05 May 2022 07:52:25.218      8.3824322792    Earth           Penumbra    121           2147.8915329
05 May 2022 08:50:07.112    05 May 2022 08:50:15.464      8.3519493928    Earth           Penumbra    122           2148.4651386
05 May 2022 08:50:15.464    05 May 2022 09:25:47.202      2131.7376342    Earth           Umbra       122           2148.4651386
05 May 2022 09:25:47.202    05 May 2022 09:25:55.577      8.3755549276    Earth           Penumbra    122           2148.4651386
05 May 2022 10:23:36.885    05 May 2022 10:23:45.230      8.3445653552    Earth           Penumbra    123           2149.0143957
05 May 2022 10:23:45.230    05 May 2022 10:59:17.531      2132.3010936    Earth           Umbra       123           2149.0143957
05 May 2022 10:59:17.531    05 May 2022 10:59:25.900      8.3687366685    Earth           Penumbra    123           2149.0143957
05 May 2022 11:57:06.612    05 May 2022 11:57:14.950      8.3371916902    Earth           Penumbra    124           2149.5333739
05 May 2022 11:57:14.950    05 May 2022 12:32:47.784      2132.8342632    Earth           Umbra       124           2149.5333739
05 May 2022 12:32:47.784    05 May 2022 12:32:56.146      8.3619190380    Earth           Penumbra    124           2149.5333739
05 May 2022 13:30:36.294    05 May 2022 13:30:44.624      8.3299349528    Earth           Penumbra    125           2150.0242461
05 May 2022 13:30:44.624    05 May 2022 14:06:17.963      2133.3390573    Earth           Umbra       125           2150.0242461
05 May 2022 14:06:17.963    05 May 2022 14:06:26.318      8.3552538534    Earth           Penumbra    125           2150.0242461
05 May 2022 15:04:05.968    05 May 2022 15:04:14.291      8.3228925825    Earth           Penumbra    126           2142.1432557
05 May 2022 15:04:14.291    05 May 2022 15:39:48.111      2133.8203632    Earth           Umbra       126           2142.1432557
05 May 2022 16:37:35.687    05 May 2022 16:37:44.003      8.3160639508    Earth           Penumbra    127           2142.5982501
05 May 2022 16:37:44.003    05 May 2022 17:13:18.285      2134.2821861    Earth           Umbra       127           2142.5982501
05 May 2022 18:11:05.470    05 May 2022 18:11:13.779      8.3094066242    Earth           Penumbra    128           2143.0384389
05 May 2022 18:11:13.779    05 May 2022 18:46:48.508      2134.7290323    Earth           Umbra       128           2143.0384389
05 May 2022 19:44:35.280    05 May 2022 19:44:43.583      8.3029419766    Earth           Penumbra    129           2143.4663739
05 May 2022 19:44:43.583    05 May 2022 20:20:18.747      2135.1634320    Earth           Umbra       129           2143.4663739
05 May 2022 21:18:05.075    05 May 2022 21:18:13.372      8.2968007657    Earth           Penumbra    130           2143.8805404
05 May 2022 21:18:13.372    05 May 2022 21:53:48.956      2135.5837397    Earth           Umbra       130           2143.8805404
05 May 2022 22:51:34.844    05 May 2022 22:51:43.135      8.2911341800    Earth           Penumbra    131           2144.2820313
05 May 2022 22:51:43.135    05 May 2022 23:27:19.126      2135.9908971    Earth           Umbra       131           2144.2820313
06 May 2022 00:25:04.593    06 May 2022 00:25:12.879      8.2859529066    Earth           Penumbra    132           2144.6782337
06 May 2022 00:25:12.879    06 May 2022 01:00:49.271      2136.3922808    Earth           Umbra       132           2144.6782337
06 May 2022 01:58:34.322    06 May 2022 01:58:42.603      8.2811089000    Earth           Penumbra    133           2145.0722494
06 May 2022 01:58:42.603    06 May 2022 02:34:19.394      2136.7911405    Earth           Umbra       133           2145.0722494
06 May 2022 03:32:04.051    06 May 2022 03:32:12.327      8.2764899475    Earth           Penumbra    134           2145.4553452
06 May 2022 03:32:12.327    06 May 2022 04:07:49.506      2137.1788552    Earth           Umbra       134           2145.4553452
06 May 2022 05:05:33.826    06 May 2022 05:05:42.098      8.2721284241    Earth           Penumbra    135           2145.8179938
06 May 2022 05:05:42.098    06 May 2022 05:41:19.644      2137.5458654    Earth           Umbra       135           2145.8179938
06 May 2022 06:39:03.675    06 May 2022 06:39:11.943      8.2680815365    Earth           Penumbra    136           2154.4625393
06 May 2022 06:39:11.943    06 May 2022 07:14:49.836      2137.8928048    Earth           Umbra       136           2154.4625393
06 May 2022 07:14:49.836    06 May 2022 07:14:58.137      8.3016529446    Earth           Penumbra    136           2154.4625393
06 May 2022 08:12:33.573    06 May 2022 08:12:41.837      8.2642531022    Earth           Penumbra    137           2154.7852750
06 May 2022 08:12:41.837    06 May 2022 08:48:20.060      2138.2227002    Earth           Umbra       137           2154.7852750
06 May 2022 08:48:20.060    06 May 2022 08:48:28.358      8.2983217668    Earth           Penumbra    137           2154.7852750
06 May 2022 09:46:03.466    06 May 2022 09:46:11.726      8.2604639581    Earth           Penumbra    138           2155.0862113
06 May 2022 09:46:11.726    06 May 2022 10:21:50.257      2138.5306964    Earth           Umbra       138           2155.0862113
06 May 2022 10:21:50.257    06 May 2022 10:21:58.552      8.2950509386    Earth           Penumbra    138           2155.0862113
06 May 2022 11:19:33.316    06 May 2022 11:19:41.572      8.2566606696    Earth           Penumbra    139           2155.3589345
06 May 2022 11:19:41.572    06 May 2022 11:55:20.383      2138.8105157    Earth           Umbra       139           2155.3589345
06 May 2022 11:55:20.383    06 May 2022 11:55:28.675      8.2917581080    Earth           Penumbra    139           2155.3589345
06 May 2022 12:53:03.119    06 May 2022 12:53:11.372      8.2529438194    Earth           Penumbra    140           2155.6054379
06 May 2022 12:53:11.372    06 May 2022 13:28:50.436      2139.0639272    Earth           Umbra       140           2155.6054379
06 May 2022 13:28:50.436    06 May 2022 13:28:58.724      8.2885668031    Earth           Penumbra    140           2155.6054379
06 May 2022 14:26:32.910    06 May 2022 14:26:41.159      8.2494212198    Earth           Penumbra    141           2155.8316534
06 May 2022 14:26:41.159    06 May 2022 15:02:20.456      2139.2965112    Earth           Umbra       141           2155.8316534
06 May 2022 15:02:20.456    06 May 2022 15:02:28.741      8.2857209374    Earth           Penumbra    141           2155.8316534
06 May 2022 16:00:02.742    06 May 2022 16:00:10.988      8.2460963284    Earth           Penumbra    142           2156.0401764
06 May 2022 16:00:10.988    06 May 2022 16:35:50.499      2139.5108136    Earth           Umbra       142           2156.0401764
06 May 2022 16:35:50.499    06 May 2022 16:35:58.782      8.2832664018    Earth           Penumbra    142           2156.0401764
06 May 2022 17:33:32.642    06 May 2022 17:33:40.885      8.2429241971    Earth           Penumbra    143           2156.2326797
06 May 2022 17:33:40.885    06 May 2022 18:09:20.594      2139.7087698    Earth           Umbra       143           2156.2326797
06 May 2022 18:09:20.594    06 May 2022 18:09:28.875      8.2809856860    Earth           Penumbra    143           2156.2326797
06 May 2022 19:07:02.577    06 May 2022 19:07:10.817      8.2399101695    Earth           Penumbra    144           2156.4125909
06 May 2022 19:07:10.817    06 May 2022 19:42:50.711      2139.8939591    Earth           Umbra       144           2156.4125909
06 May 2022 19:42:50.711    06 May 2022 19:42:58.990      8.2787216292    Earth           Penumbra    144           2156.4125909
06 May 2022 20:40:32.502    06 May 2022 20:40:40.739      8.2371661440    Earth           Penumbra    145           2156.5820765
06 May 2022 20:40:40.739    06 May 2022 21:16:20.807      2140.0682906    Earth           Umbra       145           2156.5820765
06 May 2022 21:16:20.807    06 May 2022 21:16:29.084      8.2766197622    Earth           Penumbra    145           2156.5820765
06 May 2022 22:14:02.402    06 May 2022 22:14:10.637      8.2348455093    Earth           Penumbra    146           2156.7428597
06 May 2022 22:14:10.637    06 May 2022 22:49:50.870      2140.2330556    Earth           Umbra       146           2156.7428597
06 May 2022 22:49:50.870    06 May 2022 22:49:59.145      8.2749585737    Earth           Penumbra    146           2156.7428597
06 May 2022 23:47:32.286    06 May 2022 23:47:40.519      8.2329922705    Earth           Penumbra    147           2156.8999604
06 May 2022 23:47:40.519    07 May 2022 00:23:20.912      2140.3931467    Earth           Umbra       147           2156.8999604
07 May 2022 00:23:20.912    07 May 2022 00:23:29.186      8.2738213590    Earth           Penumbra    147           2156.8999604
07 May 2022 01:21:02.154    07 May 2022 01:21:10.386      8.2314995583    Earth           Penumbra    148           2157.0562391
07 May 2022 01:21:10.386    07 May 2022 01:56:50.937      2140.5516735    Earth           Umbra       148           2157.0562391
07 May 2022 01:56:50.937    07 May 2022 01:56:59.210      8.2730660448    Earth           Penumbra    148           2157.0562391
07 May 2022 02:54:32.019    07 May 2022 02:54:40.250      8.2302249852    Earth           Penumbra    149           2157.2045359
07 May 2022 02:54:40.250    07 May 2022 03:30:20.951      2140.7017977    Earth           Umbra       149           2157.2045359
07 May 2022 03:30:20.951    07 May 2022 03:30:29.224      8.2725131535    Earth           Penumbra    149           2157.2045359
07 May 2022 04:28:01.926    07 May 2022 04:28:10.155      8.2291650935    Earth           Penumbra    150           2157.3345090
07 May 2022 04:28:10.155    07 May 2022 05:03:50.988      2140.8332523    Earth           Umbra       150           2157.3345090
07 May 2022 05:03:50.988    07 May 2022 05:03:59.260      8.2720916485    Earth           Penumbra    150           2157.3345090
07 May 2022 06:01:31.908    07 May 2022 06:01:40.136      8.2283827476    Earth           Penumbra    151           2157.4447415
07 May 2022 06:01:40.136    07 May 2022 06:37:21.081      2140.9445353    Earth           Umbra       151           2157.4447415
07 May 2022 06:37:21.081    07 May 2022 06:37:29.352      8.2718235324    Earth           Penumbra    151           2157.4447415
07 May 2022 07:35:01.947    07 May 2022 07:35:10.175      8.2278169692    Earth           Penumbra    152           2157.5387180
07 May 2022 07:35:10.175    07 May 2022 08:10:51.214      2141.0391859    Earth           Umbra       152           2157.5387180
07 May 2022 08:10:51.214    07 May 2022 08:10:59.486      8.2717150915    Earth           Penumbra    152           2157.5387180
07 May 2022 09:08:31.990    07 May 2022 09:08:40.217      8.2272936241    Earth           Penumbra    153           2157.6131772
07 May 2022 09:08:40.217    07 May 2022 09:44:21.331      2141.1142125    Earth           Umbra       153           2157.6131772
07 May 2022 09:44:21.331    07 May 2022 09:44:29.603      8.2716710865    Earth           Penumbra    153           2157.6131772
07 May 2022 10:42:01.992    07 May 2022 10:42:10.219      8.2267338177    Earth           Penumbra    154           2157.6615724
07 May 2022 10:42:10.219    07 May 2022 11:17:51.382      2141.1632482    Earth           Umbra       154           2157.6615724
07 May 2022 11:17:51.382    07 May 2022 11:17:59.654      8.2715903060    Earth           Penumbra    154           2157.6615724
07 May 2022 12:15:31.948    07 May 2022 12:15:40.174      8.2262293319    Earth           Penumbra    155           2157.6852841
07 May 2022 12:15:40.174    07 May 2022 12:51:21.361      2141.1874925    Earth           Umbra       155           2157.6852841
07 May 2022 12:51:21.361    07 May 2022 12:51:29.633      8.2715623314    Earth           Penumbra    155           2157.6852841
07 May 2022 13:49:01.886    07 May 2022 13:49:10.112      8.2259024377    Earth           Penumbra    156           2157.6911006
07 May 2022 13:49:10.112    07 May 2022 14:24:51.305      2141.1933580    Earth           Umbra       156           2157.6911006
07 May 2022 14:24:51.305    07 May 2022 14:24:59.577      8.2718401914    Earth           Penumbra    156           2157.6911006
07 May 2022 15:22:31.862    07 May 2022 15:22:40.087      8.2257675938    Earth           Penumbra    157           2157.6812068
07 May 2022 15:22:40.087    07 May 2022 15:58:21.270      2141.1829093    Earth           Umbra       157           2157.6812068
07 May 2022 15:58:21.270    07 May 2022 15:58:29.543      8.2725298125    Earth           Penumbra    157           2157.6812068
07 May 2022 16:56:01.907    07 May 2022 16:56:10.132      8.2257697941    Earth           Penumbra    158           2157.6545825
07 May 2022 16:56:10.132    07 May 2022 17:31:51.288      2141.1553823    Earth           Umbra       158           2157.6545825
07 May 2022 17:31:51.288    07 May 2022 17:31:59.561      8.2734303433    Earth           Penumbra    158           2157.6545825
07 May 2022 18:29:31.996    07 May 2022 18:29:40.221      8.2258989802    Earth           Penumbra    159           2157.6140916
07 May 2022 18:29:40.221    07 May 2022 19:05:21.335      2141.1138705    Earth           Umbra       159           2157.6140916
07 May 2022 19:05:21.335    07 May 2022 19:05:29.610      8.2743220730    Earth           Penumbra    159           2157.6140916
07 May 2022 20:03:02.079    07 May 2022 20:03:10.305      8.2262516487    Earth           Penumbra    160           2157.5648676
07 May 2022 20:03:10.305    07 May 2022 20:38:51.368      2141.0633264    Earth           Umbra       160           2157.5648676
07 May 2022 20:38:51.368    07 May 2022 20:38:59.644      8.2752895541    Earth           Penumbra    160           2157.5648676
07 May 2022 21:36:32.140    07 May 2022 21:36:40.367      8.2269786741    Earth           Penumbra    161           2157.5101905
07 May 2022 21:36:40.367    07 May 2022 22:12:21.373      2141.0065857    Earth           Umbra       161           2157.5101905
07 May 2022 22:12:21.373    07 May 2022 22:12:29.650      8.2766260486    Earth           Penumbra    161           2157.5101905
07 May 2022 23:10:02.187    07 May 2022 23:10:10.416      8.2281589508    Earth           Penumbra    162           2157.4533090
07 May 2022 23:10:10.416    07 May 2022 23:45:51.362      2140.9466638    Earth           Umbra       162           2157.4533090
07 May 2022 23:45:51.362    07 May 2022 23:45:59.641      8.2784862025    Earth           Penumbra    162           2157.4533090
08 May 2022 00:43:32.224    08 May 2022 00:43:40.453      8.2297182991    Earth           Penumbra    163           2157.3963002
08 May 2022 00:43:40.453    08 May 2022 01:19:21.339      2140.8858313    Earth           Umbra       163           2157.3963002
08 May 2022 01:19:21.339    08 May 2022 01:19:29.620      8.2807505736    Earth           Penumbra    163           2157.3963002
