GMAT/Constellation/Eclipses/eclipse7.txt

Spacecraft: HSEYE7

Start Time (UTC)            Stop Time (UTC)               Duration (s)    Occ Body        Type        Event Number  Total Duration (s)
27 Apr 2022 11:59:28.000    27 Apr 2022 11:59:33.174      5.1736263209    Earth           Penumbra    1             1122.3177448
27 Apr 2022 11:59:33.174    27 Apr 2022 12:17:40.109      1086.9356513    Earth           Umbra       1             1122.3177448
27 Apr 2022 12:17:40.109    27 Apr 2022 12:18:10.318      30.208467145    Earth           Penumbra    1             1122.3177448
27 Apr 2022 13:32:49.185    27 Apr 2022 13:33:19.452      30.266603711    Earth           Penumbra    2             1150.2771086
27 Apr 2022 13:33:19.452    27 Apr 2022 13:51:29.367      1089.9159023    Earth           Umbra       2             1150.2771086
27 Apr 2022 13:51:29.367    27 Apr 2022 13:51:59.462      30.094602657    Earth           Penumbra    2             1150.2771086
27 Apr 2022 15:06:35.386    27 Apr 2022 15:07:05.539      30.152918072    Earth           Penumbra    3             1153.3772553
27 Apr 2022 15:07:05.539    27 Apr 2022 15:25:18.795      1093.2555322    Earth           Umbra       3             1153.3772553
27 Apr 2022 15:25:18.795    27 Apr 2022 15:25:48.763      29.968804959    Earth           Penumbra    3             1153.3772553
27 Apr 2022 16:40:21.380    27 Apr 2022 16:40:51.405      30.024551426    Earth           Penumbra    4             1156.8518831
27 Apr 2022 16:40:51.405    27 Apr 2022 16:59:08.404      1096.9985952    Earth           Umbra       4             1156.8518831
27 Apr 2022 16:59:08.404    27 Apr 2022 16:59:38.232      29.828736442    Earth           Penumbra    4             1156.8518831
27 Apr 2022 18:14:07.150    27 Apr 2022 18:14:37.034      29.883617267    Earth           Penumbra    5             1160.6828741
27 Apr 2022 18:14:37.034    27 Apr 2022 18:32:58.158      1101.1241911    Earth           Umbra       5             1160.6828741
27 Apr 2022 18:32:58.158    27 Apr 2022 18:33:27.833      29.675065668    Earth           Penumbra    5             1160.6828741
27 Apr 2022 19:47:52.660    27 Apr 2022 19:48:22.391      29.730682319    Earth           Penumbra    6             1164.8904610
27 Apr 2022 19:48:22.391    27 Apr 2022 20:06:48.043      1105.6515290    Earth           Umbra       6             1164.8904610
27 Apr 2022 20:06:48.043    27 Apr 2022 20:07:17.551      29.508249660    Earth           Penumbra    6             1164.8904610
27 Apr 2022 21:21:37.895    27 Apr 2022 21:22:07.457      29.562680062    Earth           Penumbra    7             1169.5480804
27 Apr 2022 21:22:07.457    27 Apr 2022 21:40:38.116      1110.6583761    Earth           Umbra       7             1169.5480804
27 Apr 2022 21:40:38.116    27 Apr 2022 21:41:07.443      29.327024217    Earth           Penumbra    7             1169.5480804
27 Apr 2022 22:55:22.905    27 Apr 2022 22:55:52.283      29.377977597    Earth           Penumbra    8             1174.6637808
27 Apr 2022 22:55:52.283    27 Apr 2022 23:14:28.438      1116.1544751    Earth           Umbra       8             1174.6637808
27 Apr 2022 23:14:28.438    27 Apr 2022 23:14:57.569      29.131328047    Earth           Penumbra    8             1174.6637808
28 Apr 2022 00:29:07.774    28 Apr 2022 00:29:36.956      29.181335005    Earth           Penumbra    9             1180.0968011
28 Apr 2022 00:29:36.956    28 Apr 2022 00:48:18.946      1121.9901339    Earth           Umbra       9             1180.0968011
28 Apr 2022 00:48:18.946    28 Apr 2022 00:48:47.871      28.925332194    Earth           Penumbra    9             1180.0968011
28 Apr 2022 02:02:52.519    28 Apr 2022 02:03:21.500      28.980835062    Earth           Penumbra    10            1185.6616230
28 Apr 2022 02:03:21.500    28 Apr 2022 02:22:09.465      1127.9654733    Earth           Umbra       10            1185.6616230
28 Apr 2022 02:22:09.465    28 Apr 2022 02:22:38.180      28.715314600    Earth           Penumbra    10            1185.6616230
28 Apr 2022 03:36:37.062    28 Apr 2022 03:37:05.842      28.779643297    Earth           Penumbra    11            1191.3179253
28 Apr 2022 03:37:05.842    28 Apr 2022 03:55:59.876      1134.0345371    Earth           Umbra       11            1191.3179253
28 Apr 2022 03:55:59.876    28 Apr 2022 03:56:28.380      28.503744886    Earth           Penumbra    11            1191.3179253
28 Apr 2022 05:10:21.299    28 Apr 2022 05:10:49.872      28.572936135    Earth           Penumbra    12            1197.2093821
28 Apr 2022 05:10:49.872    28 Apr 2022 05:29:50.222      1140.3497098    Earth           Umbra       12            1197.2093821
28 Apr 2022 05:29:50.222    28 Apr 2022 05:30:18.509      28.286736156    Earth           Penumbra    12            1197.2093821
28 Apr 2022 06:44:05.184    28 Apr 2022 06:44:33.538      28.354164376    Earth           Penumbra    13            1203.4940732
28 Apr 2022 06:44:33.538    28 Apr 2022 07:03:40.619      1147.0809934    Earth           Umbra       13            1203.4940732
28 Apr 2022 07:03:40.619    28 Apr 2022 07:04:08.678      28.058915399    Earth           Penumbra    13            1203.4940732
28 Apr 2022 08:17:48.774    28 Apr 2022 08:18:16.897      28.123131569    Earth           Penumbra    14            1210.1659076
28 Apr 2022 08:18:16.897    28 Apr 2022 08:37:31.119      1154.2224777    Earth           Umbra       14            1210.1659076
28 Apr 2022 08:37:31.119    28 Apr 2022 08:37:58.939      27.820298332    Earth           Penumbra    14            1210.1659076
28 Apr 2022 09:51:32.188    28 Apr 2022 09:52:00.075      27.886346995    Earth           Penumbra    15            1217.0680978
28 Apr 2022 09:52:00.075    28 Apr 2022 10:11:21.680      1161.6050515    Earth           Umbra       15            1217.0680978
28 Apr 2022 10:11:21.680    28 Apr 2022 10:11:49.256      27.576699271    Earth           Penumbra    15            1217.0680978
28 Apr 2022 11:25:15.521    28 Apr 2022 11:25:43.171      27.649973868    Earth           Penumbra    16            1224.0615087
28 Apr 2022 11:25:43.171    28 Apr 2022 11:45:12.249      1169.0779892    Earth           Umbra       16            1224.0615087
28 Apr 2022 11:45:12.249    28 Apr 2022 11:45:39.583      27.333545603    Earth           Penumbra    16            1224.0615087
28 Apr 2022 12:58:58.772    28 Apr 2022 12:59:26.187      27.414270560    Earth           Penumbra    17            1231.1422183
28 Apr 2022 12:59:26.187    28 Apr 2022 13:19:02.824      1176.6368451    Earth           Umbra       17            1231.1422183
28 Apr 2022 13:19:02.824    28 Apr 2022 13:19:29.915      27.091102616    Earth           Penumbra    17            1231.1422183
28 Apr 2022 14:32:41.885    28 Apr 2022 14:33:09.060      27.175416180    Earth           Penumbra    18            1238.3919590
28 Apr 2022 14:33:09.060    28 Apr 2022 14:52:53.430      1184.3702824    Earth           Umbra       18            1238.3919590
28 Apr 2022 14:52:53.430    28 Apr 2022 14:53:20.277      26.846260414    Earth           Penumbra    18            1238.3919590
28 Apr 2022 16:06:24.818    28 Apr 2022 16:06:51.749      26.931084436    Earth           Penumbra    19            1245.8557757
28 Apr 2022 16:06:51.749    28 Apr 2022 16:26:44.077      1192.3277452    Earth           Umbra       19            1245.8557757
28 Apr 2022 16:26:44.077    28 Apr 2022 16:27:10.674      26.596946048    Earth           Penumbra    19            1245.8557757
28 Apr 2022 17:40:07.559    28 Apr 2022 17:40:34.241      26.682407199    Earth           Penumbra    20            1253.5123457
28 Apr 2022 17:40:34.241    28 Apr 2022 18:00:34.728      1200.4866092    Earth           Umbra       20            1253.5123457
28 Apr 2022 18:00:34.728    28 Apr 2022 18:01:01.071      26.343329251    Earth           Penumbra    20            1253.5123457
28 Apr 2022 19:13:50.088    28 Apr 2022 19:14:16.519      26.430843549    Earth           Penumbra    21            1261.3548144
28 Apr 2022 19:14:16.519    28 Apr 2022 19:34:25.357      1208.8381220    Earth           Umbra       21            1261.3548144
28 Apr 2022 19:34:25.357    28 Apr 2022 19:34:51.443      26.085848815    Earth           Penumbra    21            1261.3548144
28 Apr 2022 20:47:32.395    28 Apr 2022 20:47:58.570      26.175409975    Earth           Penumbra    22            1269.4348969
28 Apr 2022 20:47:58.570    28 Apr 2022 21:08:16.005      1217.4353210    Earth           Umbra       22            1269.4348969
28 Apr 2022 21:08:16.005    28 Apr 2022 21:08:41.829      25.824165903    Earth           Penumbra    22            1269.4348969
28 Apr 2022 22:21:14.521    28 Apr 2022 22:21:40.436      25.914745464    Earth           Penumbra    23            1277.7778353
28 Apr 2022 22:21:40.436    28 Apr 2022 22:42:06.740      1226.3043821    Earth           Umbra       23            1277.7778353
28 Apr 2022 22:42:06.740    28 Apr 2022 22:42:32.299      25.558707677    Earth           Penumbra    23            1277.7778353
28 Apr 2022 23:54:56.543    28 Apr 2022 23:55:22.194      25.651026692    Earth           Penumbra    24            1286.2843588
28 Apr 2022 23:55:22.194    29 Apr 2022 00:15:57.535      1235.3411014    Earth           Umbra       24            1286.2843588
29 Apr 2022 00:15:57.535    29 Apr 2022 00:16:22.828      25.292230735    Earth           Penumbra    24            1286.2843588
29 Apr 2022 01:28:38.494    29 Apr 2022 01:29:03.883      25.389531429    Earth           Penumbra    25            1294.7859437
29 Apr 2022 01:29:03.883    29 Apr 2022 01:49:48.251      1244.3676963    Earth           Umbra       25            1294.7859437
29 Apr 2022 01:49:48.251    29 Apr 2022 01:50:13.280      25.028715958    Earth           Penumbra    25            1294.7859437
29 Apr 2022 03:02:20.320    29 Apr 2022 03:02:45.454      25.133481785    Earth           Penumbra    26            1303.2115081
29 Apr 2022 03:02:45.454    29 Apr 2022 03:23:38.762      1253.3079001    Earth           Umbra       26            1303.2115081
29 Apr 2022 03:23:38.762    29 Apr 2022 03:24:03.532      24.770126282    Earth           Penumbra    26            1303.2115081
29 Apr 2022 04:36:01.931    29 Apr 2022 04:36:26.812      24.880682223    Earth           Penumbra    27            1311.6552727
29 Apr 2022 04:36:26.812    29 Apr 2022 04:57:29.072      1262.2600524    Earth           Umbra       27            1311.6552727
29 Apr 2022 04:57:29.072    29 Apr 2022 04:57:53.587      24.514538061    Earth           Penumbra    27            1311.6552727
29 Apr 2022 06:09:43.273    29 Apr 2022 06:10:07.899      24.626458157    Earth           Penumbra    28            1320.2574558
29 Apr 2022 06:10:07.899    29 Apr 2022 06:31:19.272      1271.3726982    Earth           Umbra       28            1320.2574558
29 Apr 2022 06:31:19.272    29 Apr 2022 06:31:43.530      24.258299510    Earth           Penumbra    28            1320.2574558
29 Apr 2022 07:43:24.377    29 Apr 2022 07:43:48.747      24.369339191    Earth           Penumbra    29            1329.0463811
29 Apr 2022 07:43:48.747    29 Apr 2022 08:05:09.424      1280.6767452    Earth           Umbra       29            1329.0463811
29 Apr 2022 08:05:09.424    29 Apr 2022 08:05:33.424      24.000296672    Earth           Penumbra    29            1329.0463811
29 Apr 2022 09:17:05.349    29 Apr 2022 09:17:29.462      24.112572894    Earth           Penumbra    30            1337.9211465
29 Apr 2022 09:17:29.462    29 Apr 2022 09:38:59.527      1290.0652133    Earth           Umbra       30            1337.9211465
29 Apr 2022 09:38:59.527    29 Apr 2022 09:39:23.270      23.743360327    Earth           Penumbra    30            1337.9211465
29 Apr 2022 10:50:46.285    29 Apr 2022 10:51:10.146      23.860257072    Earth           Penumbra    31            1346.7695703
29 Apr 2022 10:51:10.146    29 Apr 2022 11:12:49.564      1299.4183115    Earth           Umbra       31            1346.7695703
29 Apr 2022 11:12:49.564    29 Apr 2022 11:13:13.055      23.491001758    Earth           Penumbra    31            1346.7695703
29 Apr 2022 12:24:27.201    29 Apr 2022 12:24:50.814      23.613132583    Earth           Penumbra    32            1355.5725338
29 Apr 2022 12:24:50.814    29 Apr 2022 12:46:39.530      1308.7156603    Earth           Umbra       32            1355.5725338
29 Apr 2022 12:46:39.530    29 Apr 2022 12:47:02.773      23.243740853    Earth           Penumbra    32            1355.5725338
29 Apr 2022 13:58:08.044    29 Apr 2022 13:58:31.412      23.368735146    Earth           Penumbra    33            1364.3900409
29 Apr 2022 13:58:31.412    29 Apr 2022 14:20:29.434      1318.0218551    Earth           Umbra       33            1364.3900409
29 Apr 2022 14:20:29.434    29 Apr 2022 14:20:52.434      22.999450599    Earth           Penumbra    33            1364.3900409
29 Apr 2022 15:31:48.764    29 Apr 2022 15:32:11.889      23.124771158    Earth           Penumbra    34            1373.2692333
29 Apr 2022 15:32:11.889    29 Apr 2022 15:54:19.277      1327.3881689    Earth           Umbra       34            1373.2692333
29 Apr 2022 15:54:19.277    29 Apr 2022 15:54:42.033      22.756293160    Earth           Penumbra    34            1373.2692333
29 Apr 2022 17:05:29.343    29 Apr 2022 17:05:52.224      22.881262307    Earth           Penumbra    35            1382.1975437
29 Apr 2022 17:05:52.224    29 Apr 2022 17:28:09.026      1336.8022605    Earth           Umbra       35            1382.1975437
29 Apr 2022 17:28:09.026    29 Apr 2022 17:28:31.540      22.514020849    Earth           Penumbra    35            1382.1975437
29 Apr 2022 18:39:09.768    29 Apr 2022 18:39:32.408      22.639298660    Earth           Penumbra    36            1391.1549977
29 Apr 2022 18:39:32.408    29 Apr 2022 19:01:58.651      1346.2429346    Earth           Umbra       36            1391.1549977
29 Apr 2022 19:01:58.651    29 Apr 2022 19:02:20.923      22.272764426    Earth           Penumbra    36            1391.1549977
29 Apr 2022 20:12:50.037    29 Apr 2022 20:13:12.436      22.398815153    Earth           Penumbra    37            1400.1740169
29 Apr 2022 20:13:12.436    29 Apr 2022 20:35:48.179      1355.7429802    Earth           Umbra       37            1400.1740169
29 Apr 2022 20:35:48.179    29 Apr 2022 20:36:10.211      22.032221511    Earth           Penumbra    37            1400.1740169
29 Apr 2022 21:46:30.185    29 Apr 2022 21:46:52.344      22.158854047    Earth           Penumbra    38            1409.2950365
29 Apr 2022 21:46:52.344    29 Apr 2022 22:09:37.687      1365.3435734    Earth           Umbra       38            1409.2950365
29 Apr 2022 22:09:37.687    29 Apr 2022 22:09:59.480      21.792608988    Earth           Penumbra    38            1409.2950365
29 Apr 2022 23:20:10.276    29 Apr 2022 23:20:32.196      21.919957234    Earth           Penumbra    39            1418.4685248
29 Apr 2022 23:20:32.196    29 Apr 2022 23:43:27.189      1374.9930314    Earth           Umbra       39            1418.4685248
29 Apr 2022 23:43:27.189    29 Apr 2022 23:43:48.745      21.555536182    Earth           Penumbra    39            1418.4685248
30 Apr 2022 00:53:50.342    30 Apr 2022 00:54:12.027      21.684930031    Earth           Penumbra    40            1427.5626020
30 Apr 2022 00:54:12.027    30 Apr 2022 01:17:16.581      1384.5543486    Earth           Umbra       40            1427.5626020
30 Apr 2022 01:17:16.581    30 Apr 2022 01:17:37.904      21.323323413    Earth           Penumbra    40            1427.5626020
30 Apr 2022 02:27:30.343    30 Apr 2022 02:27:51.799      21.456224774    Earth           Penumbra    41            1436.4950147
30 Apr 2022 02:27:51.799    30 Apr 2022 02:51:05.740      1393.9415732    Earth           Umbra       41            1436.4950147
30 Apr 2022 02:51:05.740    30 Apr 2022 02:51:26.838      21.097216650    Earth           Penumbra    41            1436.4950147
30 Apr 2022 04:01:10.203    30 Apr 2022 04:01:31.437      21.233146184    Earth           Penumbra    42            1445.3189858
30 Apr 2022 04:01:31.437    30 Apr 2022 04:24:54.646      1403.2094950    Earth           Umbra       42            1445.3189858
30 Apr 2022 04:24:54.646    30 Apr 2022 04:25:15.522      20.876344596    Earth           Penumbra    42            1445.3189858
30 Apr 2022 05:34:49.871    30 Apr 2022 05:35:10.883      21.012712922    Earth           Penumbra    43            1454.1499295
30 Apr 2022 05:35:10.883    30 Apr 2022 05:58:43.362      1412.4787382    Earth           Umbra       43            1454.1499295
30 Apr 2022 05:58:43.362    30 Apr 2022 05:59:04.021      20.658478397    Earth           Penumbra    43            1454.1499295
30 Apr 2022 07:08:29.358    30 Apr 2022 07:08:50.151      20.793164789    Earth           Penumbra    44            1463.0344041
30 Apr 2022 07:08:50.151    30 Apr 2022 07:32:31.950      1421.7990027    Earth           Umbra       44            1463.0344041
30 Apr 2022 07:32:31.950    30 Apr 2022 07:32:52.393      20.442236611    Earth           Penumbra    44            1463.0344041
30 Apr 2022 08:42:08.748    30 Apr 2022 08:42:29.324      20.575768186    Earth           Penumbra    45            1471.9178046
30 Apr 2022 08:42:29.324    30 Apr 2022 09:06:20.437      1431.1135144    Earth           Umbra       45            1471.9178046
30 Apr 2022 09:06:20.437    30 Apr 2022 09:06:40.666      20.228521968    Earth           Penumbra    45            1471.9178046
30 Apr 2022 10:15:48.132    30 Apr 2022 10:16:08.495      20.362966647    Earth           Penumbra    46            1480.7212964
30 Apr 2022 10:16:08.495    30 Apr 2022 10:40:08.834      1440.3389887    Earth           Umbra       46            1480.7212964
30 Apr 2022 10:40:08.834    30 Apr 2022 10:40:28.853      20.019341097    Earth           Penumbra    46            1480.7212964
30 Apr 2022 11:49:27.538    30 Apr 2022 11:49:47.693      20.155540318    Earth           Penumbra    47            1489.4219882
30 Apr 2022 11:49:47.693    30 Apr 2022 12:13:57.144      1449.4510929    Earth           Umbra       47            1489.4219882
30 Apr 2022 12:13:57.144    30 Apr 2022 12:14:16.960      19.815355015    Earth           Penumbra    47            1489.4219882
30 Apr 2022 13:23:06.921    30 Apr 2022 13:23:26.873      19.952046778    Earth           Penumbra    48            1498.0583340
30 Apr 2022 13:23:26.873    30 Apr 2022 13:47:45.364      1458.4910091    Earth           Umbra       48            1498.0583340
30 Apr 2022 13:47:45.364    30 Apr 2022 13:48:04.980      19.615278149    Earth           Penumbra    48            1498.0583340
30 Apr 2022 14:56:46.229    30 Apr 2022 14:57:05.979      19.750672707    Earth           Penumbra    49            1506.6719477
30 Apr 2022 14:57:05.979    30 Apr 2022 15:21:33.483      1467.5036761    Earth           Umbra       49            1506.6719477
30 Apr 2022 15:21:33.483    30 Apr 2022 15:21:52.900      19.417598925    Earth           Penumbra    49            1506.6719477
30 Apr 2022 16:30:25.433    30 Apr 2022 16:30:44.984      19.550943794    Earth           Penumbra    50            1515.2596338
30 Apr 2022 16:30:44.984    30 Apr 2022 16:55:21.470      1476.4867926    Earth           Umbra       50            1515.2596338
30 Apr 2022 16:55:21.470    30 Apr 2022 16:55:40.692      19.221897412    Earth           Penumbra    50            1515.2596338
30 Apr 2022 18:04:04.523    30 Apr 2022 18:04:23.877      19.353492139    Earth           Penumbra    51            1523.7976583
30 Apr 2022 18:04:23.877    30 Apr 2022 18:29:09.293      1485.4158988    Earth           Umbra       51            1523.7976583
30 Apr 2022 18:29:09.293    30 Apr 2022 18:29:28.321      19.028267276    Earth           Penumbra    51            1523.7976583
30 Apr 2022 19:37:43.503    30 Apr 2022 19:38:02.662      19.158599374    Earth           Penumbra    52            1532.3013733
30 Apr 2022 19:38:02.662    30 Apr 2022 20:02:56.968      1494.3062691    Earth           Umbra       52            1532.3013733
30 Apr 2022 20:02:56.968    30 Apr 2022 20:03:15.804      18.836504838    Earth           Penumbra    52            1532.3013733
30 Apr 2022 21:11:22.406    30 Apr 2022 21:11:41.371      18.965744984    Earth           Penumbra    53            1540.8157935
30 Apr 2022 21:11:41.371    30 Apr 2022 21:36:44.575      1503.2034734    Earth           Umbra       53            1540.8157935
30 Apr 2022 21:36:44.575    30 Apr 2022 21:37:03.221      18.646575208    Earth           Penumbra    53            1540.8157935
30 Apr 2022 22:45:01.286    30 Apr 2022 22:45:20.061      18.774845044    Earth           Penumbra    54            1549.3308386
30 Apr 2022 22:45:20.061    30 Apr 2022 23:10:32.157      1512.0966112    Earth           Umbra       54            1549.3308386
30 Apr 2022 23:10:32.157    30 Apr 2022 23:10:50.617      18.459382374    Earth           Penumbra    54            1549.3308386
01 May 2022 00:18:40.168    01 May 2022 00:18:58.756      18.587271252    Earth           Penumbra    55            1557.7528817
01 May 2022 00:18:58.756    01 May 2022 00:44:19.645      1520.8892552    Earth           Umbra       55            1557.7528817
01 May 2022 00:44:19.645    01 May 2022 00:44:37.921      18.276355241    Earth           Penumbra    55            1557.7528817
01 May 2022 01:52:19.021    01 May 2022 01:52:37.426      18.404748919    Earth           Penumbra    56            1565.9992757
01 May 2022 01:52:37.426    01 May 2022 02:18:06.922      1529.4961689    Earth           Umbra       56            1565.9992757
01 May 2022 02:18:06.922    01 May 2022 02:18:25.020      18.098357879    Earth           Penumbra    56            1565.9992757
01 May 2022 03:25:57.782    01 May 2022 03:26:16.009      18.227333995    Earth           Penumbra    57            1574.0921972
01 May 2022 03:26:16.009    01 May 2022 03:51:53.949      1537.9397967    Earth           Umbra       57            1574.0921972
01 May 2022 03:51:53.949    01 May 2022 03:52:11.874      17.925066536    Earth           Penumbra    57            1574.0921972
01 May 2022 04:59:36.402    01 May 2022 04:59:54.455      18.053256848    Earth           Penumbra    58            1582.1223567
01 May 2022 04:59:54.455    01 May 2022 05:25:40.769      1546.3138680    Earth           Umbra       58            1582.1223567
01 May 2022 05:25:40.769    01 May 2022 05:25:58.524      17.755231785    Earth           Penumbra    58            1582.1223567
01 May 2022 06:33:14.884    01 May 2022 06:33:32.765      17.880978563    Earth           Penumbra    59            1590.1412515
01 May 2022 06:33:32.765    01 May 2022 06:59:27.437      1554.6725675    Earth           Umbra       59            1590.1412515
01 May 2022 06:59:27.437    01 May 2022 06:59:45.025      17.587705411    Earth           Penumbra    59            1590.1412515
01 May 2022 08:06:53.289    01 May 2022 08:07:11.000      17.710814718    Earth           Penumbra    60            1598.1224817
01 May 2022 08:07:11.000    01 May 2022 08:33:13.989      1562.9891875    Earth           Umbra       60            1598.1224817
01 May 2022 08:33:13.989    01 May 2022 08:33:31.412      17.422479554    Earth           Penumbra    60            1598.1224817
01 May 2022 09:40:31.703    01 May 2022 09:40:49.247      17.544208677    Earth           Penumbra    61            1606.0134735
01 May 2022 09:40:49.247    01 May 2022 10:07:00.456      1571.2086969    Earth           Umbra       61            1606.0134735
01 May 2022 10:07:00.456    01 May 2022 10:07:17.716      17.260567902    Earth           Penumbra    61            1606.0134735
01 May 2022 11:14:10.160    01 May 2022 11:14:27.542      17.381855089    Earth           Penumbra    62            1613.7941504
01 May 2022 11:14:27.542    01 May 2022 11:40:46.851      1579.3096664    Earth           Umbra       62            1613.7941504
01 May 2022 11:40:46.851    01 May 2022 11:41:03.954      17.102628958    Earth           Penumbra    62            1613.7941504
01 May 2022 12:47:48.628    01 May 2022 12:48:05.851      17.222962494    Earth           Penumbra    63            1621.4867482
01 May 2022 12:48:05.851    01 May 2022 13:14:33.166      1587.3157488    Earth           Umbra       63            1621.4867482
01 May 2022 13:14:33.166    01 May 2022 13:14:50.115      16.948036908    Earth           Penumbra    63            1621.4867482
01 May 2022 14:21:27.051    01 May 2022 14:21:44.117      17.066207912    Earth           Penumbra    64            1629.1226653
01 May 2022 14:21:44.117    01 May 2022 14:48:19.378      1595.2608145    Earth           Umbra       64            1629.1226653
01 May 2022 14:48:19.378    01 May 2022 14:48:36.173      16.795642907    Earth           Penumbra    64            1629.1226653
01 May 2022 15:55:05.396    01 May 2022 15:55:22.307      16.911003878    Earth           Penumbra    65            1636.7040637
01 May 2022 15:55:22.307    01 May 2022 16:22:05.455      1603.1481032    Earth           Umbra       65            1636.7040637
01 May 2022 16:22:05.455    01 May 2022 16:22:22.100      16.644956614    Earth           Penumbra    65            1636.7040637
01 May 2022 17:28:43.651    01 May 2022 17:29:00.409      16.757678229    Earth           Penumbra    66            1644.2089076
01 May 2022 17:29:00.409    01 May 2022 17:55:51.364      1610.9551454    Earth           Umbra       66            1644.2089076
01 May 2022 17:55:51.364    01 May 2022 17:56:07.860      16.496083955    Earth           Penumbra    66            1644.2089076
01 May 2022 19:02:21.822    01 May 2022 19:02:38.429      16.606600292    Earth           Penumbra    67            1651.6397253
01 May 2022 19:02:38.429    01 May 2022 19:29:37.113      1618.6841312    Earth           Umbra       67            1651.6397253
01 May 2022 19:29:37.113    01 May 2022 19:29:53.462      16.348993813    Earth           Penumbra    67            1651.6397253
01 May 2022 20:35:59.944    01 May 2022 20:36:16.402      16.457561357    Earth           Penumbra    68            1659.0372668
01 May 2022 20:36:16.402    01 May 2022 21:03:22.778      1626.3761290    Earth           Umbra       68            1659.0372668
01 May 2022 21:03:22.778    01 May 2022 21:03:38.981      16.203576489    Earth           Penumbra    68            1659.0372668
01 May 2022 22:09:38.065    01 May 2022 22:09:54.375      16.310330399    Earth           Penumbra    69            1666.4163400
01 May 2022 22:09:54.375    01 May 2022 22:37:08.421      1634.0457448    Earth           Umbra       69            1666.4163400
01 May 2022 22:37:08.421    01 May 2022 22:37:24.481      16.060264804    Earth           Penumbra    69            1666.4163400
01 May 2022 23:43:16.204    01 May 2022 23:43:32.370      16.165534174    Earth           Penumbra    70            1673.7165899
01 May 2022 23:43:32.370    02 May 2022 00:10:54.001      1641.6310770    Earth           Umbra       70            1673.7165899
02 May 2022 00:10:54.001    02 May 2022 00:11:09.921      15.919978777    Earth           Penumbra    70            1673.7165899
02 May 2022 01:16:54.333    02 May 2022 01:17:10.357      16.024353274    Earth           Penumbra    71            1680.8616198
02 May 2022 01:17:10.357    02 May 2022 01:44:39.411      1649.0538823    Earth           Umbra       71            1680.8616198
02 May 2022 01:44:39.411    02 May 2022 01:44:55.195      15.783384140    Earth           Penumbra    71            1680.8616198
02 May 2022 02:50:32.398    02 May 2022 02:50:48.285      15.887161740    Earth           Penumbra    72            1687.8515631
02 May 2022 02:50:48.285    02 May 2022 03:18:24.599      1656.3139582    Earth           Umbra       72            1687.8515631
02 May 2022 03:18:24.599    02 May 2022 03:18:40.250      15.650443174    Earth           Penumbra    72            1687.8515631
02 May 2022 04:24:10.358    02 May 2022 04:24:26.111      15.752974176    Earth           Penumbra    73            1694.7555534
02 May 2022 04:24:26.111    02 May 2022 04:52:09.594      1663.4820888    Earth           Umbra       73            1694.7555534
02 May 2022 04:52:09.594    02 May 2022 04:52:25.114      15.520490461    Earth           Penumbra    73            1694.7555534
02 May 2022 05:57:48.208    02 May 2022 05:58:03.829      15.620577300    Earth           Penumbra    74            1701.6237189
02 May 2022 05:58:03.829    02 May 2022 06:25:54.439      1670.6104313    Earth           Umbra       74            1701.6237189
02 May 2022 06:25:54.439    02 May 2022 06:26:09.832      15.392710338    Earth           Penumbra    74            1701.6237189
02 May 2022 07:31:25.995    02 May 2022 07:31:41.485      15.489864559    Earth           Penumbra    75            1708.4447485
02 May 2022 07:31:41.485    02 May 2022 07:59:39.173      1677.6881149    Earth           Umbra       75            1708.4447485
02 May 2022 07:59:39.173    02 May 2022 07:59:54.440      15.266768995    Earth           Penumbra    75            1708.4447485
02 May 2022 09:05:03.793    02 May 2022 09:05:19.155      15.361693106    Earth           Penumbra    76            1715.1829374
02 May 2022 09:05:19.155    02 May 2022 09:33:23.833      1684.6781743    Earth           Umbra       76            1715.1829374
02 May 2022 09:33:23.833    02 May 2022 09:33:38.976      15.143070021    Earth           Penumbra    76            1715.1829374
02 May 2022 10:38:41.645    02 May 2022 10:38:56.881      15.236648836    Earth           Penumbra    77            1721.8231033
02 May 2022 10:38:56.881    02 May 2022 11:07:08.446      1691.5643130    Earth           Umbra       77            1721.8231033
02 May 2022 11:07:08.446    02 May 2022 11:07:23.468      15.022141475    Earth           Penumbra    77            1721.8231033
02 May 2022 12:12:19.528    02 May 2022 12:12:34.642      15.114309301    Earth           Penumbra    78            1728.3777898
02 May 2022 12:12:34.642    02 May 2022 12:40:53.002      1698.3597065    Earth           Umbra       78            1728.3777898
02 May 2022 12:40:53.002    02 May 2022 12:41:07.905      14.903774019    Earth           Penumbra    78            1728.3777898
02 May 2022 13:45:57.388    02 May 2022 13:46:12.381      14.993740339    Earth           Penumbra    79            1734.8679521
02 May 2022 13:46:12.381    02 May 2022 14:14:37.468      1705.0870472    Earth           Umbra       79            1734.8679521
02 May 2022 14:14:37.468    02 May 2022 14:14:52.255      14.787164563    Earth           Penumbra    79            1734.8679521
02 May 2022 15:19:35.186    02 May 2022 15:19:50.060      14.874379314    Earth           Penumbra    80            1741.2971081
02 May 2022 15:19:50.060    02 May 2022 15:48:21.811      1711.7509227    Earth           Umbra       80            1741.2971081
02 May 2022 15:48:21.811    02 May 2022 15:48:36.483      14.671806106    Earth           Penumbra    80            1741.2971081
02 May 2022 16:53:12.909    02 May 2022 16:53:27.665      14.756367984    Earth           Penumbra    81            1747.6471469
02 May 2022 16:53:27.665    02 May 2022 17:22:05.998      1718.3329998    Earth           Umbra       81            1747.6471469
02 May 2022 17:22:05.998    02 May 2022 17:22:20.556      14.557779115    Earth           Penumbra    81            1747.6471469
02 May 2022 18:26:50.563    02 May 2022 18:27:05.203      14.640052419    Earth           Penumbra    82            1753.9128791
02 May 2022 18:27:05.203    02 May 2022 18:55:50.030      1724.8276308    Earth           Umbra       82            1753.9128791
02 May 2022 18:55:50.030    02 May 2022 18:56:04.476      14.445195801    Earth           Penumbra    82            1753.9128791
02 May 2022 20:00:28.183    02 May 2022 20:00:42.709      14.525419730    Earth           Penumbra    83            1760.1267274
02 May 2022 20:00:42.709    02 May 2022 20:29:33.976      1731.2673355    Earth           Umbra       83            1760.1267274
02 May 2022 20:29:33.976    02 May 2022 20:29:48.310      14.333972242    Earth           Penumbra    83            1760.1267274
02 May 2022 21:34:05.816    02 May 2022 21:34:20.229      14.412257751    Earth           Penumbra    84            1766.3161644
02 May 2022 21:34:20.229    02 May 2022 22:03:17.908      1737.6796492    Earth           Umbra       84            1766.3161644
02 May 2022 22:03:17.908    02 May 2022 22:03:32.132      14.224257425    Earth           Penumbra    84            1766.3161644
02 May 2022 23:07:43.478    02 May 2022 23:07:57.779      14.300811337    Earth           Penumbra    85            1772.4472390
02 May 2022 23:07:57.779    02 May 2022 23:37:01.809      1744.0297955    Earth           Umbra       85            1772.4472390
02 May 2022 23:37:01.809    02 May 2022 23:37:15.925      14.116632217    Earth           Penumbra    85            1772.4472390
03 May 2022 00:41:21.140    03 May 2022 00:41:35.332      14.191875409    Earth           Penumbra    86            1778.4538116
03 May 2022 00:41:35.332    03 May 2022 01:10:45.582      1750.2502980    Earth           Umbra       86            1778.4538116
03 May 2022 01:10:45.582    03 May 2022 01:10:59.594      14.011638192    Earth           Penumbra    86            1778.4538116
03 May 2022 02:14:58.756    03 May 2022 02:15:12.842      14.085923648    Earth           Penumbra    87            1784.3214536
03 May 2022 02:15:12.842    03 May 2022 02:44:29.168      1756.3261546    Earth           Umbra       87            1784.3214536
03 May 2022 02:44:29.168    03 May 2022 02:44:43.078      13.909375307    Earth           Penumbra    87            1784.3214536
03 May 2022 03:48:36.291    03 May 2022 03:48:50.273      13.982458168    Earth           Penumbra    88            1790.1012644
03 May 2022 03:48:50.273    03 May 2022 04:18:12.582      1762.3092964    Earth           Umbra       88            1790.1012644
03 May 2022 04:18:12.582    03 May 2022 04:18:26.392      13.809509750    Earth           Penumbra    88            1790.1012644
03 May 2022 05:22:13.735    03 May 2022 05:22:27.615      13.880560838    Earth           Penumbra    89            1795.8397699
03 May 2022 05:22:27.615    03 May 2022 05:51:55.863      1768.2477094    Earth           Umbra       89            1795.8397699
03 May 2022 05:51:55.863    03 May 2022 05:52:09.574      13.711499632    Earth           Penumbra    89            1795.8397699
03 May 2022 06:55:51.123    03 May 2022 06:56:04.903      13.779950340    Earth           Penumbra    90            1801.5337112
03 May 2022 06:56:04.903    03 May 2022 07:25:39.041      1774.1387988    Earth           Umbra       90            1801.5337112
03 May 2022 07:25:39.041    03 May 2022 07:25:52.656      13.614962110    Earth           Penumbra    90            1801.5337112
03 May 2022 08:29:28.521    03 May 2022 08:29:42.202      13.681128644    Earth           Penumbra    91            1807.1570723
03 May 2022 08:29:42.202    03 May 2022 08:59:22.158      1779.9559852    Earth           Umbra       91            1807.1570723
03 May 2022 08:59:22.158    03 May 2022 08:59:35.678      13.519958477    Earth           Penumbra    91            1807.1570723
03 May 2022 10:03:05.977    03 May 2022 10:03:19.562      13.584573520    Earth           Penumbra    92            1812.6988689
03 May 2022 10:03:19.562    03 May 2022 10:33:05.249      1785.6874622    Earth           Umbra       92            1812.6988689
03 May 2022 10:33:05.249    03 May 2022 10:33:18.676      13.426833227    Earth           Penumbra    92            1812.6988689
03 May 2022 11:36:43.477    03 May 2022 11:36:56.967      13.490080659    Earth           Penumbra    93            1818.1669147
03 May 2022 11:36:56.967    03 May 2022 12:06:48.308      1791.3412354    Earth           Umbra       93            1818.1669147
03 May 2022 12:06:48.308    03 May 2022 12:07:01.644      13.335598621    Earth           Penumbra    93            1818.1669147
03 May 2022 13:10:20.970    03 May 2022 13:10:34.367      13.396973955    Earth           Penumbra    94            1823.5739159
03 May 2022 13:10:34.367    03 May 2022 13:40:31.298      1796.9312150    Earth           Umbra       94            1823.5739159
03 May 2022 13:40:31.298    03 May 2022 13:40:44.544      13.245726912    Earth           Penumbra    94            1823.5739159
03 May 2022 14:43:58.414    03 May 2022 14:44:11.718      13.304767152    Earth           Penumbra    95            1828.9222492
03 May 2022 14:44:11.718    03 May 2022 15:14:14.179      1802.4607314    Earth           Umbra       95            1828.9222492
03 May 2022 15:14:14.179    03 May 2022 15:14:27.336      13.156750705    Earth           Penumbra    95            1828.9222492
03 May 2022 16:17:35.790    03 May 2022 16:17:49.003      13.213491370    Earth           Penumbra    96            1834.1978581
03 May 2022 16:17:49.003    03 May 2022 16:47:56.919      1807.9156662    Earth           Umbra       96            1834.1978581
03 May 2022 16:47:56.919    03 May 2022 16:48:09.988      13.068700489    Earth           Penumbra    96            1834.1978581
03 May 2022 17:51:13.106    03 May 2022 17:51:26.229      13.123437669    Earth           Penumbra    97            1839.3920693
03 May 2022 17:51:26.229    03 May 2022 18:21:39.516      1813.2868705    Earth           Umbra       97            1839.3920693
03 May 2022 18:21:39.516    03 May 2022 18:21:52.498      12.981761084    Earth           Penumbra    97            1839.3920693
03 May 2022 19:24:50.398    03 May 2022 19:25:03.432      13.034696574    Earth           Penumbra    98            1844.5284363
03 May 2022 19:25:03.432    03 May 2022 19:55:22.030      1818.5978220    Earth           Umbra       98            1844.5284363
03 May 2022 19:55:22.030    03 May 2022 19:55:34.926      12.895917718    Earth           Penumbra    98            1844.5284363
03 May 2022 20:58:27.710    03 May 2022 20:58:40.657      12.947112496    Earth           Penumbra    99            1849.6386882
03 May 2022 20:58:40.657    03 May 2022 21:29:04.538      1823.8804050    Earth           Umbra       99            1849.6386882
03 May 2022 21:29:04.538    03 May 2022 21:29:17.349      12.811170705    Earth           Penumbra    99            1849.6386882
03 May 2022 22:32:05.059    03 May 2022 22:32:17.919      12.860747357    Earth           Penumbra    100           1854.7084200
03 May 2022 22:32:17.919    03 May 2022 23:02:47.039      1829.1198272    Earth           Umbra       100           1854.7084200
03 May 2022 23:02:47.039    03 May 2022 23:02:59.767      12.727845367    Earth           Penumbra    100           1854.7084200
04 May 2022 00:05:42.414    04 May 2022 00:05:55.190      12.776125758    Earth           Penumbra    101           1859.6836419
04 May 2022 00:05:55.190    04 May 2022 00:36:29.452      1834.2611284    Earth           Umbra       101           1859.6836419
04 May 2022 00:36:29.452    04 May 2022 00:36:42.098      12.646387727    Earth           Penumbra    101           1859.6836419
04 May 2022 01:39:19.735    04 May 2022 01:39:32.429      12.693718239    Earth           Penumbra    102           1864.5413548
04 May 2022 01:39:32.429    04 May 2022 02:10:11.709      1839.2806578    Earth           Umbra       102           1864.5413548
04 May 2022 02:10:11.709    04 May 2022 02:10:24.276      12.566978834    Earth           Penumbra    102           1864.5413548
04 May 2022 03:12:56.990    04 May 2022 03:13:09.603      12.613324262    Earth           Penumbra    103           1869.3177428
04 May 2022 03:13:09.603    04 May 2022 03:43:53.818      1844.2149566    Earth           Umbra       103           1869.3177428
04 May 2022 03:43:53.818    04 May 2022 03:44:06.307      12.489461841    Earth           Penumbra    103           1869.3177428
04 May 2022 04:46:34.169    04 May 2022 04:46:46.703      12.534267723    Earth           Penumbra    104           1874.0550162
04 May 2022 04:46:46.703    04 May 2022 05:17:35.810      1849.1072600    Earth           Umbra       104           1874.0550162
04 May 2022 05:17:35.810    04 May 2022 05:17:48.224      12.413488480    Earth           Penumbra    104           1874.0550162
04 May 2022 06:20:11.297    04 May 2022 06:20:23.753      12.456205697    Earth           Penumbra    105           1878.7546890
04 May 2022 06:20:23.753    04 May 2022 06:51:17.713      1853.9597696    Earth           Umbra       105           1878.7546890
04 May 2022 06:51:17.713    04 May 2022 06:51:30.052      12.338713626    Earth           Penumbra    105           1878.7546890
04 May 2022 07:53:48.433    04 May 2022 07:54:00.812      12.379415415    Earth           Penumbra    106           1883.3960740
04 May 2022 07:54:00.812    04 May 2022 08:24:59.564      1858.7516178    Earth           Umbra       106           1883.3960740
04 May 2022 08:24:59.564    04 May 2022 08:25:11.829      12.265040784    Earth           Penumbra    106           1883.3960740
04 May 2022 09:27:25.625    04 May 2022 09:27:37.930      12.304283807    Earth           Penumbra    107           1887.9707345
04 May 2022 09:27:37.930    04 May 2022 09:58:41.403      1863.4737953    Earth           Umbra       107           1887.9707345
04 May 2022 09:58:41.403    04 May 2022 09:58:53.596      12.192655401    Earth           Penumbra    107           1887.9707345
04 May 2022 11:01:02.871    04 May 2022 11:01:15.101      12.230726320    Earth           Penumbra    108           1892.4846031
04 May 2022 11:01:15.101    04 May 2022 11:32:23.234      1868.1322335    Earth           Umbra       108           1892.4846031
04 May 2022 11:32:23.234    04 May 2022 11:32:35.355      12.121643289    Earth           Penumbra    108           1892.4846031
04 May 2022 12:34:40.122    04 May 2022 12:34:52.280      12.158250413    Earth           Penumbra    109           1896.9449082
04 May 2022 12:34:52.280    04 May 2022 13:06:05.015      1872.7349683    Earth           Umbra       109           1896.9449082
04 May 2022 13:06:05.015    04 May 2022 13:06:17.067      12.051689497    Earth           Penumbra    109           1896.9449082
04 May 2022 14:08:17.333    04 May 2022 14:08:29.419      12.086440553    Earth           Penumbra    110           1901.3518208
04 May 2022 14:08:29.419    04 May 2022 14:39:46.702      1877.2829863    Earth           Umbra       110           1901.3518208
04 May 2022 14:39:46.702    04 May 2022 14:39:58.685      11.982393893    Earth           Penumbra    110           1901.3518208
04 May 2022 15:41:54.482    04 May 2022 15:42:06.498      12.015268765    Earth           Penumbra    111           1905.6944876
04 May 2022 15:42:06.498    04 May 2022 16:13:28.263      1881.7654985    Earth           Umbra       111           1905.6944876
04 May 2022 16:13:28.263    04 May 2022 16:13:40.177      11.913720332    Earth           Penumbra    111           1905.6944876
04 May 2022 17:15:31.576    04 May 2022 17:15:43.521      11.944963248    Earth           Penumbra    112           1909.9635807
04 May 2022 17:15:43.521    04 May 2022 17:47:09.694      1886.1727236    Earth           Umbra       112           1909.9635807
04 May 2022 17:47:09.694    04 May 2022 17:47:21.540      11.845893867    Earth           Penumbra    112           1909.9635807
04 May 2022 18:49:08.650    04 May 2022 18:49:20.526      11.875666387    Earth           Penumbra    113           1914.1750363
04 May 2022 18:49:20.526    04 May 2022 19:20:51.046      1890.5204042    Earth           Umbra       113           1914.1750363
04 May 2022 19:20:51.046    04 May 2022 19:21:02.825      11.778965732    Earth           Penumbra    113           1914.1750363
04 May 2022 20:22:45.750    04 May 2022 20:22:57.558      11.807280744    Earth           Penumbra    114           1918.3597174
04 May 2022 20:22:57.558    04 May 2022 20:54:32.397      1894.8395702    Earth           Umbra       114           1918.3597174
04 May 2022 20:54:32.397    04 May 2022 20:54:44.110      11.712866463    Earth           Penumbra    114           1918.3597174
04 May 2022 21:56:22.892    04 May 2022 21:56:34.632      11.739783688    Earth           Penumbra    115           1922.5167275
04 May 2022 21:56:34.632    04 May 2022 22:28:13.761      1899.1291997    Earth           Umbra       115           1922.5167275
04 May 2022 22:28:13.761    04 May 2022 22:28:25.409      11.647744104    Earth           Penumbra    115           1922.5167275
04 May 2022 23:30:00.046    04 May 2022 23:30:11.719      11.673510913    Earth           Penumbra    116           1926.6045360
04 May 2022 23:30:11.719    05 May 2022 00:01:55.066      1903.3470775    Earth           Umbra       116           1926.6045360
05 May 2022 00:01:55.066    05 May 2022 00:02:06.650      11.583947553    Earth           Penumbra    116           1926.6045360
05 May 2022 01:03:37.172    05 May 2022 01:03:48.781      11.608887697    Earth           Penumbra    117           1930.5961961
05 May 2022 01:03:48.781    05 May 2022 01:35:36.247      1907.4656015    Earth           Umbra       117           1930.5961961
05 May 2022 01:35:36.247    05 May 2022 01:35:47.768      11.521706893    Earth           Penumbra    117           1930.5961961
05 May 2022 02:37:14.244    05 May 2022 02:37:25.790      11.545895180    Earth           Penumbra    118           1934.5157138
05 May 2022 02:37:25.790    05 May 2022 03:09:17.298      1911.5088455    Earth           Umbra       118           1934.5157138
05 May 2022 03:09:17.298    05 May 2022 03:09:28.759      11.460973090    Earth           Penumbra    118           1934.5157138
05 May 2022 04:10:51.251    05 May 2022 04:11:02.735      11.484051507    Earth           Penumbra    119           1938.4006712
05 May 2022 04:11:02.735    05 May 2022 04:42:58.250      1915.5151024    Earth           Umbra       119           1938.4006712
05 May 2022 04:42:58.250    05 May 2022 04:43:09.652      11.401517317    Earth           Penumbra    119           1938.4006712
05 May 2022 05:44:28.211    05 May 2022 05:44:39.634      11.422994896    Earth           Penumbra    120           1942.2558514
05 May 2022 05:44:39.634    05 May 2022 06:16:39.124      1919.4897976    Earth           Umbra       120           1942.2558514
05 May 2022 06:16:39.124    05 May 2022 06:16:50.467      11.343058886    Earth           Penumbra    120           1942.2558514
05 May 2022 07:18:05.175    05 May 2022 07:18:16.538      11.362862703    Earth           Penumbra    121           1946.0636473
05 May 2022 07:18:16.538    05 May 2022 07:50:19.953      1923.4153459    Earth           Umbra       121           1946.0636473
05 May 2022 07:50:19.953    05 May 2022 07:50:31.239      11.285438749    Earth           Penumbra    121           1946.0636473
05 May 2022 08:51:42.193    05 May 2022 08:51:53.497      11.303965794    Earth           Penumbra    122           1949.8165587
05 May 2022 08:51:53.497    05 May 2022 09:24:00.781      1927.2838725    Earth           Umbra       122           1949.8165587
05 May 2022 09:24:00.781    05 May 2022 09:24:12.010      11.228720401    Earth           Penumbra    122           1949.8165587
05 May 2022 10:25:19.271    05 May 2022 10:25:30.517      11.246288451    Earth           Penumbra    123           1953.5199238
05 May 2022 10:25:30.517    05 May 2022 10:57:41.618      1931.1006275    Earth           Umbra       123           1953.5199238
05 May 2022 10:57:41.618    05 May 2022 10:57:52.791      11.173007882    Earth           Penumbra    123           1953.5199238
05 May 2022 11:58:56.364    05 May 2022 11:59:07.553      11.189465749    Earth           Penumbra    124           1957.1778875
05 May 2022 11:59:07.553    05 May 2022 12:31:22.424      1934.8703069    Earth           Umbra       124           1957.1778875
05 May 2022 12:31:22.424    05 May 2022 12:31:33.542      11.118114798    Earth           Penumbra    124           1957.1778875
05 May 2022 13:32:33.425    05 May 2022 13:32:44.558      11.133139359    Earth           Penumbra    125           1960.7883091
05 May 2022 13:32:44.558    05 May 2022 14:05:03.150      1938.5914536    Earth           Umbra       125           1960.7883091
05 May 2022 14:05:03.150    05 May 2022 14:05:14.213      11.063716142    Earth           Penumbra    125           1960.7883091
05 May 2022 15:06:10.429    05 May 2022 15:06:21.507      11.077248305    Earth           Penumbra    126           1964.3424505
05 May 2022 15:06:21.507    05 May 2022 15:38:43.762      1942.2554591    Earth           Umbra       126           1964.3424505
05 May 2022 15:38:43.762    05 May 2022 15:38:54.772      11.009743076    Earth           Penumbra    126           1964.3424505
05 May 2022 16:39:47.380    05 May 2022 16:39:58.402      11.021978979    Earth           Penumbra    127           1967.8319077
05 May 2022 16:39:58.402    05 May 2022 17:12:24.256      1945.8535216    Earth           Umbra       127           1967.8319077
05 May 2022 17:12:24.256    05 May 2022 17:12:35.212      10.956407140    Earth           Penumbra    127           1967.8319077
05 May 2022 18:13:24.313    05 May 2022 18:13:35.280      10.967476910    Earth           Penumbra    128           1971.2668692
05 May 2022 18:13:35.280    05 May 2022 18:46:04.676      1949.3955692    Earth           Umbra       128           1971.2668692
05 May 2022 18:46:04.676    05 May 2022 18:46:15.580      10.903823061    Earth           Penumbra    128           1971.2668692
05 May 2022 19:47:01.275    05 May 2022 19:47:12.188      10.913702182    Earth           Penumbra    129           1974.6746019
05 May 2022 19:47:12.188    05 May 2022 20:19:45.097      1952.9089972    Earth           Umbra       129           1974.6746019
05 May 2022 20:19:45.097    05 May 2022 20:19:55.949      10.851902515    Earth           Penumbra    129           1974.6746019
05 May 2022 21:20:38.282    05 May 2022 21:20:49.143      10.860596644    Earth           Penumbra    130           1978.0627455
05 May 2022 21:20:49.143    05 May 2022 21:53:25.544      1956.4014857    Earth           Umbra       130           1978.0627455
05 May 2022 21:53:25.544    05 May 2022 21:53:36.345      10.800663102    Earth           Penumbra    130           1978.0627455
05 May 2022 22:54:15.307    05 May 2022 22:54:26.115      10.808366491    Earth           Penumbra    131           1981.4014507
05 May 2022 22:54:26.115    05 May 2022 23:27:05.958      1959.8427191    Earth           Umbra       131           1981.4014507
05 May 2022 23:27:05.958    05 May 2022 23:27:16.708      10.750365083    Earth           Penumbra    131           1981.4014507
06 May 2022 00:27:52.309    06 May 2022 00:28:03.067      10.757375078    Earth           Penumbra    132           1984.6632924
06 May 2022 00:28:03.067    06 May 2022 01:00:46.271      1963.2046549    Earth           Umbra       132           1984.6632924
06 May 2022 01:00:46.271    06 May 2022 01:00:56.973      10.701262427    Earth           Penumbra    132           1984.6632924
06 May 2022 02:01:29.265    06 May 2022 02:01:39.973      10.707716073    Earth           Penumbra    133           1987.8625660
06 May 2022 02:01:39.973    06 May 2022 02:34:26.474      1966.5014630    Earth           Umbra       133           1987.8625660
06 May 2022 02:34:26.474    06 May 2022 02:34:37.128      10.653386882    Earth           Penumbra    133           1987.8625660
06 May 2022 03:35:06.166    06 May 2022 03:35:16.825      10.659050324    Earth           Penumbra    134           1991.0320176
06 May 2022 03:35:16.825    06 May 2022 04:08:06.591      1969.7663923    Earth           Umbra       134           1991.0320176
06 May 2022 04:08:06.591    06 May 2022 04:08:17.198      10.606575001    Earth           Penumbra    134           1991.0320176
06 May 2022 05:08:43.023    06 May 2022 05:08:53.634      10.611038364    Earth           Penumbra    135           1994.1788774
06 May 2022 05:08:53.634    06 May 2022 05:41:46.641      1973.0072330    Earth           Umbra       135           1994.1788774
06 May 2022 05:41:46.641    06 May 2022 05:41:57.202      10.560606129    Earth           Penumbra    135           1994.1788774
06 May 2022 06:42:19.879    06 May 2022 06:42:30.443      10.563715396    Earth           Penumbra    136           1997.2876503
06 May 2022 06:42:30.443    06 May 2022 07:15:26.651      1976.2086291    Earth           Umbra       136           1997.2876503
06 May 2022 07:15:26.651    06 May 2022 07:15:37.167      10.515305819    Earth           Penumbra    136           1997.2876503
06 May 2022 08:15:56.787    06 May 2022 08:16:07.304      10.517327848    Earth           Penumbra    137           2000.3506052
06 May 2022 08:16:07.304    06 May 2022 08:49:06.667      1979.3626083    Earth           Umbra       137           2000.3506052
06 May 2022 08:49:06.667    06 May 2022 08:49:17.138      10.470669041    Earth           Penumbra    137           2000.3506052
06 May 2022 09:49:33.757    06 May 2022 09:49:44.229      10.471906210    Earth           Penumbra    138           2003.3727775
06 May 2022 09:49:44.229    06 May 2022 10:22:46.703      1982.4741026    Earth           Umbra       138           2003.3727775
06 May 2022 10:22:46.703    06 May 2022 10:22:57.130      10.426768719    Earth           Penumbra    138           2003.3727775
06 May 2022 11:23:10.753    06 May 2022 11:23:21.180      10.427167907    Earth           Penumbra    139           2006.3570109
06 May 2022 11:23:21.180    06 May 2022 11:56:26.726      1985.5463302    Earth           Umbra       139           2006.3570109
06 May 2022 11:56:26.726    06 May 2022 11:56:37.110      10.383512755    Earth           Penumbra    139           2006.3570109
06 May 2022 12:56:47.724    06 May 2022 12:56:58.107      10.382809932    Earth           Penumbra    140           2009.2992928
06 May 2022 12:56:58.107    06 May 2022 13:30:06.683      1988.5758463    Earth           Umbra       140           2009.2992928
06 May 2022 13:30:06.683    06 May 2022 13:30:17.023      10.340636491    Earth           Penumbra    140           2009.2992928
06 May 2022 14:30:24.642    06 May 2022 14:30:34.981      10.338751506    Earth           Penumbra    141           2012.1919851
06 May 2022 14:30:34.981    06 May 2022 15:03:46.536      1991.5551829    Earth           Umbra       141           2012.1919851
06 May 2022 15:03:46.536    06 May 2022 15:03:56.834      10.298050661    Earth           Penumbra    141           2012.1919851
06 May 2022 16:04:01.507    06 May 2022 16:04:11.803      10.295137216    Earth           Penumbra    142           2015.0282910
06 May 2022 16:04:11.803    06 May 2022 16:37:26.280      1994.4772102    Earth           Umbra       142           2015.0282910
06 May 2022 16:37:26.280    06 May 2022 16:37:36.536      10.255943541    Earth           Penumbra    142           2015.0282910
06 May 2022 17:37:38.355    06 May 2022 17:37:48.607      10.252114478    Earth           Penumbra    143           2017.8145547
06 May 2022 17:37:48.607    06 May 2022 18:11:05.955      1997.3479639    Earth           Umbra       143           2017.8145547
06 May 2022 18:11:05.955    06 May 2022 18:11:16.169      10.214476380    Earth           Penumbra    143           2017.8145547
06 May 2022 19:11:15.232    06 May 2022 19:11:25.442      10.209676693    Earth           Penumbra    144           2020.5733128
06 May 2022 19:11:25.442    06 May 2022 19:44:45.632      2000.1900640    Earth           Umbra       144           2020.5733128
06 May 2022 19:44:45.632    06 May 2022 19:44:55.805      10.173572169    Earth           Penumbra    144           2020.5733128
06 May 2022 20:44:52.159    06 May 2022 20:45:02.327      10.167758481    Earth           Penumbra    145           2023.3168084
06 May 2022 20:45:02.327    06 May 2022 21:18:25.343      2003.0158913    Earth           Umbra       145           2023.3168084
06 May 2022 21:18:25.343    06 May 2022 21:18:35.476      10.133158613    Earth           Penumbra    145           2023.3168084
06 May 2022 22:18:29.108    06 May 2022 22:18:39.235      10.126482742    Earth           Penumbra    146           2026.0254436
06 May 2022 22:18:39.235    06 May 2022 22:52:05.040      2005.8055526    Earth           Umbra       146           2026.0254436
06 May 2022 22:52:05.040    06 May 2022 22:52:15.134      10.093408276    Earth           Penumbra    146           2026.0254436
06 May 2022 23:52:06.039    06 May 2022 23:52:16.125      10.086149024    Earth           Penumbra    147           2028.6737948
06 May 2022 23:52:16.125    07 May 2022 00:25:44.658      2008.5330628    Earth           Umbra       147           2028.6737948
07 May 2022 00:25:44.658    07 May 2022 00:25:54.713      10.054582986    Earth           Penumbra    147           2028.6737948
07 May 2022 01:25:42.930    07 May 2022 01:25:52.977      10.046906315    Earth           Penumbra    148           2031.2687160
07 May 2022 01:25:52.977    07 May 2022 01:59:24.182      2011.2050352    Earth           Umbra       148           2031.2687160
07 May 2022 01:59:24.182    07 May 2022 01:59:34.198      10.016774526    Earth           Penumbra    148           2031.2687160
07 May 2022 02:59:19.773    07 May 2022 02:59:29.781      10.008540878    Earth           Penumbra    149           2033.8380191
07 May 2022 02:59:29.781    07 May 2022 03:33:03.631      2013.8496057    Earth           Umbra       149           2033.8380191
07 May 2022 03:33:03.631    07 May 2022 03:33:13.611      9.9798725685    Earth           Penumbra    149           2033.8380191
07 May 2022 04:32:56.575    07 May 2022 04:33:06.545      9.9707390182    Earth           Penumbra    150           2036.3907418
07 May 2022 04:33:06.545    07 May 2022 05:06:43.022      2016.4763095    Earth           Umbra       150           2036.3907418
07 May 2022 05:06:43.022    07 May 2022 05:06:52.965      9.9436932360    Earth           Penumbra    150           2036.3907418
07 May 2022 06:06:33.373    07 May 2022 06:06:43.306      9.9334680475    Earth           Penumbra    151           2038.9132188
07 May 2022 06:06:43.306    07 May 2022 06:40:22.378      2019.0716837    Earth           Umbra       151           2038.9132188
07 May 2022 06:40:22.378    07 May 2022 06:40:32.286      9.9080671091    Earth           Penumbra    151           2038.9132188
07 May 2022 07:40:10.218    07 May 2022 07:40:20.115      9.8969187587    Earth           Penumbra    152           2041.3967892
07 May 2022 07:40:20.115    07 May 2022 08:14:01.742      2021.6269231    Earth           Umbra       152           2041.3967892
07 May 2022 08:14:01.742    07 May 2022 08:14:11.615      9.8729473539    Earth           Penumbra    152           2041.3967892
07 May 2022 09:13:47.129    07 May 2022 09:13:56.990      9.8611489870    Earth           Penumbra    153           2043.8459882
07 May 2022 09:13:56.990    07 May 2022 09:47:41.136      2024.1464572    Earth           Umbra       153           2043.8459882
07 May 2022 09:47:41.136    07 May 2022 09:47:50.975      9.8383820616    Earth           Penumbra    153           2043.8459882
07 May 2022 10:47:24.073    07 May 2022 10:47:33.898      9.8259418504    Earth           Penumbra    154           2046.2635005
07 May 2022 10:47:33.898    07 May 2022 11:21:20.532      2026.6332371    Earth           Umbra       154           2046.2635005
07 May 2022 11:21:20.532    07 May 2022 11:21:30.336      9.8043215694    Earth           Penumbra    154           2046.2635005
07 May 2022 12:21:00.999    07 May 2022 12:21:10.790      9.7910273471    Earth           Penumbra    155           2048.6441407
