GMAT/Constellation/Contact/ContactLocator4.txt

Target: HSEYE4

Observer: Bahrain
Start Time (UTC)            Stop Time (UTC)               Duration (s)         
27 Apr 2022 11:59:40.134    27 Apr 2022 12:07:48.943      488.80928792    
27 Apr 2022 13:41:03.692    27 Apr 2022 13:42:28.623      84.931458521    
27 Apr 2022 20:14:24.305    27 Apr 2022 20:22:26.511      482.20553646    
27 Apr 2022 21:54:30.218    27 Apr 2022 21:56:33.105      122.88748159    
28 Apr 2022 11:20:09.446    28 Apr 2022 11:28:18.772      489.32578331    
28 Apr 2022 12:59:58.522    28 Apr 2022 13:04:10.809      252.28676086    
28 Apr 2022 19:34:59.430    28 Apr 2022 19:42:46.512      467.08273985    
28 Apr 2022 21:13:34.216    28 Apr 2022 21:18:38.564      304.34821153    
29 Apr 2022 10:40:45.947    29 Apr 2022 10:48:42.011      476.06456350    
29 Apr 2022 12:19:34.792    29 Apr 2022 12:25:13.499      338.70753500    
29 Apr 2022 18:55:38.252    29 Apr 2022 19:02:57.444      439.19229285    
29 Apr 2022 20:33:24.045    29 Apr 2022 20:39:54.397      390.35190856    
30 Apr 2022 10:01:30.738    30 Apr 2022 10:08:57.324      446.58576638    
30 Apr 2022 11:39:25.285    30 Apr 2022 11:46:03.783      398.49756412    
30 Apr 2022 18:16:21.290    30 Apr 2022 18:22:58.550      397.25938184    
30 Apr 2022 19:53:28.915    30 Apr 2022 20:00:51.153      442.23879771    
01 May 2022 09:22:26.218    01 May 2022 09:29:02.082      395.86428059    
01 May 2022 10:59:25.284    01 May 2022 11:06:46.210      440.92560138    
01 May 2022 17:37:10.117    01 May 2022 17:42:48.035      337.91792484    
01 May 2022 19:13:42.412    01 May 2022 19:21:35.006      472.59439146    
02 May 2022 08:43:38.319    02 May 2022 08:48:50.127      311.80767462    
02 May 2022 10:19:33.035    02 May 2022 10:27:22.340      469.30456823    
02 May 2022 16:58:09.305    02 May 2022 17:02:21.133      251.82789786    
02 May 2022 18:34:01.852    02 May 2022 18:42:08.397      486.54473479    
03 May 2022 08:05:34.081    03 May 2022 08:07:54.196      140.11414333    
03 May 2022 09:39:47.822    03 May 2022 09:47:52.678      484.85631386    
03 May 2022 16:19:46.150    03 May 2022 16:21:10.400      84.249865520    
03 May 2022 17:54:25.887    03 May 2022 18:02:32.427      486.53944979    
03 May 2022 19:35:26.211    03 May 2022 19:35:41.386      15.175314050    
04 May 2022 09:00:09.498    04 May 2022 09:08:17.145      487.64698911    
04 May 2022 10:40:11.756    04 May 2022 10:43:58.963      227.20638618    
04 May 2022 17:14:53.863    04 May 2022 17:22:47.506      473.64364020    
04 May 2022 18:53:39.242    04 May 2022 18:58:25.539      286.29684784    
05 May 2022 08:20:38.414    05 May 2022 08:28:35.168      476.75428642    
05 May 2022 09:59:37.150    05 May 2022 10:04:59.329      322.17854160    
05 May 2022 16:35:25.627    05 May 2022 16:42:53.544      447.91777642    
05 May 2022 18:13:18.529    05 May 2022 18:19:39.778      381.24929185    
06 May 2022 07:41:15.555    06 May 2022 07:48:45.529      449.97356955    
06 May 2022 09:19:19.000    06 May 2022 09:25:45.265      386.26466836    
06 May 2022 15:56:01.579    06 May 2022 16:02:49.906      408.32747963    
06 May 2022 17:33:15.066    06 May 2022 17:40:32.875      437.80906572    
07 May 2022 07:02:03.085    07 May 2022 07:08:45.836      402.75153861    
07 May 2022 08:39:11.137    07 May 2022 08:46:22.780      431.64302594    
07 May 2022 15:16:43.050    07 May 2022 15:22:35.042      351.99150288    
07 May 2022 16:53:21.082    07 May 2022 17:01:12.364      471.28198753    
08 May 2022 06:23:06.202    08 May 2022 06:28:30.662      324.45997442    
08 May 2022 07:59:11.434    08 May 2022 08:06:53.805      462.37107982    
08 May 2022 14:37:33.800    08 May 2022 14:42:04.994      271.19382236    
08 May 2022 16:13:33.505    08 May 2022 16:21:41.071      487.56580995    
09 May 2022 05:44:45.270    09 May 2022 05:47:39.417      174.14726566    
09 May 2022 07:19:19.022    09 May 2022 07:27:18.998      479.97597044    
09 May 2022 13:58:50.988    09 May 2022 14:01:02.448      131.45965082    
09 May 2022 15:33:50.821    09 May 2022 15:42:00.264      489.44360259    
10 May 2022 06:39:33.665    10 May 2022 06:47:38.362      484.69739141    
10 May 2022 08:19:48.340    10 May 2022 08:23:09.893      201.55282889    
10 May 2022 14:54:12.276    10 May 2022 15:02:10.445      478.16938102    
10 May 2022 16:33:06.590    10 May 2022 16:37:36.680      270.08956958    
11 May 2022 05:59:55.635    11 May 2022 06:07:51.388      475.75343878    
11 May 2022 07:39:02.814    11 May 2022 07:44:08.917      306.10232153    
11 May 2022 14:14:37.642    11 May 2022 14:22:11.589      453.94649799    
11 May 2022 15:52:36.118    11 May 2022 15:58:49.245      373.12692309    
12 May 2022 05:20:25.827    12 May 2022 05:27:56.938      451.11049352    
12 May 2022 06:58:36.506    12 May 2022 07:04:50.937      374.43064264    
12 May 2022 13:35:07.235    12 May 2022 13:42:03.136      415.90055670    
12 May 2022 15:12:25.066    12 May 2022 15:19:38.631      433.56546132    
13 May 2022 04:41:06.240    13 May 2022 04:47:52.770      406.53009071    
13 May 2022 06:18:21.313    13 May 2022 06:25:23.888      422.57481201    
13 May 2022 12:55:42.233    13 May 2022 13:01:43.671      361.43745503    
13 May 2022 14:32:24.261    13 May 2022 14:40:13.758      469.49690053    
14 May 2022 04:02:01.612    14 May 2022 04:07:33.902      332.28973041    
14 May 2022 05:38:14.682    14 May 2022 05:45:50.114      455.43247112    
14 May 2022 12:16:25.956    14 May 2022 12:21:09.664      283.70724429    
14 May 2022 13:52:30.269    14 May 2022 14:00:37.804      487.53476097    
15 May 2022 03:23:29.060    15 May 2022 03:26:42.971      193.91082743    
15 May 2022 04:58:15.576    15 May 2022 05:06:10.422      474.84651916    
15 May 2022 11:37:31.966    15 May 2022 11:40:07.378      155.41196822    
15 May 2022 13:12:41.420    15 May 2022 13:20:52.175      490.75467505    
16 May 2022 04:18:23.671    16 May 2022 04:26:24.891      481.21998684    
16 May 2022 05:58:50.035    16 May 2022 06:01:46.111      176.07589129    
16 May 2022 12:32:56.877    16 May 2022 12:40:57.443      480.56544245    
16 May 2022 14:11:58.440    16 May 2022 14:16:14.026      255.58588109    
17 May 2022 03:38:39.173    17 May 2022 03:46:33.060      473.88735681    
17 May 2022 05:17:53.375    17 May 2022 05:22:44.689      291.31403955    
17 May 2022 11:53:16.354    17 May 2022 12:00:53.628      457.27401936    
17 May 2022 13:31:18.939    17 May 2022 13:37:24.670      365.73131407    
18 May 2022 02:59:02.907    18 May 2022 03:06:33.846      450.93884451    
18 May 2022 04:37:19.276    18 May 2022 04:43:23.031      363.75492605    
18 May 2022 11:13:40.111    18 May 2022 11:20:40.213      420.10233058    
18 May 2022 12:51:00.888    18 May 2022 12:58:10.166      429.27823698    
19 May 2022 02:19:36.762    19 May 2022 02:26:25.105      408.34286849    
19 May 2022 03:56:57.120    19 May 2022 04:03:51.573      414.45252938    
19 May 2022 10:34:09.248    19 May 2022 10:40:15.849      366.60133079    
19 May 2022 12:10:53.739    19 May 2022 12:18:40.801      467.06179348    
20 May 2022 01:40:25.190    20 May 2022 01:46:02.125      336.93529180    
20 May 2022 03:16:43.896    20 May 2022 03:24:13.111      449.21546570    
20 May 2022 09:54:46.883    20 May 2022 09:59:37.197      290.31316079    
20 May 2022 11:30:53.732    20 May 2022 11:39:00.068      486.33610461    
21 May 2022 01:01:43.555    21 May 2022 01:05:09.290      205.73444943    
21 May 2022 02:36:38.404    21 May 2022 02:44:28.606      470.20196202    
21 May 2022 09:15:45.204    21 May 2022 09:18:31.885      166.68047950    
21 May 2022 10:50:59.070    21 May 2022 10:59:09.495      490.42475768    
22 May 2022 01:56:40.242    22 May 2022 02:04:38.206      477.96463209    
22 May 2022 03:37:17.143    22 May 2022 03:39:49.572      152.42864478    
22 May 2022 10:11:08.853    22 May 2022 10:19:09.711      480.85837865    
22 May 2022 11:50:15.916    22 May 2022 11:54:18.777      242.86052861    
23 May 2022 01:16:49.566    23 May 2022 01:24:41.498      471.93179447    
23 May 2022 02:56:09.200    23 May 2022 03:00:48.187      278.98701460    
23 May 2022 09:31:22.756    23 May 2022 09:39:00.770      458.01350564    
23 May 2022 11:09:28.035    23 May 2022 11:15:27.044      359.00953745    
24 May 2022 00:37:07.158    24 May 2022 00:44:37.437      450.27888027    
24 May 2022 02:15:27.640    24 May 2022 02:21:22.814      355.17404195    
24 May 2022 08:51:41.018    24 May 2022 08:58:42.175      421.15750898    
24 May 2022 10:29:03.443    24 May 2022 10:36:08.363      424.91921157    
24 May 2022 23:57:34.842    25 May 2022 00:04:23.942      409.10022268    
25 May 2022 01:34:58.820    25 May 2022 01:41:46.920      408.09986129    
25 May 2022 08:12:04.720    25 May 2022 08:18:12.599      367.87872749    
25 May 2022 09:48:50.308    25 May 2022 09:56:34.306      463.99807826    
25 May 2022 23:18:16.913    25 May 2022 23:23:56.464      339.55085515    
26 May 2022 00:54:39.279    26 May 2022 01:02:03.754      444.47553781    
26 May 2022 07:32:36.954    26 May 2022 07:37:28.730      291.77602439    
26 May 2022 09:08:44.595    26 May 2022 09:16:48.645      484.04994974    
26 May 2022 22:39:27.808    26 May 2022 22:43:00.316      212.50794668    
27 May 2022 00:14:27.675    27 May 2022 00:22:14.425      466.74998039    
27 May 2022 06:53:29.745    27 May 2022 06:56:18.365      168.61987347    
27 May 2022 08:28:44.409    27 May 2022 08:36:53.010      488.60052887    
27 May 2022 23:34:23.544    27 May 2022 23:42:19.149      475.60418233    
28 May 2022 01:15:08.728    28 May 2022 01:17:22.303      133.57553026    
28 May 2022 07:48:48.808    28 May 2022 07:56:48.080      479.27151087    
28 May 2022 09:27:59.519    28 May 2022 09:31:51.867      232.34785208    
28 May 2022 22:54:27.012    28 May 2022 23:02:17.549      470.53760224    
29 May 2022 00:33:50.183    29 May 2022 00:38:20.642      270.45907101    
29 May 2022 07:08:57.454    29 May 2022 07:16:33.933      456.47935553    
29 May 2022 08:47:04.073    29 May 2022 08:52:57.230      353.15727306    
29 May 2022 22:14:38.836    29 May 2022 22:22:08.614      449.77788564    
29 May 2022 23:53:01.754    29 May 2022 23:58:51.371      349.61741975    
30 May 2022 06:29:10.583    30 May 2022 06:36:10.078      419.49458644    
30 May 2022 08:06:33.481    30 May 2022 08:13:34.165      420.68366449    
30 May 2022 21:35:00.815    30 May 2022 21:41:50.295      409.48078445    
30 May 2022 23:12:26.755    30 May 2022 23:19:11.011      404.25663065    
31 May 2022 05:49:29.309    31 May 2022 05:55:35.165      365.85641586    
31 May 2022 07:26:14.809    31 May 2022 07:33:55.351      460.54188504    
31 May 2022 20:55:37.175    31 May 2022 21:01:18.116      340.94110171    
31 May 2022 22:32:01.353    31 May 2022 22:39:23.190      441.83714875    
01 Jun 2022 05:09:56.827    01 Jun 2022 05:14:45.785      288.95754773    
01 Jun 2022 06:46:03.810    01 Jun 2022 06:54:04.779      480.96926683    
01 Jun 2022 20:16:41.957    01 Jun 2022 20:20:17.790      215.83243548    
01 Jun 2022 21:51:44.096    01 Jun 2022 21:59:29.131      465.03485284    
02 Jun 2022 04:30:45.902    02 Jun 2022 04:33:28.996      163.09399976    
02 Jun 2022 06:05:58.516    02 Jun 2022 06:14:04.158      485.64210723    
02 Jun 2022 21:11:34.476    02 Jun 2022 21:19:29.099      474.62355435    
02 Jun 2022 22:52:24.058    02 Jun 2022 22:54:27.416      123.35799836    
03 Jun 2022 05:25:57.955    03 Jun 2022 05:33:54.197      476.24204223    
03 Jun 2022 07:05:10.347    03 Jun 2022 07:08:55.086      224.73892258    
03 Jun 2022 20:31:32.595    03 Jun 2022 20:39:22.741      470.14567838    
03 Jun 2022 22:10:57.145    03 Jun 2022 22:15:23.938      266.79321224    
04 Jun 2022 04:46:01.782    04 Jun 2022 04:53:34.980      453.19871488    
04 Jun 2022 06:24:08.473    04 Jun 2022 06:29:57.036      348.56217251    
04 Jun 2022 19:51:39.204    04 Jun 2022 19:59:09.051      449.84779197    
04 Jun 2022 21:30:02.808    04 Jun 2022 21:35:50.534      347.72626280    
05 Jun 2022 04:06:10.249    05 Jun 2022 04:13:06.000      415.75080740    
05 Jun 2022 05:43:32.585    05 Jun 2022 05:50:29.536      416.95124031    
05 Jun 2022 19:11:56.093    05 Jun 2022 19:18:45.982      409.88889303    
05 Jun 2022 20:49:22.351    05 Jun 2022 20:56:05.731      403.37946092    
06 Jun 2022 03:26:24.525    06 Jun 2022 03:32:25.844      361.31859975    
06 Jun 2022 05:03:08.951    06 Jun 2022 05:10:46.060      457.10959816    
06 Jun 2022 18:32:27.495    06 Jun 2022 18:38:09.046      341.55110142    
06 Jun 2022 20:08:51.724    06 Jun 2022 20:16:13.367      441.64344224    
07 Jun 2022 02:46:48.015    07 Jun 2022 02:51:30.886      282.87079049    
07 Jun 2022 04:22:53.175    07 Jun 2022 04:30:50.738      477.56305605    
07 Jun 2022 17:53:27.462    07 Jun 2022 17:57:03.935      216.47329715    
07 Jun 2022 19:28:29.409    07 Jun 2022 19:36:14.726      465.31716309    
08 Jun 2022 02:07:35.079    08 Jun 2022 02:10:06.579      151.50034345    
08 Jun 2022 03:42:43.238    08 Jun 2022 03:50:45.318      482.08002291    
08 Jun 2022 18:48:14.870    08 Jun 2022 18:56:10.088      475.21741271    
08 Jun 2022 20:29:03.654    08 Jun 2022 20:31:08.329      124.67510453    
09 Jun 2022 03:02:38.150    09 Jun 2022 03:10:30.519      472.36912079    
09 Jun 2022 04:41:50.149    09 Jun 2022 04:45:31.026      220.87684931    
09 Jun 2022 18:08:08.201    09 Jun 2022 18:15:59.096      470.89494414    
09 Jun 2022 19:47:31.839    09 Jun 2022 19:52:00.291      268.45122005    
10 Jun 2022 02:22:37.562    10 Jun 2022 02:30:06.410      448.84707446    
10 Jun 2022 04:00:43.142    10 Jun 2022 04:06:28.896      345.75386290    
10 Jun 2022 17:28:10.151    10 Jun 2022 17:35:40.729      450.57806330    
10 Jun 2022 19:06:32.665    10 Jun 2022 19:12:22.356      349.69113031    
11 Jun 2022 01:42:41.753    11 Jun 2022 01:49:32.442      410.68943026    
11 Jun 2022 03:20:02.625    11 Jun 2022 03:26:56.866      414.24048410    
11 Jun 2022 16:48:22.535    11 Jun 2022 16:55:12.902      410.36704341    
11 Jun 2022 18:25:47.469    11 Jun 2022 18:32:33.005      405.53584445    
12 Jun 2022 01:02:51.970    12 Jun 2022 01:08:47.108      355.13784564    
12 Jun 2022 02:39:34.505    12 Jun 2022 02:47:08.752      454.24668873    
12 Jun 2022 16:08:49.662    12 Jun 2022 16:14:31.034      341.37190240    
12 Jun 2022 17:45:12.191    12 Jun 2022 17:52:36.071      443.87986644    
13 Jun 2022 00:23:11.919    13 Jun 2022 00:27:46.461      274.54246863    
13 Jun 2022 01:59:14.322    13 Jun 2022 02:07:08.734      474.41184665    
13 Jun 2022 15:29:46.025    13 Jun 2022 15:33:20.361      214.33562895    
13 Jun 2022 17:04:45.310    13 Jun 2022 17:12:32.825      467.51575997    
13 Jun 2022 23:43:58.592    13 Jun 2022 23:46:13.306      134.71423925    
14 Jun 2022 01:19:00.033    14 Jun 2022 01:26:58.563      478.53002739    
14 Jun 2022 16:24:26.289    14 Jun 2022 16:32:23.532      477.24268399    
14 Jun 2022 18:05:09.225    14 Jun 2022 18:07:26.311      137.08614791    
15 Jun 2022 00:38:50.643    15 Jun 2022 00:46:38.944      468.30152096    
15 Jun 2022 02:18:00.006    15 Jun 2022 02:21:41.773      221.76752040    
15 Jun 2022 15:44:15.231    15 Jun 2022 15:52:07.809      472.57785187    
15 Jun 2022 17:23:35.680    15 Jun 2022 17:28:10.863      275.18319766    
15 Jun 2022 23:58:45.815    16 Jun 2022 00:06:09.919      444.10459301    
16 Jun 2022 01:36:49.103    16 Jun 2022 01:42:34.521      345.41755789    
16 Jun 2022 15:04:12.910    16 Jun 2022 15:11:44.596      451.68617908    
16 Jun 2022 16:42:32.532    16 Jun 2022 16:48:27.778      355.24626923    
16 Jun 2022 23:18:45.862    16 Jun 2022 23:25:30.886      405.02372001    
17 Jun 2022 00:56:04.418    17 Jun 2022 01:02:57.602      413.18313939    
17 Jun 2022 14:24:21.202    17 Jun 2022 14:31:11.735      410.53292903    
17 Jun 2022 16:01:43.106    17 Jun 2022 16:08:33.532      410.42608648    
17 Jun 2022 22:38:52.141    17 Jun 2022 22:44:40.211      348.06930812    
18 Jun 2022 00:15:32.055    18 Jun 2022 00:23:04.621      452.56603060    
18 Jun 2022 13:44:44.597    18 Jun 2022 13:50:24.450      339.85321408    
18 Jun 2022 15:21:03.545    18 Jun 2022 15:28:31.749      448.20389719    
18 Jun 2022 21:59:08.756    18 Jun 2022 22:03:33.540      264.78371581    
18 Jun 2022 23:35:07.590    18 Jun 2022 23:42:59.707      472.11652334    
19 Jun 2022 13:05:38.624    19 Jun 2022 13:09:06.932      208.30768658    
19 Jun 2022 14:40:32.389    19 Jun 2022 14:48:23.627      471.23784738    
19 Jun 2022 21:19:56.900    19 Jun 2022 21:21:49.467      112.56699278    
19 Jun 2022 22:54:49.001    19 Jun 2022 23:02:44.582      475.58089772    
20 Jun 2022 14:00:09.140    20 Jun 2022 14:08:09.389      480.24836259    
20 Jun 2022 15:40:42.515    20 Jun 2022 15:43:19.913      157.39844186    
20 Jun 2022 22:14:35.311    20 Jun 2022 22:22:19.925      464.61359966    
20 Jun 2022 23:53:39.632    20 Jun 2022 23:57:27.974      228.34279560    
21 Jun 2022 13:19:53.937    21 Jun 2022 13:27:48.611      474.67450773    
21 Jun 2022 14:59:09.032    21 Jun 2022 15:03:55.200      286.16786103    
21 Jun 2022 21:34:26.212    21 Jun 2022 21:41:45.741      439.52814555    
21 Jun 2022 23:12:25.981    21 Jun 2022 23:18:14.235      348.25354633    
22 Jun 2022 12:39:47.611    22 Jun 2022 12:47:20.176      452.56497982    
22 Jun 2022 14:18:02.517    22 Jun 2022 14:24:06.269      363.75227978    
22 Jun 2022 20:54:22.077    22 Jun 2022 21:01:01.367      399.28968415    
22 Jun 2022 22:31:37.457    22 Jun 2022 22:38:31.843      414.38622706    
23 Jun 2022 11:59:52.156    23 Jun 2022 12:06:41.808      409.65200001    
23 Jun 2022 13:37:09.225    23 Jun 2022 13:44:06.669      417.44420214    
23 Jun 2022 20:14:24.404    23 Jun 2022 20:20:05.027      340.62314458    
23 Jun 2022 21:51:00.977    23 Jun 2022 21:58:33.590      452.61315554    
24 Jun 2022 11:20:12.390    24 Jun 2022 11:25:48.404      336.01355727    
24 Jun 2022 12:56:25.660    24 Jun 2022 13:03:59.662      454.00220674    
24 Jun 2022 19:34:37.809    24 Jun 2022 19:38:51.857      254.04827847    
24 Jun 2022 21:10:32.277    24 Jun 2022 21:18:23.447      471.16991782    
25 Jun 2022 10:41:05.850    25 Jun 2022 10:44:22.152      196.30269958    
25 Jun 2022 12:15:50.484    25 Jun 2022 12:23:46.329      475.84458474    
25 Jun 2022 18:55:30.851    25 Jun 2022 18:56:53.090      82.239032595    
25 Jun 2022 20:30:09.400    25 Jun 2022 20:38:03.073      473.67390526    
26 Jun 2022 11:35:23.270    26 Jun 2022 11:43:26.827      483.55738804    


Number of events : 246


Observer: Cape_Town
Start Time (UTC)            Stop Time (UTC)               Duration (s)         
28 Apr 2022 01:14:46.031    28 Apr 2022 01:20:35.529      349.49740274    
28 Apr 2022 02:50:57.654    28 Apr 2022 02:58:51.373      473.71893588    
28 Apr 2022 04:30:58.548    28 Apr 2022 04:35:14.630      256.08236049    
28 Apr 2022 07:48:35.255    28 Apr 2022 07:53:30.137      294.88145413    
28 Apr 2022 09:25:06.503    28 Apr 2022 09:33:11.216      484.71252158    
28 Apr 2022 11:03:47.966    28 Apr 2022 11:08:46.873      298.90780086    
29 Apr 2022 00:36:11.754    29 Apr 2022 00:40:20.802      249.04723250    
29 Apr 2022 02:11:19.955    29 Apr 2022 02:19:23.184      483.22891749    
29 Apr 2022 03:50:49.316    29 Apr 2022 03:55:58.519      309.20315433    
29 Apr 2022 07:09:20.286    29 Apr 2022 07:13:18.337      238.05156442    
29 Apr 2022 08:45:39.039    29 Apr 2022 08:53:30.889      471.84939135    
29 Apr 2022 10:23:42.197    29 Apr 2022 10:30:01.725      379.52796367    
30 Apr 2022 01:31:46.934    30 Apr 2022 01:39:51.237      484.30267355    
30 Apr 2022 03:10:44.110    30 Apr 2022 03:16:39.172      355.06264237    
30 Apr 2022 06:30:08.893    30 Apr 2022 06:32:58.296      169.40328365    
30 Apr 2022 08:06:12.704    30 Apr 2022 08:13:44.214      451.51011699    
30 Apr 2022 09:43:49.270    30 Apr 2022 09:50:59.287      430.01657913    
01 May 2022 00:52:19.154    01 May 2022 01:00:14.880      475.72548492    
01 May 2022 02:30:42.688    01 May 2022 02:37:17.009      394.32084920    
01 May 2022 05:51:12.562    01 May 2022 05:52:18.866      66.304011969    
01 May 2022 07:26:47.248    01 May 2022 07:33:51.400      424.15211530    
01 May 2022 09:04:03.456    01 May 2022 09:11:45.148      461.69218810    
02 May 2022 00:12:57.489    02 May 2022 00:20:33.132      455.64358601    
02 May 2022 01:50:45.060    02 May 2022 01:57:52.134      427.07417530    
02 May 2022 03:32:08.196    02 May 2022 03:33:33.135      84.938614047    
02 May 2022 06:47:22.530    02 May 2022 06:53:52.585      390.05592564    
02 May 2022 08:24:22.209    02 May 2022 08:32:21.721      479.51144400    
02 May 2022 23:33:43.412    02 May 2022 23:40:44.405      420.99280553    
03 May 2022 01:10:51.346    03 May 2022 01:18:24.491      453.14491563    
03 May 2022 02:51:31.734    03 May 2022 02:54:30.201      178.46688397    
03 May 2022 06:07:58.534    03 May 2022 06:13:47.838      349.30365725    
03 May 2022 07:44:44.114    03 May 2022 07:52:50.292      486.17793715    
03 May 2022 09:25:31.252    03 May 2022 09:25:59.967      28.714846575    
03 May 2022 22:54:39.758    03 May 2022 23:00:45.749      365.99131222    
04 May 2022 00:31:01.735    04 May 2022 00:38:53.903      472.16787717    
04 May 2022 02:11:08.887    04 May 2022 02:15:13.906      245.01910829    
04 May 2022 05:28:35.438    04 May 2022 05:33:37.095      301.65697688    
04 May 2022 07:05:08.284    04 May 2022 07:13:11.632      483.34799971    
04 May 2022 08:44:00.180    04 May 2022 08:48:32.536      272.35578831    
04 May 2022 22:15:53.531    04 May 2022 22:20:30.036      276.50456415    
04 May 2022 23:51:16.489    04 May 2022 23:59:20.082      483.59366858    
05 May 2022 01:30:51.796    05 May 2022 01:35:52.459      300.66377416    
05 May 2022 04:49:13.809    05 May 2022 04:53:19.973      246.16410466    
05 May 2022 06:25:34.126    05 May 2022 06:33:26.235      472.10921757    
05 May 2022 08:03:43.308    05 May 2022 08:09:46.693      363.38472337    
05 May 2022 21:38:11.991    05 May 2022 21:39:09.888      57.896693610    
05 May 2022 23:11:35.972    05 May 2022 23:19:42.609      486.63681555    
06 May 2022 00:50:39.030    06 May 2022 00:56:27.565      348.53505569    
06 May 2022 04:09:55.341    06 May 2022 04:12:55.031      179.69032206    
06 May 2022 05:46:01.231    06 May 2022 05:53:34.435      453.20456597    
06 May 2022 07:23:41.859    06 May 2022 07:30:41.082      419.22359490    
06 May 2022 22:32:00.714    06 May 2022 22:40:00.873      480.15916448    
07 May 2022 00:10:30.229    07 May 2022 00:16:59.789      389.55966815    
07 May 2022 03:30:48.112    07 May 2022 03:32:14.528      86.416375847    
07 May 2022 05:06:29.320    07 May 2022 05:13:36.465      427.14491647    
07 May 2022 06:43:48.486    07 May 2022 06:51:22.915      454.42888197    
07 May 2022 21:52:31.526    07 May 2022 22:00:13.964      462.43787437    
07 May 2022 23:30:25.360    07 May 2022 23:37:29.301      423.94129210    
08 May 2022 01:11:58.503    08 May 2022 01:13:02.596      64.093615150    
08 May 2022 04:26:58.226    08 May 2022 04:33:32.484      394.25801196    
08 May 2022 06:04:00.191    08 May 2022 06:11:55.057      474.86602783    
08 May 2022 21:13:09.754    08 May 2022 21:20:20.423      430.66868596    
08 May 2022 22:50:24.521    08 May 2022 22:57:56.077      451.55597931    
09 May 2022 00:31:10.064    09 May 2022 00:33:59.063      168.99975379    
09 May 2022 03:47:27.903    09 May 2022 03:53:22.585      354.68138092    
09 May 2022 05:24:15.368    09 May 2022 05:32:18.982      483.61381218    
09 May 2022 20:33:57.911    09 May 2022 20:40:17.617      379.70683862    
09 May 2022 22:10:27.889    09 May 2022 22:18:19.962      472.07341479    
09 May 2022 23:50:39.571    09 May 2022 23:54:37.910      238.33938316    
10 May 2022 03:07:58.475    10 May 2022 03:13:06.742      308.26689469    
10 May 2022 04:44:33.033    10 May 2022 04:52:35.551      482.51809072    
10 May 2022 06:23:34.708    10 May 2022 06:27:43.167      248.45872892    
10 May 2022 19:55:01.847    10 May 2022 19:59:59.571      297.72470403    
10 May 2022 21:30:35.712    10 May 2022 21:38:40.687      484.97534139    
10 May 2022 23:10:15.392    10 May 2022 23:15:11.135      295.74275818    
11 May 2022 02:28:30.401    11 May 2022 02:32:44.664      254.26279275    
11 May 2022 04:04:52.531    11 May 2022 04:12:45.307      472.77589319    
11 May 2022 05:43:07.058    11 May 2022 05:48:56.906      349.84885803    
11 May 2022 19:16:47.797    11 May 2022 19:18:59.921      132.12390899    
11 May 2022 20:50:48.334    11 May 2022 20:58:57.848      489.51347717    
11 May 2022 22:29:55.761    11 May 2022 22:35:40.791      345.02960265    
12 May 2022 01:49:05.050    12 May 2022 01:52:15.223      190.17270303    
12 May 2022 03:25:13.411    12 May 2022 03:32:48.612      455.20112871    
12 May 2022 05:02:57.610    12 May 2022 05:09:48.194      410.58425393    
12 May 2022 20:11:06.255    12 May 2022 20:19:10.859      484.60401470    
12 May 2022 21:49:40.231    12 May 2022 21:56:07.539      387.30757220    
13 May 2022 01:09:48.122    13 May 2022 01:11:33.037      104.91578013    
13 May 2022 02:45:35.361    13 May 2022 02:52:45.718      430.35748077    
13 May 2022 04:22:57.156    13 May 2022 04:30:26.090      448.93427161    
13 May 2022 19:31:30.236    13 May 2022 19:39:18.852      468.61579581    
13 May 2022 21:09:28.736    13 May 2022 21:16:31.583      422.84657961    
13 May 2022 22:51:07.133    13 May 2022 22:52:01.470      54.336714931    
14 May 2022 02:05:58.178    14 May 2022 02:12:36.799      398.62092772    
14 May 2022 03:43:02.234    14 May 2022 03:50:53.911      471.67685532    
14 May 2022 18:52:01.528    14 May 2022 18:59:20.451      438.92287418    
14 May 2022 20:29:21.361    14 May 2022 20:36:52.914      451.55318499    
14 May 2022 22:10:09.788    14 May 2022 22:12:54.941      165.15279656    
15 May 2022 01:26:21.779    15 May 2022 01:32:21.966      360.18705539    
15 May 2022 03:03:11.051    15 May 2022 03:11:13.298      482.24676348    
15 May 2022 18:12:42.425    15 May 2022 18:19:13.228      390.80229462    
15 May 2022 19:49:18.271    15 May 2022 19:57:11.387      473.11610773    
15 May 2022 21:29:32.741    15 May 2022 21:33:28.473      235.73197236    
16 May 2022 00:46:46.229    16 May 2022 00:52:01.230      315.00141704    
16 May 2022 02:23:22.529    16 May 2022 02:31:25.193      482.66399429    
16 May 2022 04:02:32.632    16 May 2022 04:06:21.651      229.01840141    
16 May 2022 17:33:38.068    16 May 2022 17:38:51.906      313.83794612    
16 May 2022 19:09:19.702    16 May 2022 19:17:26.737      487.03463544    
16 May 2022 20:49:02.211    16 May 2022 20:53:56.224      294.01274028    
17 May 2022 00:07:11.881    17 May 2022 00:11:34.392      262.51109876    
17 May 2022 01:43:35.956    17 May 2022 01:51:30.180      474.22422885    
17 May 2022 03:21:54.849    17 May 2022 03:27:34.703      339.85351142    
17 May 2022 16:55:07.927    17 May 2022 16:57:56.871      168.94373826    
17 May 2022 18:29:25.986    17 May 2022 18:37:38.568      492.58263895    
17 May 2022 20:08:36.308    17 May 2022 20:14:20.378      344.07062073    
17 May 2022 23:27:39.803    17 May 2022 23:31:00.606      200.80272263    
18 May 2022 01:03:50.840    18 May 2022 01:11:28.645      457.80475853    
18 May 2022 02:41:37.938    18 May 2022 02:48:22.659      404.72091726    
18 May 2022 17:49:37.600    18 May 2022 17:57:46.309      488.70971625    
18 May 2022 19:28:14.559    18 May 2022 19:34:41.625      387.06574623    
18 May 2022 22:48:14.019    18 May 2022 22:50:16.154      122.13513139    
19 May 2022 00:24:06.838    19 May 2022 00:31:20.855      434.01672277    
19 May 2022 02:01:30.795    19 May 2022 02:08:56.463      445.66806931    
19 May 2022 17:09:55.274    19 May 2022 17:17:49.115      473.84145583    
19 May 2022 18:47:56.898    19 May 2022 18:55:00.178      423.28064108    
19 May 2022 20:29:34.414    19 May 2022 20:30:32.288      57.873805985    
19 May 2022 23:44:23.720    19 May 2022 23:51:07.001      403.28033245    
20 May 2022 01:21:29.542    20 May 2022 01:29:19.835      470.29264562    
20 May 2022 16:30:20.202    20 May 2022 16:37:45.663      445.46149165    
20 May 2022 18:07:43.408    20 May 2022 18:15:16.032      452.62450412    
20 May 2022 19:48:32.628    20 May 2022 19:51:18.618      165.99046866    
20 May 2022 23:04:41.368    20 May 2022 23:10:47.214      365.84544824    
21 May 2022 00:41:32.232    21 May 2022 00:49:34.567      482.33427181    
21 May 2022 15:50:54.549    21 May 2022 15:57:33.650      399.10109007    
21 May 2022 17:27:34.256    21 May 2022 17:35:29.043      474.78715454    
21 May 2022 19:07:49.918    21 May 2022 19:11:46.244      236.32646156    
21 May 2022 22:24:59.802    21 May 2022 22:30:21.547      321.74472908    
22 May 2022 00:01:37.708    22 May 2022 00:09:41.667      483.95837472    
22 May 2022 01:40:54.024    22 May 2022 01:44:29.909      215.88514089    
22 May 2022 15:11:43.045    22 May 2022 15:17:08.202      325.15647348    
22 May 2022 16:47:29.679    22 May 2022 16:55:38.950      489.27073935    
22 May 2022 18:27:13.580    22 May 2022 18:32:08.258      294.67811272    
22 May 2022 21:45:19.281    22 May 2022 21:49:49.885      270.60319899    
22 May 2022 23:21:45.216    22 May 2022 23:29:41.758      476.54210409    
23 May 2022 01:00:07.182    23 May 2022 01:05:41.254      334.07206144    
23 May 2022 14:33:02.107    23 May 2022 14:36:12.762      190.65491727    
23 May 2022 16:07:30.006    23 May 2022 16:15:45.362      495.35582755    
23 May 2022 17:46:41.830    23 May 2022 17:52:26.754      344.92339001    
23 May 2022 21:05:40.634    23 May 2022 21:09:11.624      210.99006082    
23 May 2022 22:41:54.236    23 May 2022 22:49:35.252      461.01530363    
24 May 2022 00:19:43.364    24 May 2022 00:26:25.349      401.98526555    
24 May 2022 15:27:35.711    24 May 2022 15:35:47.716      492.00521393    
24 May 2022 17:06:14.244    24 May 2022 17:12:42.393      388.14953322    
24 May 2022 20:26:06.758    24 May 2022 20:28:24.179      137.42141974    
24 May 2022 22:02:04.405    24 May 2022 22:09:22.434      438.02911142    
24 May 2022 23:39:29.894    24 May 2022 23:46:54.711      444.81647465    
25 May 2022 14:47:47.513    25 May 2022 14:55:45.183      477.66939977    
25 May 2022 16:25:50.777    25 May 2022 16:32:55.378      424.60109509    
25 May 2022 18:07:23.683    25 May 2022 18:08:32.859      69.176478032    
25 May 2022 21:22:15.475    25 May 2022 21:29:03.517      408.04157762    
25 May 2022 22:59:22.587    25 May 2022 23:07:13.371      470.78417446    
26 May 2022 14:08:06.585    26 May 2022 14:15:36.467      449.88183203    
26 May 2022 15:45:31.535    26 May 2022 15:53:05.699      454.16458830    
26 May 2022 17:26:19.936    26 May 2022 17:29:09.814      169.87812202    
26 May 2022 20:42:27.308    26 May 2022 20:48:38.657      371.34873325    
26 May 2022 22:19:19.385    26 May 2022 22:27:23.237      483.85264990    
27 May 2022 13:28:35.037    27 May 2022 13:35:19.327      404.28982833    
27 May 2022 15:05:16.697    27 May 2022 15:13:13.213      476.51559769    
27 May 2022 16:45:32.221    27 May 2022 16:49:31.170      238.94893684    
27 May 2022 20:02:39.892    27 May 2022 20:08:07.947      328.05517690    
27 May 2022 21:39:19.081    27 May 2022 21:47:25.375      486.29325349    
27 May 2022 23:18:38.653    27 May 2022 23:22:09.052      210.39830621    
28 May 2022 12:49:17.421    28 May 2022 12:54:49.076      331.65491251    
28 May 2022 14:25:06.512    28 May 2022 14:33:17.660      491.14723887    
28 May 2022 16:04:50.551    28 May 2022 16:09:47.326      296.77510334    
28 May 2022 19:22:53.423    28 May 2022 19:27:31.349      277.92620041    
28 May 2022 20:59:20.897    28 May 2022 21:07:20.439      479.54217772    
28 May 2022 22:37:44.424    28 May 2022 22:43:17.140      332.71552805    
29 May 2022 12:10:28.911    29 May 2022 12:13:50.409      201.49776953    
29 May 2022 13:45:01.318    29 May 2022 13:53:18.653      497.33433818    
29 May 2022 15:24:13.396    29 May 2022 15:30:00.148      346.75212965    
29 May 2022 18:43:08.558    29 May 2022 18:46:48.444      219.88593045    
29 May 2022 20:19:24.298    29 May 2022 20:27:08.865      464.56733407    
29 May 2022 21:57:14.451    29 May 2022 22:03:56.795      402.34400084    
30 May 2022 13:05:01.595    30 May 2022 13:13:15.631      494.03584722    
30 May 2022 14:43:40.415    30 May 2022 14:50:10.230      389.81503886    
30 May 2022 18:03:27.489    30 May 2022 18:05:57.366      149.87647345    
30 May 2022 19:39:28.910    30 May 2022 19:46:50.959      442.04898658    
30 May 2022 21:16:55.187    30 May 2022 21:24:21.413      446.22574928    
31 May 2022 12:25:08.070    31 May 2022 12:33:07.769      479.69922430    
31 May 2022 14:03:11.610    31 May 2022 14:10:17.749      426.13899945    
31 May 2022 15:44:39.062    31 May 2022 15:46:00.818      81.755294208    
31 May 2022 17:24:08.754    31 May 2022 17:24:39.993      31.238317222    
31 May 2022 18:59:34.478    31 May 2022 19:06:26.951      412.47287400    
31 May 2022 20:36:42.283    31 May 2022 20:44:35.198      472.91493356    
01 Jun 2022 11:45:21.918    01 Jun 2022 11:52:53.773      451.85462139    
01 Jun 2022 13:22:47.110    01 Jun 2022 13:30:22.682      455.57212348    
01 Jun 2022 15:03:33.699    01 Jun 2022 15:06:28.637      174.93773613    
01 Jun 2022 18:19:40.850    01 Jun 2022 18:25:57.019      376.16846137    
01 Jun 2022 19:56:33.623    01 Jun 2022 20:04:40.121      486.49812313    
02 Jun 2022 11:05:45.256    02 Jun 2022 11:12:31.401      406.14489270    
02 Jun 2022 12:42:27.112    02 Jun 2022 12:50:24.877      477.76559248    
02 Jun 2022 14:22:41.528    02 Jun 2022 14:26:43.841      242.31278339    
02 Jun 2022 17:39:47.995    02 Jun 2022 17:45:21.286      333.29072264    
02 Jun 2022 19:16:27.974    02 Jun 2022 19:24:37.279      489.30503747    
02 Jun 2022 20:55:47.621    02 Jun 2022 20:59:20.216      212.59492412    
03 Jun 2022 10:26:22.637    03 Jun 2022 10:31:55.965      333.32762617    
03 Jun 2022 12:02:11.874    03 Jun 2022 12:10:24.069      492.19453126    
03 Jun 2022 13:41:55.057    03 Jun 2022 13:46:54.353      299.29541191    
03 Jun 2022 16:59:56.065    03 Jun 2022 17:04:39.763      283.69818617    
03 Jun 2022 18:36:24.542    03 Jun 2022 18:44:27.347      482.80489796    
03 Jun 2022 20:14:48.082    03 Jun 2022 20:20:23.467      335.38443708    
04 Jun 2022 09:47:29.205    04 Jun 2022 09:50:52.190      202.98553115    
04 Jun 2022 11:22:01.745    04 Jun 2022 11:30:19.862      498.11745415    
04 Jun 2022 13:01:13.037    04 Jun 2022 13:07:01.764      348.72741345    
04 Jun 2022 16:20:05.612    04 Jun 2022 16:23:52.148      226.53552380    
04 Jun 2022 17:56:22.783    04 Jun 2022 18:04:10.770      467.98724108    
04 Jun 2022 19:34:12.920    04 Jun 2022 19:40:58.256      405.33577135    
05 Jun 2022 10:41:57.213    05 Jun 2022 10:50:11.687      494.47418817    
05 Jun 2022 12:20:35.217    05 Jun 2022 12:27:06.585      391.36732060    
05 Jun 2022 15:40:18.437    05 Jun 2022 15:42:56.973      158.53624059    
05 Jun 2022 17:16:22.315    05 Jun 2022 17:23:47.864      445.54895817    
05 Jun 2022 18:53:48.581    05 Jun 2022 19:01:17.984      449.40279495    
06 Jun 2022 10:01:59.014    06 Jun 2022 10:09:58.698      479.68354784    
06 Jun 2022 11:40:01.639    06 Jun 2022 11:47:08.950      427.31086810    
06 Jun 2022 13:21:24.259    06 Jun 2022 13:22:56.337      92.077426286    
06 Jun 2022 15:00:45.664    06 Jun 2022 15:01:43.539      57.875535381    
06 Jun 2022 16:36:22.873    06 Jun 2022 16:43:18.864      415.99117272    
06 Jun 2022 18:13:30.699    06 Jun 2022 18:21:26.866      476.16680784    
07 Jun 2022 09:22:08.349    07 Jun 2022 09:29:39.572      451.22342322    
07 Jun 2022 10:59:32.451    07 Jun 2022 11:07:08.813      456.36245501    
07 Jun 2022 12:40:16.799    07 Jun 2022 12:43:16.344      179.54509333    
07 Jun 2022 15:56:24.296    07 Jun 2022 16:02:43.957      379.66071039    
07 Jun 2022 17:33:17.148    07 Jun 2022 17:41:26.878      489.73040764    
08 Jun 2022 08:42:27.384    08 Jun 2022 08:49:12.005      404.62079208    
08 Jun 2022 10:19:07.859    08 Jun 2022 10:27:06.003      478.14458798    
08 Jun 2022 11:59:20.552    08 Jun 2022 12:03:25.872      245.32062421    
08 Jun 2022 15:16:26.541    08 Jun 2022 15:22:03.277      336.73620316    
08 Jun 2022 16:53:06.685    08 Jun 2022 17:01:19.118      492.43290096    
08 Jun 2022 18:32:23.620    08 Jun 2022 18:36:04.659      221.03879051    
09 Jun 2022 08:03:00.842    09 Jun 2022 08:08:31.130      330.28853426    
09 Jun 2022 09:38:48.129    09 Jun 2022 09:47:00.238      492.10907263    
09 Jun 2022 11:18:29.723    09 Jun 2022 11:23:31.142      301.41864459    
09 Jun 2022 14:36:29.737    09 Jun 2022 14:41:16.853      287.11536614    
09 Jun 2022 16:12:58.509    09 Jun 2022 16:21:04.259      485.74947972    
09 Jun 2022 17:51:20.644    09 Jun 2022 17:57:01.783      341.13953719    
10 Jun 2022 07:24:04.930    10 Jun 2022 07:27:20.590      195.66058503    
10 Jun 2022 08:58:33.612    10 Jun 2022 09:06:51.102      497.48984050    
10 Jun 2022 10:37:43.292    10 Jun 2022 10:43:33.509      350.21659989    
10 Jun 2022 13:56:34.396    10 Jun 2022 14:00:24.422      230.02628954    
10 Jun 2022 15:32:52.069    10 Jun 2022 15:40:42.742      470.67351480    
10 Jun 2022 17:10:41.192    10 Jun 2022 17:17:31.353      410.16145869    
11 Jun 2022 08:18:24.806    11 Jun 2022 08:26:38.000      493.19362782    
11 Jun 2022 09:57:01.079    11 Jun 2022 10:03:33.399      392.32003590    
11 Jun 2022 13:16:42.180    11 Jun 2022 13:19:24.653      162.47329144    
11 Jun 2022 14:52:46.975    11 Jun 2022 15:00:14.879      447.90433415    
11 Jun 2022 16:30:12.426    11 Jun 2022 16:37:46.042      453.61548993    
12 Jun 2022 07:38:22.467    12 Jun 2022 07:46:20.053      477.58562369    
12 Jun 2022 09:16:23.152    12 Jun 2022 09:23:30.907      427.75464052    
12 Jun 2022 10:57:42.131    12 Jun 2022 10:59:20.748      98.617707775    
12 Jun 2022 12:37:02.621    12 Jun 2022 12:38:08.435      65.814316564    
12 Jun 2022 14:12:42.958    12 Jun 2022 14:19:40.902      417.94425506    
12 Jun 2022 15:49:50.091    12 Jun 2022 15:57:49.937      479.84616231    
13 Jun 2022 06:58:27.835    13 Jun 2022 07:05:55.877      448.04238818    
13 Jun 2022 08:35:49.671    13 Jun 2022 08:43:25.956      456.28468782    
13 Jun 2022 10:16:31.741    13 Jun 2022 10:19:34.389      182.64751376    
13 Jun 2022 13:32:39.853    13 Jun 2022 13:39:00.993      381.13930923    
13 Jun 2022 15:09:32.091    13 Jun 2022 15:17:44.971      492.87982571    
14 Jun 2022 06:18:43.183    14 Jun 2022 06:25:23.044      399.86138097    
14 Jun 2022 07:55:20.848    14 Jun 2022 08:03:18.352      477.50373197    
14 Jun 2022 09:35:31.457    14 Jun 2022 09:39:38.755      247.29763647    
14 Jun 2022 12:52:37.615    14 Jun 2022 12:58:15.278      337.66271191    
14 Jun 2022 14:29:17.194    14 Jun 2022 14:37:32.216      495.02257963    
14 Jun 2022 16:08:29.299    14 Jun 2022 16:12:22.921      233.62197167    
15 Jun 2022 05:39:13.577    15 Jun 2022 05:44:36.327      322.74955414    
15 Jun 2022 07:14:56.953    15 Jun 2022 07:23:07.789      490.83641401    
15 Jun 2022 08:54:36.415    15 Jun 2022 08:59:39.121      302.70600213    
15 Jun 2022 12:12:36.381    15 Jun 2022 12:17:23.776      287.39418805    
15 Jun 2022 13:49:04.599    15 Jun 2022 13:57:12.331      487.73182319    
15 Jun 2022 15:27:24.093    15 Jun 2022 15:33:12.946      348.85312943    
16 Jun 2022 05:00:17.672    16 Jun 2022 05:03:16.907      179.23456676    
16 Jun 2022 06:34:38.344    16 Jun 2022 06:42:53.828      495.48400214    
16 Jun 2022 08:13:45.735    16 Jun 2022 08:19:36.689      350.95385669    
16 Jun 2022 11:32:36.689    16 Jun 2022 11:36:26.194      229.50439065    
16 Jun 2022 13:08:53.758    16 Jun 2022 13:16:45.747      471.98929674    
16 Jun 2022 14:46:40.935    16 Jun 2022 14:53:36.871      415.93547340    
17 Jun 2022 05:54:25.536    17 Jun 2022 06:02:35.842      490.30580622    
17 Jun 2022 07:32:59.281    17 Jun 2022 07:39:31.826      392.54474770    
17 Jun 2022 10:52:40.318    17 Jun 2022 10:55:21.086      160.76833595    
17 Jun 2022 12:28:44.281    17 Jun 2022 12:36:12.765      448.48441863    
17 Jun 2022 14:06:08.124    17 Jun 2022 14:13:46.217      458.09327349    
18 Jun 2022 05:14:19.316    18 Jun 2022 05:22:12.904      473.58762027    
18 Jun 2022 06:52:17.138    18 Jun 2022 06:59:24.593      427.45539872    
18 Jun 2022 08:33:33.749    18 Jun 2022 08:35:14.916      101.16686759    
18 Jun 2022 10:12:58.181    18 Jun 2022 10:13:57.967      59.785355791    
18 Jun 2022 11:48:35.903    18 Jun 2022 11:55:33.610      417.70775464    
18 Jun 2022 13:25:41.608    18 Jun 2022 13:33:44.860      483.25250574    
19 Jun 2022 04:34:20.995    19 Jun 2022 04:41:43.549      442.55336960    
19 Jun 2022 06:11:39.475    19 Jun 2022 06:19:14.894      455.41945444    
19 Jun 2022 07:52:19.376    19 Jun 2022 07:55:23.396      184.01979968    
19 Jun 2022 11:08:28.468    19 Jun 2022 11:14:48.455      379.98660256    
19 Jun 2022 12:45:19.359    19 Jun 2022 12:53:34.656      495.29625013    
20 Jun 2022 03:54:33.020    20 Jun 2022 04:01:05.167      392.14719686    
20 Jun 2022 05:31:06.512    20 Jun 2022 05:39:02.516      476.00489304    
20 Jun 2022 07:11:14.773    20 Jun 2022 07:15:22.985      248.21186060    
20 Jun 2022 10:28:21.952    20 Jun 2022 10:33:57.410      335.45787135    
20 Jun 2022 12:05:00.178    20 Jun 2022 12:13:16.643      496.46527417    
20 Jun 2022 13:44:05.946    20 Jun 2022 13:48:14.379      248.43273077    
21 Jun 2022 03:15:01.022    21 Jun 2022 03:20:11.961      310.93991599    
21 Jun 2022 04:50:38.528    21 Jun 2022 04:58:47.136      488.60799997    
21 Jun 2022 06:30:15.383    21 Jun 2022 06:35:18.642      303.25915619    
21 Jun 2022 09:48:16.538    21 Jun 2022 09:53:00.457      283.91969284    
21 Jun 2022 11:24:43.282    21 Jun 2022 11:32:51.463      488.18066530    
21 Jun 2022 13:02:59.084    21 Jun 2022 13:08:56.593      357.50993534    
22 Jun 2022 02:36:08.403    22 Jun 2022 02:38:40.361      151.95809626    
22 Jun 2022 04:10:15.900    22 Jun 2022 04:18:28.291      492.39124866    
22 Jun 2022 05:49:20.377    22 Jun 2022 05:55:11.516      351.13908093    
22 Jun 2022 09:08:12.879    22 Jun 2022 09:11:57.201      224.32218587    
22 Jun 2022 10:44:28.135    22 Jun 2022 10:52:19.534      471.39973515    
22 Jun 2022 12:22:12.519    22 Jun 2022 12:29:14.402      421.88390158    
23 Jun 2022 03:29:59.169    23 Jun 2022 03:38:05.322      486.15326041    
23 Jun 2022 05:08:29.635    23 Jun 2022 05:15:01.953      392.31795100    
23 Jun 2022 08:28:13.191    23 Jun 2022 08:30:45.778      152.58685844    
23 Jun 2022 10:04:14.363    23 Jun 2022 10:11:41.154      446.79110718    
23 Jun 2022 11:41:35.848    23 Jun 2022 11:49:18.035      462.18649271    
24 Jun 2022 02:49:49.177    24 Jun 2022 02:57:37.251      468.07421852    
24 Jun 2022 04:27:43.250    24 Jun 2022 04:34:50.002      426.75191606    
24 Jun 2022 06:08:58.516    24 Jun 2022 06:10:39.100      100.58340604    
24 Jun 2022 07:48:36.527    24 Jun 2022 07:49:07.579      31.052085268    
24 Jun 2022 09:24:01.717    24 Jun 2022 09:30:56.539      414.82159202    
24 Jun 2022 11:01:05.284    24 Jun 2022 11:09:11.104      485.82010270    
25 Jun 2022 02:09:47.339    25 Jun 2022 02:17:02.509      435.16992355    
25 Jun 2022 03:47:01.401    25 Jun 2022 03:54:35.558      454.15727813    
25 Jun 2022 05:27:39.177    25 Jun 2022 05:30:43.393      184.21643033    
25 Jun 2022 08:43:50.068    25 Jun 2022 08:50:05.851      375.78239552    
25 Jun 2022 10:20:38.897    25 Jun 2022 10:28:55.378      496.48084062    
26 Jun 2022 01:29:56.353    26 Jun 2022 01:36:18.241      381.88828016    
26 Jun 2022 03:06:24.317    26 Jun 2022 03:14:18.399      474.08161685    
26 Jun 2022 04:46:29.930    26 Jun 2022 04:50:38.543      248.61248707    
26 Jun 2022 08:03:39.434    26 Jun 2022 08:09:09.176      329.74221606    
26 Jun 2022 09:40:15.532    26 Jun 2022 09:48:31.855      496.32225889    
26 Jun 2022 11:19:13.907    26 Jun 2022 11:23:38.013      264.10621715    


Number of events : 341


Observer: Hawaii
Start Time (UTC)            Stop Time (UTC)               Duration (s)         
28 Apr 2022 00:23:18.494    28 Apr 2022 00:30:47.579      449.08459109    
28 Apr 2022 02:01:35.952    28 Apr 2022 02:07:30.140      354.18850615    
28 Apr 2022 10:17:31.194    28 Apr 2022 10:25:33.965      482.77090128    
28 Apr 2022 23:44:17.157    28 Apr 2022 23:50:53.084      395.92685066    
29 Apr 2022 01:21:28.891    29 Apr 2022 01:28:25.553      416.66233685    
29 Apr 2022 09:38:06.299    29 Apr 2022 09:45:54.732      468.43252445    
29 Apr 2022 11:17:25.531    29 Apr 2022 11:20:59.195      213.66376922    
29 Apr 2022 23:05:34.104    29 Apr 2022 23:10:39.554      305.45001291    
30 Apr 2022 00:41:33.444    30 Apr 2022 00:49:10.694      457.25019663    
30 Apr 2022 08:58:47.031    30 Apr 2022 09:06:04.875      437.84444479    
30 Apr 2022 10:36:50.804    30 Apr 2022 10:42:37.084      346.28000575    
30 Apr 2022 22:27:48.002    30 Apr 2022 22:29:28.013      100.01137918    
01 May 2022 00:01:47.159    01 May 2022 00:09:47.680      480.52118914    
01 May 2022 08:19:34.599    01 May 2022 08:26:02.836      388.23720122    
01 May 2022 09:56:44.664    01 May 2022 10:03:43.140      418.47629081    
01 May 2022 23:22:09.095    01 May 2022 23:30:17.127      488.03208496    
02 May 2022 07:40:32.583    02 May 2022 07:45:44.680      312.09690215    
02 May 2022 09:16:51.649    02 May 2022 09:24:32.511      460.86259531    
02 May 2022 22:42:39.187    02 May 2022 22:50:38.783      479.59647265    
03 May 2022 00:22:26.903    03 May 2022 00:26:11.695      224.79262250    
03 May 2022 07:01:54.969    03 May 2022 07:04:56.067      181.09772679    
03 May 2022 08:37:07.131    03 May 2022 08:45:09.513      482.38241170    
03 May 2022 22:03:18.230    03 May 2022 22:10:51.541      453.31138086    
03 May 2022 23:41:48.255    03 May 2022 23:47:23.676      335.42090119    
04 May 2022 07:57:29.113    04 May 2022 08:05:35.825      486.71253022    
04 May 2022 21:24:08.414    04 May 2022 21:30:52.905      404.49115777    
04 May 2022 23:01:31.737    04 May 2022 23:08:15.427      403.69033639    
05 May 2022 07:17:56.766    05 May 2022 07:25:51.950      475.18404184    
05 May 2022 08:57:35.048    05 May 2022 09:00:34.740      179.69258109    
05 May 2022 20:45:15.483    05 May 2022 20:50:36.828      321.34413624    
05 May 2022 22:21:27.928    05 May 2022 22:28:56.040      448.11248122    
06 May 2022 06:38:30.086    06 May 2022 06:45:57.557      447.47064892    
06 May 2022 08:16:43.965    06 May 2022 08:22:16.744      332.77819053    
06 May 2022 20:07:05.133    06 May 2022 20:09:37.310      152.17654647    
06 May 2022 21:41:33.810    06 May 2022 21:49:28.196      474.38604621    
07 May 2022 05:59:10.051    07 May 2022 06:05:51.322      401.27106768    
07 May 2022 07:36:28.366    07 May 2022 07:43:20.188      411.82220707    
07 May 2022 21:01:48.214    07 May 2022 21:09:52.739      484.52478591    
08 May 2022 05:19:59.632    08 May 2022 05:25:29.919      330.28646791    
08 May 2022 06:56:27.364    08 May 2022 07:04:05.644      458.27927756    
08 May 2022 20:22:10.930    08 May 2022 20:30:09.550      478.61927769    
08 May 2022 22:02:15.594    08 May 2022 22:05:27.482      191.88745968    
09 May 2022 04:41:09.249    09 May 2022 04:44:42.571      213.32210158    
09 May 2022 06:16:35.515    09 May 2022 06:24:38.240      482.72485131    
09 May 2022 19:42:42.617    09 May 2022 19:50:17.651      455.03419640    
09 May 2022 21:21:23.377    09 May 2022 21:26:40.582      317.20520683    
10 May 2022 05:36:50.533    10 May 2022 05:44:59.939      489.40632439    
10 May 2022 19:03:25.240    10 May 2022 19:10:14.763      409.52261528    
10 May 2022 20:40:57.911    10 May 2022 20:47:29.061      391.15013334    
11 May 2022 04:57:11.435    11 May 2022 05:05:11.388      479.95313971    
11 May 2022 06:37:07.952    11 May 2022 06:39:33.751      145.79849158    
11 May 2022 18:24:23.909    11 May 2022 18:29:55.456      331.54670801    
11 May 2022 20:00:46.325    11 May 2022 20:08:05.441      439.11540796    
12 May 2022 04:17:38.094    12 May 2022 04:25:12.367      454.27331332    
12 May 2022 05:56:00.039    12 May 2022 06:01:21.068      321.02877415    
12 May 2022 17:45:58.983    12 May 2022 17:48:59.054      180.07141063    
12 May 2022 19:20:44.964    12 May 2022 19:28:33.029      468.06529871    
13 May 2022 03:38:11.328    13 May 2022 03:45:01.702      410.37399934    
13 May 2022 05:15:35.834    13 May 2022 05:22:21.746      405.91245802    
13 May 2022 18:40:52.414    13 May 2022 18:48:52.889      480.47498044    
14 May 2022 02:58:53.745    14 May 2022 03:04:36.416      342.67109195    
14 May 2022 04:35:27.584    14 May 2022 04:43:03.208      455.62423199    
14 May 2022 18:01:08.334    14 May 2022 18:09:05.019      476.68522876    
14 May 2022 19:41:29.613    14 May 2022 19:44:07.660      158.04699403    
15 May 2022 02:19:54.023    15 May 2022 02:23:47.457      233.43383839    
15 May 2022 03:55:29.058    15 May 2022 04:03:31.354      482.29539843    
15 May 2022 17:21:33.266    15 May 2022 17:29:08.538      455.27116171    
15 May 2022 19:00:22.974    15 May 2022 19:05:23.495      300.52133377    
16 May 2022 03:15:37.711    16 May 2022 03:23:48.387      490.67648447    
16 May 2022 16:42:09.015    16 May 2022 16:49:01.306      412.29092687    
16 May 2022 18:19:49.029    16 May 2022 18:26:08.912      379.88364974    
17 May 2022 02:35:52.430    17 May 2022 02:43:55.070      482.64002069    
17 May 2022 04:16:06.824    17 May 2022 04:17:57.690      110.86557970    
17 May 2022 16:03:00.283    17 May 2022 16:08:38.288      338.00483344    
17 May 2022 17:39:30.136    17 May 2022 17:46:41.186      431.04988234    
18 May 2022 01:56:13.000    18 May 2022 02:03:51.262      458.26166865    
18 May 2022 03:34:41.024    18 May 2022 03:39:51.846      310.82173398    
18 May 2022 15:24:24.645    18 May 2022 15:27:41.575      196.93037546    
18 May 2022 16:59:21.955    18 May 2022 17:07:04.294      462.33899295    
19 May 2022 01:16:40.138    19 May 2022 01:23:35.873      415.73525037    
19 May 2022 02:54:08.938    19 May 2022 03:00:49.432      400.49384711    
19 May 2022 16:19:22.840    19 May 2022 16:27:19.515      476.67462858    
20 May 2022 00:37:16.257    20 May 2022 00:43:06.113      349.85578159    
20 May 2022 02:13:53.995    20 May 2022 02:21:26.678      452.68329101    
20 May 2022 15:39:32.334    20 May 2022 15:47:26.952      474.61779410    
20 May 2022 17:20:09.672    20 May 2022 17:22:14.261      124.58945228    
20 May 2022 23:58:09.219    21 May 2022 00:02:13.736      244.51693747    
21 May 2022 01:33:49.249    21 May 2022 01:41:50.187      480.93827442    
21 May 2022 14:59:50.894    21 May 2022 15:07:25.799      454.90524669    
21 May 2022 16:38:47.582    21 May 2022 16:43:34.236      286.65407156    
22 May 2022 00:53:51.938    22 May 2022 01:02:02.373      490.43485714    
22 May 2022 14:20:20.215    22 May 2022 14:27:14.016      413.80015413    
22 May 2022 15:58:05.603    22 May 2022 16:04:16.462      370.85890771    
23 May 2022 00:14:00.854    23 May 2022 00:22:04.089      483.23454856    
23 May 2022 01:54:33.932    23 May 2022 01:55:46.404      72.472194792    
23 May 2022 13:41:04.753    23 May 2022 13:46:46.810      342.05676938    
23 May 2022 15:17:39.777    23 May 2022 15:24:44.527      424.75041974    
23 May 2022 23:34:15.725    23 May 2022 23:41:55.248      459.52276778    
24 May 2022 01:12:47.861    24 May 2022 01:17:49.996      302.13503705    
24 May 2022 13:02:20.546    24 May 2022 13:05:47.807      207.26027788    
24 May 2022 14:37:25.099    24 May 2022 14:45:03.069      457.96967510    
24 May 2022 22:54:37.222    24 May 2022 23:01:34.805      417.58294108    
25 May 2022 00:32:08.538    25 May 2022 00:38:44.038      395.49992020    
25 May 2022 13:57:19.724    25 May 2022 14:05:13.566      473.84200213    
25 May 2022 22:15:07.696    25 May 2022 22:21:00.037      352.34154530    
25 May 2022 23:51:47.363    25 May 2022 23:59:16.790      449.42628765    
26 May 2022 13:17:23.103    26 May 2022 13:25:16.213      473.10952049    
26 May 2022 14:58:14.647    26 May 2022 14:59:49.499      94.851924980    
26 May 2022 21:35:54.773    26 May 2022 21:40:02.937      248.16399574    
26 May 2022 23:11:36.786    26 May 2022 23:19:35.464      478.67849143    
27 May 2022 12:37:35.638    27 May 2022 12:45:10.263      454.62496035    
27 May 2022 14:16:36.988    27 May 2022 14:21:14.035      277.04683043    
27 May 2022 22:31:33.876    27 May 2022 22:39:42.649      488.77325160    
28 May 2022 11:57:58.964    28 May 2022 12:04:53.740      414.77584506    
28 May 2022 13:35:47.678    28 May 2022 13:41:52.693      365.01511460    
28 May 2022 21:51:37.360    28 May 2022 21:59:39.269      481.90873411    
28 May 2022 23:32:39.292    28 May 2022 23:32:51.354      12.061707862    
29 May 2022 11:18:37.405    29 May 2022 11:24:21.991      344.58677194    
29 May 2022 12:55:15.438    29 May 2022 13:02:16.386      420.94848779    
29 May 2022 21:11:46.940    29 May 2022 21:19:25.269      458.32865462    
29 May 2022 22:50:21.253    29 May 2022 22:55:16.428      295.17512899    
30 May 2022 10:39:46.212    30 May 2022 10:43:19.433      213.22038090    
30 May 2022 12:14:54.725    30 May 2022 12:22:30.295      455.57035416    
30 May 2022 20:32:03.288    30 May 2022 20:38:59.613      416.32462211    
30 May 2022 22:09:35.476    30 May 2022 22:16:06.543      391.06729017    
31 May 2022 11:34:43.543    31 May 2022 11:42:36.056      472.51233850    
31 May 2022 19:52:28.789    31 May 2022 19:58:19.545      350.75589395    
31 May 2022 21:29:08.650    31 May 2022 21:36:34.672      446.02240882    
01 Jun 2022 10:54:41.284    01 Jun 2022 11:02:33.927      472.64309116    
01 Jun 2022 12:35:41.831    01 Jun 2022 12:36:57.931      76.100291626    
01 Jun 2022 19:13:11.270    01 Jun 2022 19:17:16.863      245.59277748    
01 Jun 2022 20:48:52.756    01 Jun 2022 20:56:48.499      475.74311866    
02 Jun 2022 10:14:48.314    02 Jun 2022 10:22:23.196      454.88227608    
02 Jun 2022 11:53:51.709    02 Jun 2022 11:58:24.536      272.82703462    
02 Jun 2022 20:08:44.743    02 Jun 2022 20:16:50.734      485.99018325    
03 Jun 2022 09:35:06.246    03 Jun 2022 09:42:01.914      415.66835650    
03 Jun 2022 11:12:56.186    03 Jun 2022 11:18:59.160      362.97361208    
03 Jun 2022 19:28:43.298    03 Jun 2022 19:36:42.343      479.04524443    
04 Jun 2022 08:55:39.357    04 Jun 2022 09:01:25.468      346.11151818    
04 Jun 2022 10:32:18.313    04 Jun 2022 10:39:18.386      420.07293964    
04 Jun 2022 18:48:48.114    04 Jun 2022 18:56:23.277      455.16322124    
04 Jun 2022 20:27:22.739    04 Jun 2022 20:32:13.054      290.31532395    
05 Jun 2022 08:16:42.646    05 Jun 2022 08:20:18.524      215.87814064    
05 Jun 2022 09:51:52.238    05 Jun 2022 09:59:27.698      455.45991138    
05 Jun 2022 18:08:59.890    05 Jun 2022 18:15:52.464      412.57408516    
05 Jun 2022 19:46:31.473    05 Jun 2022 19:52:58.978      387.50511752    
06 Jun 2022 09:11:35.882    06 Jun 2022 09:19:28.810      472.92862446    
06 Jun 2022 17:29:21.127    06 Jun 2022 17:35:07.028      345.90190889    
06 Jun 2022 19:05:59.684    06 Jun 2022 19:13:22.501      442.81754099    
07 Jun 2022 08:31:28.600    07 Jun 2022 08:39:22.004      473.40410971    
07 Jun 2022 10:12:28.373    07 Jun 2022 10:13:46.103      77.730320755    
07 Jun 2022 16:50:00.222    07 Jun 2022 16:53:58.185      237.96331272    
07 Jun 2022 18:25:39.055    07 Jun 2022 18:33:31.592      472.53733459    
08 Jun 2022 07:51:30.749    08 Jun 2022 07:59:06.567      455.81821291    
08 Jun 2022 09:30:33.454    08 Jun 2022 09:35:07.874      274.42063610    
08 Jun 2022 17:45:26.463    08 Jun 2022 17:53:29.024      482.56064511    
09 Jun 2022 07:11:43.946    09 Jun 2022 07:18:40.532      416.58579205    
09 Jun 2022 08:49:33.021    09 Jun 2022 08:55:37.891      364.87003454    
09 Jun 2022 17:05:20.572    09 Jun 2022 17:13:15.769      475.19707864    
10 Jun 2022 06:32:12.508    10 Jun 2022 06:37:59.232      346.72358518    
10 Jun 2022 08:08:50.350    10 Jun 2022 08:15:52.497      422.14685372    
10 Jun 2022 16:25:21.083    10 Jun 2022 16:32:51.750      450.66700776    
10 Jun 2022 18:03:54.225    10 Jun 2022 18:08:42.305      288.07992915    
11 Jun 2022 05:53:11.667    11 Jun 2022 05:56:47.083      215.41678539    
11 Jun 2022 07:28:19.581    11 Jun 2022 07:35:57.171      457.58990290    
11 Jun 2022 15:45:28.752    11 Jun 2022 15:52:15.827      407.07457296    
11 Jun 2022 17:22:58.397    11 Jun 2022 17:29:23.680      385.28269383    
12 Jun 2022 06:47:58.628    12 Jun 2022 06:55:53.613      474.98486582    
12 Jun 2022 15:05:46.262    12 Jun 2022 15:11:24.917      338.65423333    
12 Jun 2022 16:42:22.212    12 Jun 2022 16:49:42.522      440.31063634    
13 Jun 2022 06:07:46.852    13 Jun 2022 06:15:42.084      475.23228012    
13 Jun 2022 07:48:36.782    13 Jun 2022 07:50:14.948      98.165911355    
13 Jun 2022 14:26:22.968    13 Jun 2022 14:30:09.260      226.29219537    
13 Jun 2022 16:01:57.266    13 Jun 2022 16:09:46.868      469.60226357    
14 Jun 2022 05:27:44.626    14 Jun 2022 05:35:21.839      457.21325381    
14 Jun 2022 07:06:43.978    14 Jun 2022 07:11:25.422      281.44435046    
14 Jun 2022 15:21:40.419    14 Jun 2022 15:29:39.487      479.06839546    
15 Jun 2022 04:47:53.612    15 Jun 2022 04:54:50.845      417.23237783    
15 Jun 2022 06:25:39.737    15 Jun 2022 06:31:50.095      370.35804761    
15 Jun 2022 14:41:30.340    15 Jun 2022 14:49:21.328      470.98824290    
16 Jun 2022 04:08:18.272    16 Jun 2022 04:14:04.273      346.00087643    
16 Jun 2022 05:44:52.907    16 Jun 2022 05:51:59.721      426.81419193    
16 Jun 2022 14:01:26.762    16 Jun 2022 14:08:52.265      445.50247821    
16 Jun 2022 15:39:56.596    16 Jun 2022 15:44:45.806      289.21035767    
17 Jun 2022 03:29:14.677    17 Jun 2022 03:32:45.683      211.00640647    
17 Jun 2022 05:04:17.908    17 Jun 2022 05:11:59.484      461.57580747    
17 Jun 2022 13:21:30.525    17 Jun 2022 13:28:11.053      400.52806728    
17 Jun 2022 14:58:56.945    17 Jun 2022 15:05:21.981      385.03574661    
18 Jun 2022 04:23:52.736    18 Jun 2022 04:31:50.991      478.25436661    
18 Jun 2022 12:41:44.575    18 Jun 2022 12:47:14.330      329.75561935    
18 Jun 2022 14:18:16.695    18 Jun 2022 14:25:35.807      439.11198908    
19 Jun 2022 03:43:36.799    19 Jun 2022 03:51:34.443      477.64444454    
19 Jun 2022 05:24:12.396    19 Jun 2022 05:26:20.092      127.69599692    
19 Jun 2022 12:02:19.690    19 Jun 2022 12:05:50.902      211.21195127    
19 Jun 2022 13:37:47.608    19 Jun 2022 13:45:35.145      467.53703482    
20 Jun 2022 03:03:30.524    20 Jun 2022 03:11:09.032      458.50769773    
20 Jun 2022 04:42:24.028    20 Jun 2022 04:47:16.963      292.93481255    
20 Jun 2022 12:57:26.597    20 Jun 2022 13:05:22.700      476.10317882    
21 Jun 2022 02:23:35.680    21 Jun 2022 02:30:32.613      416.93349027    
21 Jun 2022 04:01:16.746    21 Jun 2022 04:07:35.488      378.74209487    
21 Jun 2022 12:17:12.375    21 Jun 2022 12:24:59.372      466.99704422    
21 Jun 2022 13:57:49.986    21 Jun 2022 13:58:33.293      43.307392776    
22 Jun 2022 01:43:57.018    22 Jun 2022 01:49:40.065      343.04641932    
22 Jun 2022 03:20:26.192    22 Jun 2022 03:27:39.627      433.43496358    
22 Jun 2022 11:37:04.734    22 Jun 2022 11:44:24.967      440.23248190    
22 Jun 2022 13:15:29.358    22 Jun 2022 13:20:23.833      294.47526920    
23 Jun 2022 01:04:52.385    23 Jun 2022 01:08:13.169      200.78455046    
23 Jun 2022 02:39:47.284    23 Jun 2022 02:47:34.062      466.77801629    
