GMAT/Constellation/Contact/ContactLocator9.txt

Target: HSEYE9

Observer: Bahrain
Start Time (UTC)            Stop Time (UTC)               Duration (s)         
27 Apr 2022 17:55:56.602    27 Apr 2022 18:03:45.724      469.12240862    
27 Apr 2022 19:34:37.098    27 Apr 2022 19:40:43.176      366.07759406    
28 Apr 2022 02:11:53.225    28 Apr 2022 02:19:04.904      431.67885229    
28 Apr 2022 03:49:36.168    28 Apr 2022 03:56:36.704      420.53629083    
28 Apr 2022 17:19:54.284    28 Apr 2022 17:27:15.589      441.30458148    
28 Apr 2022 18:57:51.408    28 Apr 2022 19:04:41.188      409.78002154    
29 Apr 2022 01:35:48.533    29 Apr 2022 01:42:22.756      394.22241852    
29 Apr 2022 03:13:02.251    29 Apr 2022 03:20:38.215      455.96392035    
29 Apr 2022 16:43:59.048    29 Apr 2022 16:50:38.090      399.04154283    
29 Apr 2022 18:21:11.324    29 Apr 2022 18:28:34.293      442.96874497    
30 Apr 2022 00:59:47.627    30 Apr 2022 01:05:32.705      345.07757344    
30 Apr 2022 02:36:33.182    30 Apr 2022 02:44:31.761      478.57872677    
30 Apr 2022 16:08:14.018    30 Apr 2022 16:13:49.983      335.96538941    
30 Apr 2022 17:44:36.039    30 Apr 2022 17:52:23.194      467.15484360    
01 May 2022 00:23:52.852    01 May 2022 00:28:32.300      279.44810078    
01 May 2022 02:00:07.732    01 May 2022 02:08:18.444      490.71144015    
01 May 2022 15:32:47.961    01 May 2022 15:36:42.378      234.41714313    
01 May 2022 17:08:05.149    01 May 2022 17:16:08.178      483.02910685    
01 May 2022 23:48:11.626    01 May 2022 23:51:14.032      182.40630480    
02 May 2022 01:23:45.177    02 May 2022 01:31:58.849      493.67158615    
02 May 2022 16:31:38.496    02 May 2022 16:39:49.276      490.77961331    
02 May 2022 18:12:48.588    02 May 2022 18:15:02.426      133.83836421    
03 May 2022 00:47:25.094    03 May 2022 00:55:33.259      488.16530536    
03 May 2022 02:27:12.487    03 May 2022 02:30:25.536      193.04897207    
03 May 2022 15:55:16.124    03 May 2022 16:03:26.317      490.19273319    
03 May 2022 17:35:17.946    03 May 2022 17:39:29.871      251.92464347    
04 May 2022 00:11:07.276    04 May 2022 00:19:01.739      474.46381057    
04 May 2022 01:49:53.037    04 May 2022 01:55:07.401      314.36457115    
04 May 2022 15:18:58.283    04 May 2022 15:26:58.917      480.63449414    
04 May 2022 16:58:10.364    04 May 2022 17:03:35.234      324.87013489    
04 May 2022 23:34:51.713    04 May 2022 23:42:24.156      452.44280468    
05 May 2022 01:12:57.302    05 May 2022 01:19:22.776      385.47472878    
05 May 2022 14:42:45.501    05 May 2022 14:50:26.412      460.91155621    
05 May 2022 16:21:12.890    05 May 2022 16:27:31.388      378.49791212    
05 May 2022 22:58:38.633    05 May 2022 23:05:40.142      421.50906675    
06 May 2022 00:36:12.047    06 May 2022 00:43:24.757      432.71062507    
06 May 2022 14:06:38.762    06 May 2022 14:13:47.681      428.91910344    
06 May 2022 15:44:22.222    06 May 2022 15:51:21.534      419.31225176    
06 May 2022 22:22:28.626    06 May 2022 22:28:48.970      380.34408559    
06 May 2022 23:59:33.188    07 May 2022 00:07:17.286      464.09853694    
07 May 2022 13:30:39.958    07 May 2022 13:37:00.700      380.74194384    
07 May 2022 15:07:36.967    07 May 2022 15:15:06.953      449.98611255    
07 May 2022 21:46:23.014    07 May 2022 21:51:49.193      326.17881694    
07 May 2022 23:22:58.802    07 May 2022 23:31:02.142      483.33965825    
08 May 2022 12:54:53.321    08 May 2022 13:00:01.099      307.77786628    
08 May 2022 14:30:56.438    08 May 2022 14:38:48.210      471.77229555    
08 May 2022 21:10:25.102    08 May 2022 21:14:37.393      252.29117927    
08 May 2022 22:46:27.822    08 May 2022 22:54:40.246      492.42437468    
09 May 2022 12:19:33.654    09 May 2022 12:22:33.943      180.28861927    
09 May 2022 13:54:20.302    09 May 2022 14:02:25.507      485.20457282    
09 May 2022 20:34:48.400    09 May 2022 20:36:59.964      131.56314081    
09 May 2022 22:09:59.618    09 May 2022 22:18:12.084      492.46645728    
10 May 2022 13:17:48.464    10 May 2022 13:25:58.806      490.34223041    
10 May 2022 14:58:31.721    10 May 2022 15:01:31.674      179.95301583    
10 May 2022 21:33:33.834    10 May 2022 21:41:37.865      484.03058220    
10 May 2022 23:12:55.372    10 May 2022 23:16:58.932      243.56011053    
11 May 2022 12:41:21.034    11 May 2022 12:49:27.867      486.83232344    
11 May 2022 14:21:04.714    11 May 2022 14:25:42.605      277.89050450    
11 May 2022 20:57:10.330    11 May 2022 21:04:57.586      467.25653945    
11 May 2022 22:35:40.231    11 May 2022 22:41:22.488      342.25658253    
12 May 2022 12:04:58.357    12 May 2022 12:12:52.210      473.85305869    
12 May 2022 13:43:54.180    12 May 2022 13:49:38.022      343.84228543    
12 May 2022 20:20:49.176    12 May 2022 20:28:11.038      441.86170354    
12 May 2022 21:58:42.137    12 May 2022 22:05:26.129      403.99217448    
13 May 2022 11:28:41.114    13 May 2022 11:36:11.024      449.91041233    
13 May 2022 13:06:52.435    13 May 2022 13:13:25.531      393.09642382    
13 May 2022 19:44:30.724    13 May 2022 19:51:17.735      407.01075472    
13 May 2022 21:21:52.804    13 May 2022 21:29:18.005      445.20078627    
14 May 2022 10:52:30.577    14 May 2022 10:59:22.910      412.33303116    
14 May 2022 12:29:57.016    14 May 2022 12:37:07.498      430.48237102    
14 May 2022 19:08:15.802    14 May 2022 19:14:16.727      360.92477142    
14 May 2022 20:45:09.130    14 May 2022 20:53:01.087      471.95658908    
15 May 2022 10:16:29.299    15 May 2022 10:22:25.189      355.89077388    
15 May 2022 11:53:06.817    15 May 2022 12:00:44.923      458.10544338    
15 May 2022 18:32:06.298    15 May 2022 18:37:06.013      299.71422753    
15 May 2022 20:08:29.552    15 May 2022 20:16:36.803      487.25072227    
16 May 2022 09:40:43.713    16 May 2022 09:45:11.306      267.59327705    
16 May 2022 11:16:21.294    16 May 2022 11:24:18.236      476.94283398    
16 May 2022 17:56:07.573    16 May 2022 17:59:40.140      212.56727861    
16 May 2022 19:31:53.182    16 May 2022 19:40:05.908      492.72632342    
17 May 2022 09:05:55.636    17 May 2022 09:06:59.326      63.690744422    
17 May 2022 10:39:40.209    17 May 2022 10:47:47.557      487.34798839    
17 May 2022 12:21:30.572    17 May 2022 12:22:23.478      52.906270127    
17 May 2022 18:55:19.502    17 May 2022 19:03:28.786      489.28409109    
17 May 2022 20:35:34.542    17 May 2022 20:37:48.543      134.00166705    
18 May 2022 10:03:03.555    18 May 2022 10:11:12.776      489.22155057    
18 May 2022 11:43:20.417    18 May 2022 11:47:03.839      223.42201977    
18 May 2022 18:18:48.249    18 May 2022 18:26:45.572      477.32355008    
18 May 2022 19:57:45.579    18 May 2022 20:02:34.702      289.12337112    
19 May 2022 09:26:31.538    19 May 2022 09:34:33.565      482.02794049    
19 May 2022 11:05:54.720    19 May 2022 11:11:00.848      306.12775170    
19 May 2022 17:42:19.370    19 May 2022 17:49:56.188      456.81819742    
19 May 2022 19:20:32.406    19 May 2022 19:26:42.341      369.93456149    
20 May 2022 08:50:04.640    20 May 2022 08:57:49.325      464.68494904    
20 May 2022 10:28:41.450    20 May 2022 10:34:46.483      365.03286873    
20 May 2022 17:05:53.054    20 May 2022 17:13:00.321      427.26722269    
20 May 2022 18:43:31.955    20 May 2022 18:50:34.406      422.45168384    
21 May 2022 08:13:43.770    21 May 2022 08:20:59.026      435.25625160    
21 May 2022 09:51:35.907    21 May 2022 09:58:25.370      409.46293445    
21 May 2022 16:29:29.842    21 May 2022 16:35:57.313      387.47174288    
21 May 2022 18:06:38.861    21 May 2022 18:14:16.139      457.27778587    
22 May 2022 07:37:30.656    22 May 2022 07:44:00.826      390.17017392    
22 May 2022 09:14:36.305    22 May 2022 09:21:59.200      442.89442274    
22 May 2022 15:53:10.949    22 May 2022 15:58:45.839      334.89022708    
22 May 2022 17:29:50.797    22 May 2022 17:37:49.741      478.94401567    
23 May 2022 07:01:29.039    23 May 2022 07:06:50.865      321.82622004    
23 May 2022 08:37:41.804    23 May 2022 08:45:28.713      466.90898332    
23 May 2022 15:16:59.348    23 May 2022 15:21:22.830      263.48191614    
23 May 2022 16:53:06.521    23 May 2022 17:01:16.328      489.80724381    
24 May 2022 06:25:50.669    24 May 2022 06:29:17.277      206.60735099    
24 May 2022 08:00:51.999    24 May 2022 08:08:54.203      482.20432287    
24 May 2022 14:41:06.042    24 May 2022 14:43:37.203      151.16072455    
24 May 2022 16:16:25.314    24 May 2022 16:24:36.487      491.17317006    
25 May 2022 07:24:06.753    25 May 2022 07:32:15.686      488.93333045    
25 May 2022 09:05:01.949    25 May 2022 09:07:37.401      155.45193607    
25 May 2022 15:39:46.774    25 May 2022 15:47:50.491      483.71791039    
25 May 2022 17:19:17.591    25 May 2022 17:22:58.792      221.20100140    
26 May 2022 06:47:26.153    26 May 2022 06:55:32.956      486.80317673    
26 May 2022 08:27:16.413    26 May 2022 08:31:41.541      265.12778926    
26 May 2022 15:03:10.728    26 May 2022 15:10:58.378      467.64993434    
26 May 2022 16:41:45.089    26 May 2022 16:47:15.388      330.29883992    
27 May 2022 06:10:50.524    27 May 2022 06:18:45.561      475.03653020    
27 May 2022 07:49:51.128    27 May 2022 07:55:26.683      335.55508152    
27 May 2022 14:26:37.230    27 May 2022 14:33:59.959      442.72948669    
27 May 2022 16:04:32.789    27 May 2022 16:11:09.105      396.31634544    
28 May 2022 05:34:20.530    28 May 2022 05:41:52.711      452.18059371    
28 May 2022 07:12:35.674    28 May 2022 07:19:03.173      387.49833667    
28 May 2022 13:50:06.620    28 May 2022 13:56:54.766      408.14584305    
28 May 2022 15:27:30.277    28 May 2022 15:34:50.229      439.95207895    
29 May 2022 04:57:57.414    29 May 2022 05:04:53.033      415.61933085    
29 May 2022 06:35:27.107    29 May 2022 06:42:33.862      426.75511868    
29 May 2022 13:13:39.722    29 May 2022 13:19:41.849      362.12737409    
29 May 2022 14:50:33.974    29 May 2022 14:58:22.199      468.22455403    
30 May 2022 04:21:43.666    30 May 2022 04:27:43.908      360.24225557    
30 May 2022 05:58:24.155    30 May 2022 06:05:59.911      455.75642141    
30 May 2022 12:37:18.432    30 May 2022 12:42:19.197      300.76453459    
30 May 2022 14:13:42.141    30 May 2022 14:21:46.619      484.47784296    
31 May 2022 03:45:45.486    31 May 2022 03:50:19.006      273.51957260    
31 May 2022 05:21:26.199    31 May 2022 05:29:21.819      475.62001973    
31 May 2022 12:01:08.162    31 May 2022 12:04:41.296      213.13404342    
31 May 2022 13:36:53.801    31 May 2022 13:45:04.321      490.51969280    
01 Jun 2022 03:10:38.644    01 Jun 2022 03:12:02.425      83.780967502    
01 Jun 2022 04:44:32.965    01 Jun 2022 04:52:39.731      486.76583472    
01 Jun 2022 06:26:41.350    01 Jun 2022 06:26:56.701      15.351572272    
01 Jun 2022 13:00:08.390    01 Jun 2022 13:08:15.725      487.33474760    
01 Jun 2022 14:40:29.327    01 Jun 2022 14:42:27.451      118.12391327    
02 Jun 2022 04:07:44.421    02 Jun 2022 04:15:53.544      489.12255946    
02 Jun 2022 05:48:02.487    02 Jun 2022 05:51:42.218      219.73111649    
02 Jun 2022 12:23:25.613    02 Jun 2022 12:31:20.976      475.36281652    
02 Jun 2022 14:02:23.468    02 Jun 2022 14:07:07.599      284.13183494    
03 Jun 2022 03:31:00.765    03 Jun 2022 03:39:02.921      482.15563574    
03 Jun 2022 05:10:23.941    03 Jun 2022 05:15:28.793      304.85143878    
03 Jun 2022 11:46:45.407    03 Jun 2022 11:54:19.993      454.58644592    
03 Jun 2022 13:24:57.832    03 Jun 2022 13:31:04.952      367.11979980    
04 Jun 2022 02:54:22.481    04 Jun 2022 03:02:07.237      464.75576753    
04 Jun 2022 04:32:58.543    04 Jun 2022 04:39:03.521      364.97816046    
04 Jun 2022 11:10:07.959    04 Jun 2022 11:17:12.440      424.48087062    
04 Jun 2022 12:47:45.617    04 Jun 2022 12:54:46.167      420.54979659    
05 Jun 2022 02:17:50.504    05 Jun 2022 02:25:05.420      434.91579441    
05 Jun 2022 03:55:41.236    05 Jun 2022 04:02:31.364      410.12765940    
05 Jun 2022 10:33:33.840    05 Jun 2022 10:39:57.609      383.76923769    
05 Jun 2022 12:10:41.096    05 Jun 2022 12:18:16.826      455.73005959    
06 Jun 2022 01:41:26.632    06 Jun 2022 01:47:55.529      388.89661414    
06 Jun 2022 03:18:30.137    06 Jun 2022 03:25:54.091      443.95391049    
06 Jun 2022 09:57:04.358    06 Jun 2022 10:02:34.059      329.70184494    
06 Jun 2022 11:33:41.825    06 Jun 2022 11:41:39.228      477.40315982    
07 Jun 2022 01:05:14.836    07 Jun 2022 01:10:33.456      318.61949426    
07 Jun 2022 02:41:24.363    07 Jun 2022 02:49:12.462      468.09956445    
07 Jun 2022 09:20:42.817    07 Jun 2022 09:24:58.370      255.55336454    
07 Jun 2022 10:56:46.508    07 Jun 2022 11:04:54.518      488.01027263    
08 Jun 2022 00:29:28.133    08 Jun 2022 00:32:46.047      197.91422272    
08 Jun 2022 02:04:23.490    08 Jun 2022 02:12:26.768      483.27836558    
08 Jun 2022 08:44:42.689    08 Jun 2022 08:46:56.976      134.28695141    
08 Jun 2022 10:19:54.400    08 Jun 2022 10:28:03.290      488.89015306    
09 Jun 2022 01:27:27.380    09 Jun 2022 01:35:37.012      489.63220830    
09 Jun 2022 03:08:15.713    09 Jun 2022 03:11:02.750      167.03692874    
09 Jun 2022 09:43:05.088    09 Jun 2022 09:51:05.810      480.72232339    
09 Jun 2022 11:22:30.060    09 Jun 2022 11:26:19.241      229.18036398    
10 Jun 2022 00:50:36.128    10 Jun 2022 00:58:42.960      486.83154109    
10 Jun 2022 02:30:20.969    10 Jun 2022 02:34:53.974      273.00464034    
10 Jun 2022 09:06:18.404    10 Jun 2022 09:14:02.097      463.69286341    
10 Jun 2022 10:44:48.122    10 Jun 2022 10:50:23.302      335.18081027    
11 Jun 2022 00:13:50.091    11 Jun 2022 00:21:44.118      474.02644653    
11 Jun 2022 01:52:45.286    11 Jun 2022 01:58:27.538      342.25176021    
11 Jun 2022 08:29:34.424    11 Jun 2022 08:36:51.929      437.50565287    
11 Jun 2022 10:07:25.616    11 Jun 2022 10:14:05.289      399.67238707    
11 Jun 2022 23:37:09.996    11 Jun 2022 23:44:39.622      449.62684291    
12 Jun 2022 01:15:19.315    12 Jun 2022 01:21:52.710      393.39490591    
12 Jun 2022 07:52:53.543    12 Jun 2022 07:59:34.774      401.23158074    
12 Jun 2022 09:30:12.758    12 Jun 2022 09:37:34.848      442.09009573    
12 Jun 2022 23:00:37.223    12 Jun 2022 23:07:27.958      410.73518854    
13 Jun 2022 00:38:00.278    13 Jun 2022 00:45:12.166      431.88764623    
13 Jun 2022 07:16:16.716    13 Jun 2022 07:22:09.550      352.83426102    
13 Jun 2022 08:53:06.093    13 Jun 2022 09:00:55.293      469.20015224    
13 Jun 2022 22:24:14.613    13 Jun 2022 22:30:06.156      351.54323692    
14 Jun 2022 00:00:46.968    14 Jun 2022 00:08:27.006      460.03776072    
14 Jun 2022 06:39:46.204    14 Jun 2022 06:44:33.880      287.67604034    
14 Jun 2022 08:16:03.929    14 Jun 2022 08:24:08.178      484.24965790    
14 Jun 2022 21:48:09.669    14 Jun 2022 21:52:26.581      256.91206770    
14 Jun 2022 23:23:38.800    14 Jun 2022 23:31:37.692      478.89130114    
15 Jun 2022 06:03:29.048    15 Jun 2022 06:06:40.629      191.58071597    
15 Jun 2022 07:39:05.319    15 Jun 2022 07:47:14.308      488.98897948    
15 Jun 2022 22:46:35.534    15 Jun 2022 22:54:44.339      488.80495531    
16 Jun 2022 00:28:02.118    16 Jun 2022 00:29:38.545      96.426673152    
16 Jun 2022 07:02:09.727    16 Jun 2022 07:10:14.080      484.35305518    
16 Jun 2022 08:42:09.093    16 Jun 2022 08:44:47.811      158.71860419    
16 Jun 2022 22:09:37.180    16 Jun 2022 22:17:46.812      489.63202222    
16 Jun 2022 23:49:43.085    16 Jun 2022 23:53:43.011      239.92570244    
17 Jun 2022 06:25:16.892    17 Jun 2022 06:33:07.615      470.72355602    
17 Jun 2022 08:04:04.521    17 Jun 2022 08:09:05.263      300.74244754    
17 Jun 2022 21:32:43.993    17 Jun 2022 21:40:44.722      480.72960464    
17 Jun 2022 23:11:56.754    17 Jun 2022 23:17:16.343      319.58945794    
18 Jun 2022 05:48:26.795    18 Jun 2022 05:55:54.794      447.99918816    
18 Jun 2022 07:26:31.129    18 Jun 2022 07:32:49.038      377.90919039    
18 Jun 2022 20:55:56.552    18 Jun 2022 21:03:37.363      460.81083098    
18 Jun 2022 22:34:22.380    18 Jun 2022 22:40:39.221      376.84067125    
19 Jun 2022 05:11:39.702    19 Jun 2022 05:18:35.215      415.51355071    
19 Jun 2022 06:49:10.018    19 Jun 2022 06:56:17.903      427.88583920    
19 Jun 2022 20:19:15.962    19 Jun 2022 20:26:23.499      427.53669857    
19 Jun 2022 21:56:55.845    19 Jun 2022 22:03:55.676      419.83084178    
20 Jun 2022 04:34:56.328    20 Jun 2022 04:41:08.038      371.71009909    
20 Jun 2022 06:11:56.250    20 Jun 2022 06:19:36.661      460.41097837    
20 Jun 2022 19:42:44.399    20 Jun 2022 19:49:00.825      376.42653210    
20 Jun 2022 21:19:35.522    20 Jun 2022 21:27:07.231      451.70959445    
21 Jun 2022 03:58:18.330    21 Jun 2022 04:03:31.490      313.16058075    
21 Jun 2022 05:34:47.623    21 Jun 2022 05:42:47.375      479.75177098    
21 Jun 2022 19:06:26.968    21 Jun 2022 19:11:24.107      297.13832808    
21 Jun 2022 20:42:20.640    21 Jun 2022 20:50:14.540      473.90065009    
22 Jun 2022 03:21:50.201    22 Jun 2022 03:25:40.976      230.77497978    
22 Jun 2022 04:57:42.955    22 Jun 2022 05:05:51.090      488.13486836    
22 Jun 2022 18:30:44.769    22 Jun 2022 18:33:12.116      147.34712719    
22 Jun 2022 20:05:10.847    22 Jun 2022 20:13:17.829      486.98176533    
23 Jun 2022 02:45:59.786    23 Jun 2022 02:47:08.568      68.781783432    
23 Jun 2022 04:20:41.569    23 Jun 2022 04:28:48.338      486.76910209    
23 Jun 2022 19:28:06.067    23 Jun 2022 19:36:17.043      490.97556659    
23 Jun 2022 21:08:32.943    23 Jun 2022 21:11:57.978      205.03538079    
24 Jun 2022 03:43:43.105    24 Jun 2022 03:51:39.334      476.22857450    
24 Jun 2022 05:22:49.571    24 Jun 2022 05:27:13.255      263.68468925    
24 Jun 2022 18:51:06.466    24 Jun 2022 18:59:11.878      485.41189260    
24 Jun 2022 20:30:35.468    24 Jun 2022 20:35:32.532      297.06371165    
25 Jun 2022 03:06:47.455    25 Jun 2022 03:14:24.040      456.58457838    
25 Jun 2022 04:45:04.597    25 Jun 2022 04:51:00.294      355.69697841    
25 Jun 2022 18:14:12.502    25 Jun 2022 18:22:01.737      469.23509472    
25 Jun 2022 19:52:53.092    25 Jun 2022 19:58:53.669      360.57724922    
26 Jun 2022 02:29:54.775    26 Jun 2022 02:37:02.154      427.37901988    
26 Jun 2022 04:07:35.459    26 Jun 2022 04:14:29.010      413.55054807    


Number of events : 246


Observer: Cape_Town
Start Time (UTC)            Stop Time (UTC)               Duration (s)         
27 Apr 2022 14:23:56.466    27 Apr 2022 14:27:44.520      228.05326665    
27 Apr 2022 16:00:27.205    27 Apr 2022 16:08:21.240      474.03533428    
27 Apr 2022 17:38:30.691    27 Apr 2022 17:45:25.890      415.19901277    
28 Apr 2022 08:48:49.220    28 Apr 2022 08:57:05.896      496.67592072    
28 Apr 2022 10:27:50.042    28 Apr 2022 10:34:12.164      382.12152233    
28 Apr 2022 13:47:53.314    28 Apr 2022 13:50:48.026      174.71177175    
28 Apr 2022 15:24:13.621    28 Apr 2022 15:31:49.979      456.35828994    
28 Apr 2022 17:01:58.276    28 Apr 2022 17:09:27.987      449.71099523    
29 Apr 2022 08:12:35.158    29 Apr 2022 08:20:43.487      488.32804965    
29 Apr 2022 09:51:08.982    29 Apr 2022 09:58:01.000      412.01763984    
29 Apr 2022 13:11:55.421    29 Apr 2022 13:13:43.161      107.73966971    
29 Apr 2022 14:48:00.329    29 Apr 2022 14:55:14.650      434.32159123    
29 Apr 2022 16:25:29.608    29 Apr 2022 16:33:22.992      473.38434550    
30 Apr 2022 07:36:24.876    30 Apr 2022 07:44:17.436      472.56000533    
30 Apr 2022 09:14:30.133    30 Apr 2022 09:21:48.006      437.87353083    
30 Apr 2022 10:55:57.643    30 Apr 2022 10:57:55.290      117.64714181    
30 Apr 2022 14:11:47.245    30 Apr 2022 14:18:35.336      408.09126743    
30 Apr 2022 15:49:03.562    30 Apr 2022 15:57:11.958      488.39565609    
01 May 2022 07:00:19.080    01 May 2022 07:07:46.971      447.89157176    
01 May 2022 08:37:53.578    01 May 2022 08:45:33.126      459.54880334    
01 May 2022 10:18:52.362    01 May 2022 10:21:54.661      182.29880249    
01 May 2022 13:35:34.322    01 May 2022 13:41:52.098      377.77545482    
01 May 2022 15:12:39.414    01 May 2022 15:20:55.529      496.11545869    
02 May 2022 06:24:18.919    02 May 2022 06:31:10.875      411.95571539    
02 May 2022 08:01:19.420    02 May 2022 08:09:16.263      476.84312684    
02 May 2022 09:41:52.978    02 May 2022 09:45:47.867      234.88896119    
02 May 2022 12:59:21.565    02 May 2022 13:05:04.972      343.40768019    
02 May 2022 14:36:16.664    02 May 2022 14:44:34.134      497.46974028    
02 May 2022 16:15:55.096    02 May 2022 16:19:25.796      210.69980735    
03 May 2022 05:48:26.489    03 May 2022 05:54:26.980      360.49141623    
03 May 2022 07:24:47.783    03 May 2022 07:32:57.278      489.49439252    
03 May 2022 09:04:56.786    03 May 2022 09:09:37.804      281.01722040    
03 May 2022 12:23:09.048    03 May 2022 12:28:13.947      304.89975186    
03 May 2022 13:59:54.947    03 May 2022 14:08:08.062      493.11535395    
03 May 2022 15:38:45.288    03 May 2022 15:44:01.042      315.75357079    
04 May 2022 05:12:46.502    04 May 2022 05:17:30.495      283.99323587    
04 May 2022 06:48:18.819    04 May 2022 06:56:35.985      497.16529552    
04 May 2022 08:28:03.055    04 May 2022 08:33:25.361      322.30616393    
04 May 2022 11:46:56.982    04 May 2022 11:51:18.905      261.92381914    
04 May 2022 13:23:33.989    04 May 2022 13:31:37.524      483.53500207    
04 May 2022 15:01:53.801    04 May 2022 15:08:14.816      381.01527770    
05 May 2022 04:37:37.589    05 May 2022 04:40:02.715      145.12624241    
05 May 2022 06:11:52.723    05 May 2022 06:20:12.141      499.41758635    
05 May 2022 07:51:11.554    05 May 2022 07:57:10.893      359.33935706    
05 May 2022 11:10:45.873    05 May 2022 11:14:19.464      213.59040253    
05 May 2022 12:47:13.580    05 May 2022 12:55:02.673      469.09262259    
05 May 2022 14:25:10.837    05 May 2022 14:32:16.829      425.99253135    
06 May 2022 05:35:29.758    06 May 2022 05:43:45.427      495.66893532    
06 May 2022 07:14:22.234    06 May 2022 07:20:54.541      392.30717607    
06 May 2022 10:34:37.087    06 May 2022 10:37:14.416      157.32912457    
06 May 2022 12:10:53.558    06 May 2022 12:18:23.625      450.06687208    
06 May 2022 13:48:32.992    06 May 2022 13:56:10.394      457.40179979    
07 May 2022 04:59:10.289    07 May 2022 05:07:15.409      485.12060187    
07 May 2022 06:37:35.124    07 May 2022 06:44:36.341      421.21734194    
07 May 2022 08:19:31.328    07 May 2022 08:20:23.673      52.344821754    
07 May 2022 09:58:36.416    07 May 2022 09:59:58.158      81.742601283    
07 May 2022 11:34:33.803    07 May 2022 11:41:40.474      426.67062721    
07 May 2022 13:11:58.566    07 May 2022 13:19:57.122      478.55640964    
08 May 2022 04:22:54.852    08 May 2022 04:30:41.482      466.62932688    
08 May 2022 06:00:50.289    08 May 2022 06:08:16.265      445.97625041    
08 May 2022 07:42:06.955    08 May 2022 07:44:29.138      142.18315022    
08 May 2022 10:58:14.233    08 May 2022 11:04:53.292      399.05926553    
08 May 2022 12:35:26.549    08 May 2022 12:43:37.936      491.38699063    
09 May 2022 03:46:44.278    09 May 2022 03:54:02.738      438.45940512    
09 May 2022 05:24:07.818    09 May 2022 05:31:54.238      466.42075956    
09 May 2022 07:04:57.495    09 May 2022 07:08:19.258      201.76296687    
09 May 2022 10:21:54.809    09 May 2022 10:28:02.135      367.32648119    
09 May 2022 11:58:56.278    09 May 2022 12:07:13.411      497.13365310    
09 May 2022 13:39:59.990    09 May 2022 13:40:30.323      30.332560278    
10 May 2022 03:10:39.967    10 May 2022 03:17:17.702      397.73566767    
10 May 2022 04:47:27.819    10 May 2022 04:55:30.146      482.32650555    
10 May 2022 06:27:52.543    10 May 2022 06:32:04.653      252.11041085    
10 May 2022 09:45:35.550    10 May 2022 09:51:07.030      331.48060780    
10 May 2022 11:22:27.289    10 May 2022 11:30:43.935      496.64544412    
10 May 2022 13:01:46.101    10 May 2022 13:05:58.698      252.59736601    
11 May 2022 02:34:44.625    11 May 2022 02:40:23.591      338.96604390    
11 May 2022 04:10:50.429    11 May 2022 04:19:03.831      493.40198800    
11 May 2022 05:50:50.444    11 May 2022 05:55:47.161      296.71748666    
11 May 2022 09:09:16.563    11 May 2022 09:14:07.944      291.38153158    
11 May 2022 10:45:59.244    11 May 2022 10:54:09.774      490.53035018    
11 May 2022 12:24:37.601    11 May 2022 12:30:18.525      340.92406140    
12 May 2022 01:59:05.159    12 May 2022 02:03:13.423      248.26436044    
12 May 2022 03:34:15.818    12 May 2022 03:42:35.088      499.27065525    
12 May 2022 05:13:50.713    12 May 2022 05:19:27.424      336.71152453    
12 May 2022 08:32:58.129    12 May 2022 08:37:04.708      246.57945960    
12 May 2022 10:09:31.886    12 May 2022 10:17:31.124      479.23834965    
12 May 2022 11:47:42.798    12 May 2022 11:54:21.411      398.61327808    
13 May 2022 02:57:44.210    13 May 2022 03:06:03.648      499.43883478    
13 May 2022 04:36:53.210    13 May 2022 04:43:05.705      372.49478102    
13 May 2022 07:56:40.936    13 May 2022 07:59:56.781      195.84538242    
13 May 2022 09:33:05.023    13 May 2022 09:40:48.134      463.11050701    
13 May 2022 11:10:55.135    13 May 2022 11:18:13.832      438.69601147    
14 May 2022 02:21:15.911    14 May 2022 02:29:29.153      493.24220871    
14 May 2022 03:59:57.932    14 May 2022 04:06:42.105      404.17309252    
14 May 2022 07:20:27.019    14 May 2022 07:22:42.314      135.29553576    
14 May 2022 08:56:38.510    14 May 2022 09:04:00.918      442.40860040    
14 May 2022 10:34:11.952    14 May 2022 10:41:58.368      466.41520802    
15 May 2022 01:44:51.356    15 May 2022 01:52:51.111      479.75431007    
15 May 2022 03:23:04.932    15 May 2022 03:30:16.638      431.70616964    
15 May 2022 05:04:40.795    15 May 2022 05:06:18.395      97.599672410    
15 May 2022 06:44:30.759    15 May 2022 06:45:07.146      36.386477540    
15 May 2022 08:20:12.242    15 May 2022 08:27:09.574      417.33156351    
15 May 2022 09:57:31.829    15 May 2022 10:05:36.360      484.53100570    
16 May 2022 01:08:31.194    16 May 2022 01:16:08.813      457.61901535    
16 May 2022 02:46:14.297    16 May 2022 02:53:49.263      454.96676095    
16 May 2022 04:27:19.143    16 May 2022 04:30:07.569      168.42524662    
16 May 2022 07:43:46.158    16 May 2022 07:50:14.179      388.02026510    
16 May 2022 09:20:53.896    16 May 2022 09:29:08.607      494.71125972    
17 May 2022 00:32:16.455    17 May 2022 00:39:21.166      424.71017089    
17 May 2022 02:09:26.133    17 May 2022 02:17:19.895      473.76217581    
17 May 2022 03:50:05.147    17 May 2022 03:53:48.794      223.64636759    
17 May 2022 07:07:20.244    17 May 2022 07:13:14.792      354.54763906    
17 May 2022 08:44:17.569    17 May 2022 08:52:35.621      498.05245847    
17 May 2022 10:24:16.673    17 May 2022 10:27:01.333      164.65956221    
17 May 2022 23:56:08.962    18 May 2022 00:02:26.286      377.32384668    
18 May 2022 01:32:40.572    18 May 2022 01:40:48.409      487.83643154    
18 May 2022 03:12:54.746    18 May 2022 03:17:26.357      271.61028371    
18 May 2022 06:30:54.553    18 May 2022 06:36:11.436      316.88363909    
18 May 2022 08:07:42.437    18 May 2022 08:15:57.755      495.31753943    
18 May 2022 09:46:42.254    18 May 2022 09:51:36.053      293.79899012    
18 May 2022 23:20:12.559    18 May 2022 23:25:20.270      307.71088251    
19 May 2022 00:55:57.773    19 May 2022 01:04:14.632      496.85909998    
19 May 2022 02:35:46.987    19 May 2022 02:41:01.407      314.42024909    
19 May 2022 05:54:29.250    19 May 2022 05:59:04.055      274.80496375    
19 May 2022 07:31:08.199    19 May 2022 07:39:15.259      487.05942534    
19 May 2022 09:09:33.897    19 May 2022 09:15:41.559      367.66194821    
19 May 2022 22:44:39.548    19 May 2022 22:47:50.754      191.20611122    
20 May 2022 00:19:17.939    20 May 2022 00:27:38.340      500.40123464    
20 May 2022 01:58:41.587    20 May 2022 02:04:34.389      352.80203805    
20 May 2022 05:18:04.738    20 May 2022 05:21:52.393      227.65542443    
20 May 2022 06:54:34.628    20 May 2022 07:02:28.319      473.69109172    
20 May 2022 08:32:35.896    20 May 2022 08:39:33.489      417.59295379    
20 May 2022 23:42:41.336    20 May 2022 23:50:59.230      497.89413071    
21 May 2022 01:21:38.492    21 May 2022 01:28:05.488      386.99629001    
21 May 2022 04:41:42.037    21 May 2022 04:44:35.613      173.57613493    
21 May 2022 06:18:01.555    21 May 2022 06:25:37.082      455.52748104    
21 May 2022 07:55:43.845    21 May 2022 08:03:16.177      452.33203720    
21 May 2022 23:06:08.332    21 May 2022 23:14:16.892      488.56007979    
22 May 2022 00:44:37.738    22 May 2022 00:51:34.767      417.02893615    
22 May 2022 02:26:44.084    22 May 2022 02:27:13.043      28.958637686    
22 May 2022 04:05:24.731    22 May 2022 04:07:10.350      105.61847195    
22 May 2022 05:41:28.855    22 May 2022 05:48:41.665      432.81037998    
22 May 2022 07:18:55.706    22 May 2022 07:26:51.596      475.89054984    
22 May 2022 22:29:39.457    22 May 2022 22:37:30.747      471.29059994    
23 May 2022 00:07:39.405    23 May 2022 00:15:02.217      442.81194041    
23 May 2022 01:48:59.198    23 May 2022 01:51:13.002      133.80394791    
23 May 2022 05:04:56.444    23 May 2022 05:11:42.165      405.72072796    
23 May 2022 06:42:10.319    23 May 2022 06:50:20.838      490.51820291    
23 May 2022 21:53:15.519    23 May 2022 22:00:39.932      444.41327703    
23 May 2022 23:30:43.595    23 May 2022 23:38:27.777      464.18250350    
24 May 2022 01:11:35.806    24 May 2022 01:14:51.189      195.38264856    
24 May 2022 04:28:24.282    24 May 2022 04:34:38.660      374.37814468    
24 May 2022 06:05:26.947    24 May 2022 06:13:44.574      497.62625252    
24 May 2022 21:16:57.860    24 May 2022 21:23:43.046      405.18553925    
24 May 2022 22:53:50.431    24 May 2022 23:01:51.345      480.91442058    
25 May 2022 00:34:17.414    25 May 2022 00:38:24.349      246.93446296    
25 May 2022 03:51:52.381    25 May 2022 03:57:31.203      338.82207088    
25 May 2022 05:28:45.084    25 May 2022 05:37:03.249      498.16564716    
25 May 2022 07:08:10.882    25 May 2022 07:12:07.528      236.64607705    
25 May 2022 20:40:49.023    25 May 2022 20:46:37.485      348.46181598    
25 May 2022 22:17:00.059    25 May 2022 22:25:12.772      492.71332874    
25 May 2022 23:57:02.112    26 May 2022 00:01:54.612      292.49911724    
26 May 2022 03:15:20.836    26 May 2022 03:20:19.793      298.95731402    
26 May 2022 04:52:04.363    26 May 2022 05:00:17.173      492.80974179    
26 May 2022 06:30:46.209    26 May 2022 06:36:19.088      332.87947713    
26 May 2022 20:04:55.223    26 May 2022 20:09:16.968      261.74547225    
26 May 2022 21:40:12.659    26 May 2022 21:48:31.858      499.19901638    
26 May 2022 23:19:49.370    26 May 2022 23:25:22.689      333.31936895    
27 May 2022 02:38:49.896    27 May 2022 02:43:04.310      254.41398039    
27 May 2022 04:15:24.515    27 May 2022 04:23:26.567      482.05292841    
27 May 2022 05:53:37.428    27 May 2022 06:00:11.679      394.25061189    
27 May 2022 19:29:54.905    27 May 2022 19:31:02.988      68.082324404    
27 May 2022 21:03:28.462    27 May 2022 21:11:48.335      499.87293837    
27 May 2022 22:42:39.043    27 May 2022 22:48:48.871      369.82761804    
28 May 2022 02:02:20.165    28 May 2022 02:05:44.313      204.14814051    
28 May 2022 03:38:45.333    28 May 2022 03:46:31.601      466.26794657    
28 May 2022 05:16:36.609    28 May 2022 05:23:53.154      436.54577733    
28 May 2022 20:26:47.782    28 May 2022 20:35:01.846      494.06366906    
28 May 2022 22:05:31.132    28 May 2022 22:12:13.267      402.13541309    
29 May 2022 01:25:53.353    29 May 2022 01:28:18.289      144.93537673    
29 May 2022 03:02:06.663    29 May 2022 03:09:32.403      445.74018437    
29 May 2022 04:39:40.738    29 May 2022 04:47:26.451      465.71263941    
29 May 2022 19:50:11.057    29 May 2022 19:58:11.891      480.83344228    
29 May 2022 21:28:25.695    29 May 2022 21:35:35.895      430.19996176    
29 May 2022 23:10:01.855    29 May 2022 23:11:36.795      94.940524944    
30 May 2022 00:49:38.689    30 May 2022 00:50:37.244      58.555701678    
30 May 2022 02:25:28.393    30 May 2022 02:32:29.080      420.68700573    
30 May 2022 04:02:48.256    30 May 2022 04:10:53.049      484.79351214    
30 May 2022 19:13:38.944    30 May 2022 19:21:17.751      458.80683926    
30 May 2022 20:51:22.823    30 May 2022 20:58:56.711      453.88836394    
30 May 2022 22:32:27.611    30 May 2022 22:35:14.348      166.73630769    
31 May 2022 01:48:50.453    31 May 2022 01:55:21.717      391.26441430    
31 May 2022 03:25:58.219    31 May 2022 03:34:13.815      495.59652417    
31 May 2022 18:37:12.487    31 May 2022 18:44:18.309      425.82200667    
31 May 2022 20:14:22.624    31 May 2022 20:22:15.625      473.00054213    
31 May 2022 21:55:01.371    31 May 2022 21:58:43.863      222.49240992    
01 Jun 2022 01:12:12.820    01 Jun 2022 01:18:10.379      357.55845493    
01 Jun 2022 02:49:10.001    01 Jun 2022 02:57:29.298      499.29744015    
01 Jun 2022 04:29:10.992    01 Jun 2022 04:31:51.185      160.19299520    
01 Jun 2022 18:00:53.539    01 Jun 2022 18:07:11.639      378.10021072    
01 Jun 2022 19:37:25.230    01 Jun 2022 19:45:32.501      487.27123614    
01 Jun 2022 21:17:38.902    01 Jun 2022 21:22:09.802      270.89977000    
02 Jun 2022 00:35:35.539    02 Jun 2022 00:40:55.090      319.55087405    
02 Jun 2022 02:12:23.160    02 Jun 2022 02:20:39.868      496.70793561    
02 Jun 2022 03:51:22.949    02 Jun 2022 03:56:16.448      293.49887262    
02 Jun 2022 17:24:46.037    02 Jun 2022 17:29:53.729      307.69220522    
02 Jun 2022 19:00:30.798    02 Jun 2022 19:08:47.156      496.35784667    
02 Jun 2022 20:40:19.236    02 Jun 2022 20:45:33.324      314.08786745    
02 Jun 2022 23:58:58.766    03 Jun 2022 00:03:35.795      277.02864725    
03 Jun 2022 01:35:37.372    03 Jun 2022 01:43:45.785      488.41269513    
03 Jun 2022 03:14:02.467    03 Jun 2022 03:20:11.146      368.67849024    
03 Jun 2022 16:49:02.786    03 Jun 2022 16:52:11.695      188.90973494    
03 Jun 2022 18:23:39.532    03 Jun 2022 18:31:59.347      499.81450477    
03 Jun 2022 20:03:02.090    03 Jun 2022 20:08:54.867      352.77634982    
03 Jun 2022 23:22:22.898    03 Jun 2022 23:26:12.240      229.34178812    
04 Jun 2022 00:58:52.392    04 Jun 2022 01:06:47.238      474.84626864    
04 Jun 2022 02:36:52.763    04 Jun 2022 02:43:51.979      419.21623569    
04 Jun 2022 17:46:51.702    04 Jun 2022 17:55:08.750      497.04772958    
04 Jun 2022 19:25:47.410    04 Jun 2022 19:32:14.604      387.19440142    
04 Jun 2022 22:45:48.955    04 Jun 2022 22:48:43.577      174.62139587    
05 Jun 2022 00:22:08.034    05 Jun 2022 00:29:44.373      456.33853924    
05 Jun 2022 01:59:49.252    05 Jun 2022 02:07:23.443      454.19151433    
05 Jun 2022 17:10:07.683    05 Jun 2022 17:18:14.925      487.24157269    
05 Jun 2022 18:48:35.229    05 Jun 2022 18:55:32.585      417.35584075    
05 Jun 2022 20:30:36.316    05 Jun 2022 20:31:14.134      37.818354391    
05 Jun 2022 22:09:20.578    05 Jun 2022 22:11:06.381      105.80221071    
05 Jun 2022 23:45:24.162    05 Jun 2022 23:52:37.304      433.14144588    
06 Jun 2022 01:22:49.825    06 Jun 2022 01:30:47.562      477.73722277    
06 Jun 2022 16:33:28.027    06 Jun 2022 16:41:17.252      469.22479189    
06 Jun 2022 18:11:25.626    06 Jun 2022 18:18:48.786      443.16042286    
06 Jun 2022 19:52:43.004    06 Jun 2022 19:54:59.751      136.74697001    
06 Jun 2022 23:08:40.681    06 Jun 2022 23:15:26.123      405.44183752    
07 Jun 2022 00:45:53.284    07 Jun 2022 00:54:05.445      492.16103592    
07 Jun 2022 15:56:53.588    07 Jun 2022 16:04:14.801      441.21313314    
07 Jun 2022 17:34:18.701    07 Jun 2022 17:42:03.134      464.43235913    
07 Jun 2022 19:15:08.449    07 Jun 2022 19:18:26.510      198.06074708    
07 Jun 2022 22:31:57.544    07 Jun 2022 22:38:10.905      373.36023002    
08 Jun 2022 00:08:58.867    08 Jun 2022 00:17:17.773      498.90619837    
08 Jun 2022 15:20:25.812    08 Jun 2022 15:27:06.050      400.23836010    
08 Jun 2022 16:57:14.577    08 Jun 2022 17:05:15.507      480.93042833    
08 Jun 2022 18:37:38.847    08 Jun 2022 18:41:48.463      249.61631134    
08 Jun 2022 21:55:14.764    08 Jun 2022 22:00:51.693      336.92876115    
08 Jun 2022 23:32:06.051    08 Jun 2022 23:40:24.993      498.94280958    
09 Jun 2022 01:11:26.327    09 Jun 2022 01:15:34.430      248.10328897    
09 Jun 2022 14:44:07.513    09 Jun 2022 14:49:48.108      340.59482580    
09 Jun 2022 16:20:13.402    09 Jun 2022 16:28:25.743      492.34138535    
09 Jun 2022 18:00:12.403    09 Jun 2022 18:05:07.617      295.21439087    
09 Jun 2022 21:18:32.446    09 Jun 2022 21:23:28.474      296.02810226    
09 Jun 2022 22:55:14.458    09 Jun 2022 23:03:27.414      492.95619103    
10 Jun 2022 00:33:52.304    10 Jun 2022 00:39:33.205      340.90034051    
10 Jun 2022 14:08:05.962    10 Jun 2022 14:12:13.628      247.66542264    
10 Jun 2022 15:43:15.362    10 Jun 2022 15:51:33.622      498.25957079    
10 Jun 2022 17:22:48.621    10 Jun 2022 17:28:24.646      336.02523777    
10 Jun 2022 20:41:50.873    10 Jun 2022 20:46:01.095      250.22265486    
10 Jun 2022 22:18:23.811    10 Jun 2022 22:26:25.259      481.44822030    
10 Jun 2022 23:56:33.330    11 Jun 2022 00:03:13.888      400.55803877    
11 Jun 2022 15:06:20.703    11 Jun 2022 15:14:38.854      498.15016903    
11 Jun 2022 16:45:27.372    11 Jun 2022 16:51:39.818      372.44614481    
11 Jun 2022 20:05:10.748    11 Jun 2022 20:08:29.023      198.27509320    
11 Jun 2022 21:41:33.899    11 Jun 2022 21:49:18.695      464.79590888    
11 Jun 2022 23:19:22.119    11 Jun 2022 23:26:43.686      441.56688864    
12 Jun 2022 14:29:29.762    12 Jun 2022 14:37:41.050      491.28728664    
12 Jun 2022 16:08:08.668    12 Jun 2022 16:14:53.234      404.56631861    
12 Jun 2022 19:28:34.179    12 Jun 2022 19:30:50.362      136.18209804    
12 Jun 2022 21:04:44.569    12 Jun 2022 21:12:07.855      443.28605271    
12 Jun 2022 22:42:15.802    12 Jun 2022 22:50:05.385      469.58306702    
13 Jun 2022 13:52:43.021    13 Jun 2022 14:00:39.668      476.64650028    
13 Jun 2022 15:30:52.576    13 Jun 2022 15:38:04.901      432.32541417    
13 Jun 2022 17:12:23.598    13 Jun 2022 17:14:07.295      103.69691384    
13 Jun 2022 18:52:17.127    13 Jun 2022 18:52:49.402      32.275031763    
13 Jun 2022 20:27:55.714    13 Jun 2022 20:34:52.847      417.13394809    
13 Jun 2022 22:05:12.873    13 Jun 2022 22:13:20.417      487.54376628    
14 Jun 2022 13:16:01.211    14 Jun 2022 13:23:33.915      452.70380363    
14 Jun 2022 14:53:39.195    14 Jun 2022 15:01:14.769      455.57390379    
14 Jun 2022 16:34:39.457    14 Jun 2022 16:37:32.950      173.49264583    
14 Jun 2022 19:51:07.272    14 Jun 2022 19:57:33.760      386.48798678    
14 Jun 2022 21:28:12.415    14 Jun 2022 21:36:29.624      497.20914555    
15 Jun 2022 12:39:25.521    15 Jun 2022 12:46:22.534      417.01372080    
15 Jun 2022 14:16:28.647    15 Jun 2022 14:24:22.740      474.09328949    
15 Jun 2022 15:57:02.658    15 Jun 2022 16:00:51.417      228.75863460    
15 Jun 2022 19:14:19.239    15 Jun 2022 19:20:10.655      351.41604583    
15 Jun 2022 20:51:13.818    15 Jun 2022 20:59:33.548      499.72952956    
15 Jun 2022 22:30:58.780    15 Jun 2022 22:34:12.338      193.55828364    
16 Jun 2022 12:02:58.127    16 Jun 2022 12:09:03.284      365.15630933    
16 Jun 2022 13:39:21.076    16 Jun 2022 13:47:28.672      487.59550829    
16 Jun 2022 15:19:29.621    16 Jun 2022 15:24:06.518      276.89675046    
16 Jun 2022 18:37:31.691    16 Jun 2022 18:42:43.550      311.85912243    
16 Jun 2022 20:14:16.655    16 Jun 2022 20:22:32.556      495.90153816    
16 Jun 2022 21:53:07.903    16 Jun 2022 21:58:18.836      310.93314739    
17 Jun 2022 11:26:43.959    17 Jun 2022 11:31:31.168      287.20873813    
17 Jun 2022 13:02:16.662    17 Jun 2022 13:10:32.370      495.70752016    
17 Jun 2022 14:41:59.494    17 Jun 2022 14:47:19.311      319.81626753    
17 Jun 2022 18:00:44.846    17 Jun 2022 18:05:12.356      267.50951072    
17 Jun 2022 19:37:20.612    17 Jun 2022 19:45:26.912      486.30000888    
17 Jun 2022 21:15:39.303    17 Jun 2022 21:22:00.133      380.82980860    
18 Jun 2022 10:51:02.926    18 Jun 2022 10:53:26.211      143.28555824    
18 Jun 2022 12:25:15.633    18 Jun 2022 12:33:33.574      497.94062135    
18 Jun 2022 14:04:32.039    18 Jun 2022 14:10:30.201      358.16166656    
18 Jun 2022 17:23:59.237    18 Jun 2022 17:27:36.708      217.47097675    
18 Jun 2022 19:00:25.457    18 Jun 2022 19:08:16.809      471.35213715    
18 Jun 2022 20:38:20.512    18 Jun 2022 20:45:28.623      428.11167125    
19 Jun 2022 11:48:18.296    19 Jun 2022 11:56:31.934      493.63806127    
19 Jun 2022 13:27:07.224    19 Jun 2022 13:33:39.350      392.12595660    
19 Jun 2022 16:47:16.311    19 Jun 2022 16:49:55.365      159.05369434    
19 Jun 2022 18:23:31.019    19 Jun 2022 18:31:02.400      451.38095606    
19 Jun 2022 20:01:07.587    19 Jun 2022 20:08:48.177      460.59040903    
20 Jun 2022 11:11:25.082    20 Jun 2022 11:19:26.967      481.88533885    
20 Jun 2022 12:49:45.101    20 Jun 2022 12:56:46.802      421.70016345    
20 Jun 2022 14:31:33.758    20 Jun 2022 14:32:35.904      62.146540114    
20 Jun 2022 16:10:42.472    20 Jun 2022 16:12:02.175      79.702420172    
20 Jun 2022 17:46:37.175    20 Jun 2022 17:53:43.805      426.62987891    
20 Jun 2022 19:23:58.627    20 Jun 2022 19:32:00.620      481.99256236    
21 Jun 2022 10:34:36.629    21 Jun 2022 10:42:17.976      461.34689539    
21 Jun 2022 12:12:25.762    21 Jun 2022 12:19:52.528      446.76539915    
21 Jun 2022 13:53:36.398    21 Jun 2022 13:56:04.942      148.54438420    
21 Jun 2022 17:09:43.850    21 Jun 2022 17:16:21.122      397.27223979    
21 Jun 2022 18:46:52.532    21 Jun 2022 18:55:06.982      494.44983109    
22 Jun 2022 09:57:53.946    22 Jun 2022 10:05:03.884      429.93733903    
22 Jun 2022 11:35:09.321    22 Jun 2022 11:42:56.447      467.12661723    
22 Jun 2022 13:15:52.396    22 Jun 2022 13:19:20.836      208.43996401    
22 Jun 2022 16:32:51.019    22 Jun 2022 16:38:54.423      363.40379576    
22 Jun 2022 18:09:48.590    22 Jun 2022 18:18:07.904      499.31497268    
22 Jun 2022 19:50:07.933    22 Jun 2022 19:52:07.011      119.07793646    
23 Jun 2022 09:21:18.803    23 Jun 2022 09:27:42.855      384.05177866    
23 Jun 2022 10:57:55.913    23 Jun 2022 11:05:58.432      482.51908429    
23 Jun 2022 12:38:13.133    23 Jun 2022 12:42:32.461      259.32745580    
23 Jun 2022 15:55:58.733    23 Jun 2022 16:01:23.740      325.00740375    
23 Jun 2022 17:32:46.308    23 Jun 2022 17:41:03.814      497.50585329    
23 Jun 2022 19:11:51.820    23 Jun 2022 19:16:30.395      278.57525800    
24 Jun 2022 08:44:54.874    24 Jun 2022 08:50:11.141      316.26709207    
24 Jun 2022 10:20:45.703    24 Jun 2022 10:28:58.301      492.59789768    
24 Jun 2022 12:00:37.137    24 Jun 2022 12:05:41.507      304.37006818    
24 Jun 2022 15:19:07.160    24 Jun 2022 15:23:49.018      281.85766262    
24 Jun 2022 16:55:45.332    24 Jun 2022 17:03:55.007      489.67480198    
24 Jun 2022 18:34:13.238    24 Jun 2022 18:40:13.458      360.22020655    
25 Jun 2022 08:08:53.407    25 Jun 2022 08:12:17.421      204.01366095    
25 Jun 2022 09:43:38.901    25 Jun 2022 09:51:55.813      496.91229699    
25 Jun 2022 11:23:03.989    25 Jun 2022 11:28:48.566      344.57654455    
25 Jun 2022 14:42:16.722    25 Jun 2022 14:46:09.985      233.26311505    
25 Jun 2022 16:18:45.397    25 Jun 2022 16:26:41.698      476.30095234    
25 Jun 2022 17:56:47.129    25 Jun 2022 18:03:41.178      414.04927173    
26 Jun 2022 09:06:35.782    26 Jun 2022 09:14:50.642      494.86049133    
26 Jun 2022 10:45:33.591    26 Jun 2022 10:51:53.874      380.28278570    


Number of events : 343


Observer: Hawaii
Start Time (UTC)            Stop Time (UTC)               Duration (s)         
27 Apr 2022 16:53:03.147    27 Apr 2022 17:00:47.714      464.56778983    
27 Apr 2022 18:31:54.442    27 Apr 2022 18:36:50.985      296.54270983    
28 Apr 2022 06:22:42.357    28 Apr 2022 06:27:13.177      270.81921069    
28 Apr 2022 07:58:29.595    28 Apr 2022 08:06:17.981      468.38564845    
28 Apr 2022 16:16:57.271    28 Apr 2022 16:24:12.063      434.79169593    
28 Apr 2022 17:54:58.619    28 Apr 2022 18:01:15.762      377.14299340    
29 Apr 2022 05:48:14.219    29 Apr 2022 05:49:10.242      56.023090251    
29 Apr 2022 07:22:01.256    29 Apr 2022 07:30:06.164      484.90726473    
29 Apr 2022 15:40:55.902    29 Apr 2022 15:47:28.069      392.16685798    
29 Apr 2022 17:18:15.768    29 Apr 2022 17:25:25.097      429.32853154    
30 Apr 2022 06:45:37.981    30 Apr 2022 06:53:49.358      491.37683931    
30 Apr 2022 15:05:01.037    30 Apr 2022 15:10:33.550      332.51226931    
30 Apr 2022 16:41:40.643    30 Apr 2022 16:49:24.069      463.42654520    
01 May 2022 06:09:19.727    01 May 2022 06:17:27.436      487.70859106    
01 May 2022 07:49:52.839    01 May 2022 07:52:46.701      173.86183986    
01 May 2022 14:29:18.119    01 May 2022 14:33:22.868      244.74985746    
01 May 2022 16:05:10.972    01 May 2022 16:13:14.781      483.80997197    
02 May 2022 05:33:06.785    02 May 2022 05:40:59.936      473.15123471    
02 May 2022 07:12:26.690    02 May 2022 07:17:16.806      290.11619728    
02 May 2022 13:54:26.786    02 May 2022 13:55:16.193      49.406224675    
02 May 2022 15:28:45.576    02 May 2022 15:36:58.238      492.66194443    
03 May 2022 04:56:59.891    03 May 2022 05:04:25.952      446.06164807    
03 May 2022 06:35:23.172    03 May 2022 06:41:25.242      362.06969958    
03 May 2022 14:52:23.828    03 May 2022 15:00:34.884      491.05516659    
04 May 2022 04:21:00.562    04 May 2022 04:27:43.793      403.23106321    
04 May 2022 05:58:30.670    04 May 2022 06:05:23.436      412.76535349    
04 May 2022 14:16:05.467    04 May 2022 14:24:04.794      479.32757795    
04 May 2022 15:55:46.656    04 May 2022 15:59:10.638      203.98204084    
05 May 2022 03:45:12.131    05 May 2022 03:50:49.955      337.82445415    
05 May 2022 05:21:45.781    05 May 2022 05:29:14.602      448.82087546    
05 May 2022 13:39:50.552    05 May 2022 13:47:27.716      457.16412098    
05 May 2022 15:18:25.088    05 May 2022 15:23:49.812      324.72326666    
06 May 2022 03:09:44.465    06 May 2022 03:13:34.394      229.92905705    
06 May 2022 04:45:07.010    06 May 2022 04:53:00.049      473.03844803    
06 May 2022 13:03:39.545    06 May 2022 13:10:42.991      423.44580438    
06 May 2022 14:41:27.333    06 May 2022 14:48:02.803      395.47093286    
07 May 2022 04:08:33.632    07 May 2022 04:16:40.309      486.67726273    
07 May 2022 12:27:33.582    07 May 2022 12:33:49.278      375.69593042    
07 May 2022 14:04:40.559    07 May 2022 14:12:02.261      441.70176928    
08 May 2022 03:32:05.360    08 May 2022 03:40:15.486      490.12581260    
08 May 2022 11:51:35.374    08 May 2022 11:56:43.664      308.29024909    
08 May 2022 13:28:00.738    08 May 2022 13:35:52.035      471.29770392    
09 May 2022 02:55:42.248    09 May 2022 03:03:45.343      483.09531865    
09 May 2022 04:35:48.205    09 May 2022 04:39:25.556      217.35077302    
09 May 2022 11:15:53.472    09 May 2022 11:19:17.391      203.91960028    
09 May 2022 12:51:25.993    09 May 2022 12:59:33.818      487.82481265    
10 May 2022 02:19:24.716    10 May 2022 02:27:09.278      464.56200003    
10 May 2022 03:58:24.819    10 May 2022 04:03:40.086      315.26645219    
10 May 2022 12:14:55.336    10 May 2022 12:23:08.416      493.07980043    
11 May 2022 01:43:13.730    11 May 2022 01:50:26.151      432.42114672    
11 May 2022 03:21:18.598    11 May 2022 03:27:38.349      379.75112085    
11 May 2022 11:38:28.261    11 May 2022 11:46:36.147      487.88576050    
12 May 2022 01:07:11.297    12 May 2022 01:13:33.783      382.48617629    
12 May 2022 02:44:22.089    12 May 2022 02:51:27.611      425.52202181    
12 May 2022 11:02:04.616    12 May 2022 11:09:56.976      472.35974333    
12 May 2022 12:41:17.542    12 May 2022 12:45:33.378      255.83598629    
13 May 2022 00:31:22.165    13 May 2022 00:36:27.253      305.08800962    
13 May 2022 02:07:32.688    13 May 2022 02:15:10.291      457.60261626    
13 May 2022 10:25:44.596    13 May 2022 10:33:10.514      445.91730698    
13 May 2022 12:04:00.509    13 May 2022 12:09:54.091      353.58146295    
13 May 2022 23:56:04.826    13 May 2022 23:58:47.898      163.07196803    
14 May 2022 01:30:49.198    14 May 2022 01:38:47.400      478.20251584    
14 May 2022 09:49:28.885    14 May 2022 09:56:15.887      407.00175633    
14 May 2022 11:27:00.712    14 May 2022 11:33:55.110      414.39715665    
15 May 2022 00:54:11.059    15 May 2022 01:02:19.318      488.25916109    
15 May 2022 09:13:19.086    15 May 2022 09:19:11.294      352.20761517    
15 May 2022 10:50:10.164    15 May 2022 10:57:44.251      454.08674096    
16 May 2022 00:17:38.116    16 May 2022 00:25:46.029      487.91303794    
16 May 2022 01:58:47.925    16 May 2022 02:00:31.559      103.63399488    
16 May 2022 08:37:19.303    16 May 2022 08:41:52.438      273.13491523    
16 May 2022 10:13:25.839    16 May 2022 10:21:24.369      478.53019367    
16 May 2022 23:41:10.560    16 May 2022 23:49:07.167      476.60689987    
17 May 2022 01:20:48.445    17 May 2022 01:25:08.369      259.92389977    
17 May 2022 08:01:47.345    17 May 2022 08:04:01.320      133.97486204    
17 May 2022 09:36:46.247    17 May 2022 09:44:56.784      490.53644015    
17 May 2022 23:04:49.015    17 May 2022 23:12:21.946      452.93015084    
18 May 2022 00:43:26.328    18 May 2022 00:49:08.913      342.58489968    
18 May 2022 09:00:10.604    18 May 2022 09:08:22.107      491.50361863    
18 May 2022 22:28:34.806    18 May 2022 22:35:28.878      414.07201634    
19 May 2022 00:06:17.632    19 May 2022 00:12:56.959      399.32701233    
19 May 2022 08:23:38.551    19 May 2022 08:31:40.523      481.97153646    
19 May 2022 10:03:44.402    19 May 2022 10:06:17.708      153.30563314    
19 May 2022 21:52:30.774    19 May 2022 21:58:24.960      354.18615283    
19 May 2022 23:29:17.549    19 May 2022 23:36:37.136      439.58779871    
20 May 2022 07:47:10.082    20 May 2022 07:54:51.860      461.77835364    
20 May 2022 09:25:56.063    20 May 2022 09:30:58.343      302.27990462    
20 May 2022 21:16:44.624    20 May 2022 21:21:02.329      257.70503702    
20 May 2022 22:52:24.155    20 May 2022 23:00:11.197      467.04192271    
21 May 2022 07:10:45.586    21 May 2022 07:17:55.547      429.96086001    
21 May 2022 08:48:41.320    21 May 2022 08:55:03.113      381.79297163    
21 May 2022 22:15:36.543    21 May 2022 22:23:39.872      483.32813209    
22 May 2022 06:34:26.093    22 May 2022 06:40:50.371      384.27809444    
22 May 2022 08:11:39.581    22 May 2022 08:18:52.449      432.86796366    
22 May 2022 21:38:54.334    22 May 2022 21:47:03.373      489.03884247    
23 May 2022 05:58:14.035    23 May 2022 06:03:33.707      319.67125033    
23 May 2022 07:34:45.697    23 May 2022 07:42:31.333      465.63543297    
23 May 2022 21:02:17.519    23 May 2022 21:10:21.537      484.01788959    
23 May 2022 22:42:37.582    23 May 2022 22:45:48.517      190.93550598    
24 May 2022 05:22:16.669    24 May 2022 05:25:58.111      221.44236186    
24 May 2022 06:57:57.432    24 May 2022 07:06:01.835      484.40355028    
24 May 2022 20:25:46.473    24 May 2022 20:33:33.824      467.35172697    
24 May 2022 22:04:55.239    24 May 2022 22:09:56.401      301.16191601    
25 May 2022 06:21:13.634    25 May 2022 06:29:24.935      491.30074494    
25 May 2022 19:49:22.099    25 May 2022 19:56:39.165      437.06579532    
25 May 2022 21:27:33.786    25 May 2022 21:33:44.583      370.79707913    
26 May 2022 05:44:33.718    26 May 2022 05:52:41.043      487.32486345    
26 May 2022 19:13:06.290    26 May 2022 19:19:35.500      389.20984576    
26 May 2022 20:50:23.193    26 May 2022 20:57:22.912      419.71847755    
27 May 2022 05:07:57.483    27 May 2022 05:15:50.177      472.69435634    
27 May 2022 06:47:18.214    27 May 2022 06:51:15.860      237.64580162    
27 May 2022 18:37:03.447    27 May 2022 18:42:18.262      314.81505182    
27 May 2022 20:13:20.332    27 May 2022 20:20:54.331      453.99983707    
28 May 2022 04:31:25.095    28 May 2022 04:38:51.982      446.88650781    
28 May 2022 06:09:44.925    28 May 2022 06:15:28.741      343.81653402    
28 May 2022 18:01:29.413    28 May 2022 18:04:31.435      182.02209062    
28 May 2022 19:36:23.816    28 May 2022 19:44:20.042      476.22601592    
29 May 2022 03:54:57.218    29 May 2022 04:01:45.600      408.38184339    
29 May 2022 05:32:31.410    29 May 2022 05:39:19.608      408.19762592    
29 May 2022 18:59:33.000    29 May 2022 19:07:40.504      487.50401092    
30 May 2022 03:18:35.443    30 May 2022 03:24:29.237      353.79452695    
30 May 2022 04:55:28.035    30 May 2022 05:02:57.919      449.88414607    
30 May 2022 18:22:47.680    30 May 2022 18:30:55.739      488.05850461    
30 May 2022 20:04:08.476    30 May 2022 20:05:29.664      81.187406019    
31 May 2022 02:42:23.865    31 May 2022 02:46:58.597      274.73177905    
31 May 2022 04:18:31.384    31 May 2022 04:26:26.908      475.52380501    
31 May 2022 17:46:08.024    31 May 2022 17:54:05.394      477.37077121    
31 May 2022 19:25:48.565    31 May 2022 19:30:03.039      254.47424994    
01 Jun 2022 02:06:40.221    01 Jun 2022 02:08:55.735      135.51391399    
01 Jun 2022 03:41:39.817    01 Jun 2022 03:49:48.031      488.21386172    
01 Jun 2022 17:09:34.642    01 Jun 2022 17:17:08.677      454.03481475    
01 Jun 2022 18:48:13.131    01 Jun 2022 18:53:53.325      340.19373287    
02 Jun 2022 03:04:52.476    02 Jun 2022 03:13:01.957      489.48097603    
02 Jun 2022 16:33:08.869    02 Jun 2022 16:40:04.073      415.20383824    
02 Jun 2022 18:10:52.010    02 Jun 2022 18:17:30.495      398.48538197    
03 Jun 2022 02:28:08.968    03 Jun 2022 02:36:08.886      479.91864859    
03 Jun 2022 04:08:16.761    03 Jun 2022 04:10:42.296      145.53439311    
03 Jun 2022 15:56:53.596    03 Jun 2022 16:02:48.507      354.91015187    
03 Jun 2022 17:33:39.952    03 Jun 2022 17:40:59.598      439.64553672    
04 Jun 2022 01:51:29.270    04 Jun 2022 01:59:08.639      459.36804435    
04 Jun 2022 03:30:14.418    04 Jun 2022 03:35:14.261      299.84392376    
04 Jun 2022 15:20:56.752    04 Jun 2022 15:25:13.869      257.11682764    
04 Jun 2022 16:56:34.904    04 Jun 2022 17:04:22.490      467.58582504    
05 Jun 2022 01:14:53.790    05 Jun 2022 01:22:00.603      426.81247762    
05 Jun 2022 02:52:47.829    05 Jun 2022 02:59:08.346      380.51698592    
05 Jun 2022 16:19:35.904    05 Jun 2022 16:27:39.933      484.02895244    
06 Jun 2022 00:38:23.622    06 Jun 2022 00:44:43.473      379.85169425    
06 Jun 2022 02:15:34.710    06 Jun 2022 02:22:46.648      431.93770882    
06 Jun 2022 15:42:42.549    06 Jun 2022 15:50:52.137      489.58785944    
07 Jun 2022 00:02:01.424    07 Jun 2022 00:07:14.378      312.95441359    
07 Jun 2022 01:38:29.702    07 Jun 2022 01:46:14.336      464.63346760    
07 Jun 2022 15:05:54.831    07 Jun 2022 15:13:58.915      484.08392819    
07 Jun 2022 16:46:09.291    07 Jun 2022 16:49:29.153      199.86124558    
07 Jun 2022 23:25:55.547    07 Jun 2022 23:29:24.754      209.20699710    
08 Jun 2022 01:01:30.498    08 Jun 2022 01:09:33.527      483.02894058    
08 Jun 2022 14:29:13.150    08 Jun 2022 14:36:59.682      466.53166440    
08 Jun 2022 16:08:17.050    08 Jun 2022 16:13:24.673      307.62271505    
09 Jun 2022 00:24:35.922    09 Jun 2022 00:32:45.208      489.28645385    
09 Jun 2022 13:52:38.480    09 Jun 2022 13:59:53.277      434.79687689    
09 Jun 2022 15:30:45.022    09 Jun 2022 15:37:01.319      376.29757232    
09 Jun 2022 23:47:45.381    09 Jun 2022 23:55:49.776      484.39447519    
10 Jun 2022 13:16:12.894    10 Jun 2022 13:22:37.447      384.55374140    
10 Jun 2022 14:53:23.827    10 Jun 2022 15:00:28.276      424.44867531    
10 Jun 2022 23:10:58.693    10 Jun 2022 23:18:47.215      468.52225754    
11 Jun 2022 00:50:11.620    11 Jun 2022 00:54:20.019      248.39822048    
11 Jun 2022 12:40:01.366    11 Jun 2022 12:45:07.037      305.67108518    
11 Jun 2022 14:16:10.452    11 Jun 2022 14:23:48.359      457.90721850    
11 Jun 2022 22:34:16.072    11 Jun 2022 22:41:37.110      441.03861280    
12 Jun 2022 00:12:29.550    12 Jun 2022 00:18:19.838      350.28775376    
12 Jun 2022 12:04:23.981    12 Jun 2022 12:07:01.781      157.79993241    
12 Jun 2022 13:39:03.557    12 Jun 2022 13:47:02.713      479.15642399    
12 Jun 2022 21:57:38.291    12 Jun 2022 22:04:18.484      400.19265903    
12 Jun 2022 23:35:06.230    12 Jun 2022 23:41:58.705      412.47535273    
13 Jun 2022 13:02:02.532    13 Jun 2022 13:10:11.758      489.22657374    
13 Jun 2022 21:21:07.228    13 Jun 2022 21:26:49.256      342.02808064    
13 Jun 2022 22:57:52.831    13 Jun 2022 23:05:25.266      452.43519307    
14 Jun 2022 12:25:07.217    14 Jun 2022 12:33:15.470      488.25354134    
14 Jun 2022 14:06:02.302    14 Jun 2022 14:08:11.174      128.87186247    
14 Jun 2022 20:44:47.968    14 Jun 2022 20:49:04.132      256.16403879    
14 Jun 2022 22:20:46.122    14 Jun 2022 22:28:42.572      476.45026222    
15 Jun 2022 11:48:17.845    15 Jun 2022 11:56:13.432      475.58698738    
15 Jun 2022 13:27:46.255    15 Jun 2022 13:32:19.305      273.04968353    
15 Jun 2022 20:09:10.565    15 Jun 2022 20:10:32.856      82.290977344    
15 Jun 2022 21:43:44.541    15 Jun 2022 21:51:52.003      487.46183685    
16 Jun 2022 11:11:35.147    16 Jun 2022 11:19:04.738      449.59184983    
16 Jun 2022 12:50:02.837    16 Jun 2022 12:55:56.351      353.51403630    
16 Jun 2022 21:06:47.287    16 Jun 2022 21:14:54.177      486.88997092    
17 Jun 2022 10:35:00.692    17 Jun 2022 10:41:47.643      406.95154506    
17 Jun 2022 12:12:32.685    17 Jun 2022 12:19:21.485      408.79949068    
17 Jun 2022 20:29:54.023    17 Jun 2022 20:37:49.241      475.21845626    
17 Jun 2022 22:09:39.680    17 Jun 2022 22:12:44.998      185.31877643    
18 Jun 2022 09:58:37.994    18 Jun 2022 10:04:18.459      340.46493910    
18 Jun 2022 11:35:11.366    18 Jun 2022 11:42:38.950      447.58483496    
18 Jun 2022 19:53:04.808    18 Jun 2022 20:00:36.943      452.13517647    
18 Jun 2022 21:31:37.634    18 Jun 2022 21:36:55.529      317.89494798    
19 Jun 2022 09:22:37.716    19 Jun 2022 09:26:26.348      228.63132408    
19 Jun 2022 10:57:57.065    19 Jun 2022 11:05:50.369      473.30405148    
19 Jun 2022 19:16:20.185    19 Jun 2022 19:23:16.541      416.35614792    
19 Jun 2022 20:54:03.748    19 Jun 2022 21:00:35.876      392.12800377    
20 Jun 2022 10:20:48.944    20 Jun 2022 10:28:56.392      487.44788318    
20 Jun 2022 18:39:41.541    20 Jun 2022 18:45:46.446      364.90578294    
20 Jun 2022 20:16:42.166    20 Jun 2022 20:24:01.716      439.54975860    
21 Jun 2022 09:43:46.688    21 Jun 2022 09:51:57.145      490.45715824    
21 Jun 2022 18:03:12.371    21 Jun 2022 18:08:02.957      290.58598954    
21 Jun 2022 19:39:28.340    21 Jun 2022 19:47:17.416      469.07606917    
22 Jun 2022 09:06:50.389    22 Jun 2022 09:14:52.354      481.96528209    
22 Jun 2022 10:46:43.026    22 Jun 2022 10:50:39.011      235.98442900    
