GMAT/Constellation/Contact/ContactLocator11.txt

Target: HSEYE11

Observer: Bahrain
Start Time (UTC)            Stop Time (UTC)               Duration (s)         
27 Apr 2022 20:58:42.243    27 Apr 2022 21:06:55.788      493.54443185    
27 Apr 2022 22:39:02.090    27 Apr 2022 22:42:45.604      223.51448211    
28 Apr 2022 05:14:32.642    28 Apr 2022 05:22:30.115      477.47323809    
28 Apr 2022 06:53:32.293    28 Apr 2022 06:58:16.586      284.29330245    
28 Apr 2022 20:22:16.617    28 Apr 2022 20:30:23.528      486.91091227    
28 Apr 2022 22:01:42.802    28 Apr 2022 22:06:49.511      306.70896146    
29 Apr 2022 04:38:10.245    29 Apr 2022 04:45:47.927      457.68271509    
29 Apr 2022 06:16:25.079    29 Apr 2022 06:22:31.874      366.79531485    
29 Apr 2022 19:45:55.949    29 Apr 2022 19:53:46.279      470.33007627    
29 Apr 2022 21:24:35.937    29 Apr 2022 21:30:41.919      365.98258131    
30 Apr 2022 04:01:50.293    30 Apr 2022 04:08:59.266      428.97239034    
30 Apr 2022 05:39:30.831    30 Apr 2022 05:46:31.232      420.40106569    
30 Apr 2022 19:09:41.092    30 Apr 2022 19:17:03.079      441.98693734    
30 Apr 2022 20:47:36.750    30 Apr 2022 20:54:27.507      410.75748870    
01 May 2022 03:25:33.300    01 May 2022 03:32:03.505      390.20513651    
01 May 2022 05:02:43.976    01 May 2022 05:10:20.116      456.13961499    
01 May 2022 18:33:33.646    01 May 2022 18:40:12.219      398.57286641    
01 May 2022 20:10:43.443    01 May 2022 20:18:07.990      444.54649617    
02 May 2022 02:49:20.409    02 May 2022 02:54:59.397      338.98815484    
02 May 2022 04:26:02.129    02 May 2022 04:34:00.792      478.66310572    
02 May 2022 17:57:36.986    02 May 2022 18:03:10.213      333.22726618    
02 May 2022 19:33:55.165    02 May 2022 19:41:44.121      468.95591448    
03 May 2022 02:13:14.358    03 May 2022 02:17:44.105      269.74731353    
03 May 2022 03:49:24.022    03 May 2022 03:57:34.402      490.38001687    
03 May 2022 17:22:00.960    03 May 2022 17:25:47.095      226.13515727    
03 May 2022 18:57:11.499    03 May 2022 19:05:16.207      484.70760559    
04 May 2022 01:37:24.667    04 May 2022 01:40:08.028      163.36058043    
04 May 2022 03:12:48.923    04 May 2022 03:21:01.549      492.62633653    
04 May 2022 18:20:32.297    04 May 2022 18:28:44.281      491.98378853    
04 May 2022 20:01:34.236    04 May 2022 20:04:01.640      147.40308048    
05 May 2022 02:36:16.414    05 May 2022 02:44:22.517      486.10324119    
05 May 2022 04:15:52.777    05 May 2022 04:19:24.608      211.83056622    
05 May 2022 17:43:57.622    05 May 2022 17:52:08.154      490.53226691    
05 May 2022 19:23:52.967    05 May 2022 19:28:13.949      260.98174739    
06 May 2022 01:59:46.309    06 May 2022 02:07:37.357      471.04813495    
06 May 2022 03:38:24.296    06 May 2022 03:43:49.974      325.67810991    
06 May 2022 17:07:27.768    06 May 2022 17:15:27.406      479.63800204    
06 May 2022 18:46:33.165    06 May 2022 18:52:05.927      332.76203410    
07 May 2022 01:23:18.635    07 May 2022 01:30:45.900      447.26432178    
07 May 2022 03:01:17.256    07 May 2022 03:07:51.111      393.85465026    
07 May 2022 16:31:03.342    07 May 2022 16:38:41.296      457.95424758    
07 May 2022 18:09:23.376    07 May 2022 18:15:48.950      385.57435262    
08 May 2022 00:46:53.693    08 May 2022 00:53:47.710      414.01778710    
08 May 2022 02:24:20.258    08 May 2022 02:31:39.278      439.01980334    
08 May 2022 15:54:45.481    08 May 2022 16:01:48.552      423.07147089    
08 May 2022 17:32:20.490    08 May 2022 17:39:26.030      425.53945439    
09 May 2022 00:10:32.218    09 May 2022 00:16:41.916      369.69821162    
09 May 2022 01:47:29.533    09 May 2022 01:55:18.106      468.57353782    
09 May 2022 15:18:36.426    09 May 2022 15:24:46.798      370.37190761    
09 May 2022 16:55:23.177    09 May 2022 17:02:58.380      455.20292348    
09 May 2022 23:34:15.893    09 May 2022 23:39:26.712      310.81957743    
10 May 2022 01:10:43.265    10 May 2022 01:18:49.263      485.99773105    
10 May 2022 14:42:41.516    10 May 2022 14:47:30.558      289.04190845    
10 May 2022 16:18:30.783    10 May 2022 16:26:26.528      475.74431874    
10 May 2022 22:58:09.272    10 May 2022 23:01:57.429      228.15704173    
11 May 2022 00:34:00.441    11 May 2022 00:42:13.610      493.16874457    
11 May 2022 14:07:24.473    11 May 2022 14:09:35.970      131.49750077    
11 May 2022 15:41:43.007    11 May 2022 15:49:50.637      487.63073492    
11 May 2022 22:22:41.702    11 May 2022 22:23:44.627      62.925277906    
11 May 2022 23:57:20.471    12 May 2022 00:05:31.587      491.11643946    
12 May 2022 01:37:56.868    12 May 2022 01:39:26.883      90.014637925    
12 May 2022 15:04:59.787    12 May 2022 15:13:10.626      490.83927936    
12 May 2022 16:45:26.249    12 May 2022 16:48:53.654      207.40465731    
12 May 2022 23:20:43.035    12 May 2022 23:28:43.356      480.32104878    
13 May 2022 00:59:46.663    13 May 2022 01:04:23.095      276.43219919    
13 May 2022 14:28:21.289    13 May 2022 14:36:26.186      484.89761538    
13 May 2022 16:07:51.270    13 May 2022 16:12:47.851      296.58083356    
13 May 2022 22:44:08.041    13 May 2022 22:51:48.855      460.81395753    
14 May 2022 00:22:24.866    14 May 2022 00:28:28.158      363.29249960    
14 May 2022 13:51:47.945    14 May 2022 13:59:36.736      468.79111076    
14 May 2022 15:30:30.403    14 May 2022 15:36:29.062      358.65873909    
14 May 2022 22:07:35.637    14 May 2022 22:14:47.783      432.14591404    
14 May 2022 23:45:17.201    14 May 2022 23:52:16.199      418.99791624    
15 May 2022 13:15:20.604    15 May 2022 13:22:41.284      440.68026129    
15 May 2022 14:53:17.842    15 May 2022 15:00:02.994      405.15231957    
15 May 2022 21:31:06.316    15 May 2022 21:37:39.498      393.18248627    
15 May 2022 23:08:17.422    15 May 2022 23:15:53.314      455.89230882    
16 May 2022 12:39:00.884    16 May 2022 12:45:38.065      397.18167532    
16 May 2022 14:16:11.514    16 May 2022 14:23:31.601      440.08735878    
16 May 2022 20:54:41.219    16 May 2022 21:00:22.724      341.50422007    
16 May 2022 22:31:22.931    16 May 2022 22:39:21.948      479.01666225    
17 May 2022 12:02:52.252    17 May 2022 12:08:23.469      331.21701758    
17 May 2022 13:39:10.459    17 May 2022 13:46:55.718      465.25878073    
17 May 2022 20:18:23.124    17 May 2022 20:22:54.558      271.43403963    
17 May 2022 21:54:32.368    17 May 2022 22:02:43.309      490.94125370    
18 May 2022 11:27:05.055    18 May 2022 11:30:47.011      221.95532899    
18 May 2022 13:02:14.209    18 May 2022 13:10:15.676      481.46694348    
18 May 2022 19:42:21.815    18 May 2022 19:45:05.113      163.29821090    
18 May 2022 21:17:44.950    18 May 2022 21:25:58.028      493.07800659    
19 May 2022 12:25:22.590    19 May 2022 12:33:31.511      488.92057057    
19 May 2022 14:06:25.946    19 May 2022 14:08:45.285      139.33884484    
19 May 2022 20:41:00.235    19 May 2022 20:49:06.395      486.16044611    
19 May 2022 22:20:34.150    19 May 2022 22:24:09.418      215.26760972    
20 May 2022 11:48:35.663    20 May 2022 11:56:43.022      487.35890383    
20 May 2022 13:28:29.923    20 May 2022 13:32:47.490      257.56720804    
20 May 2022 20:04:18.027    20 May 2022 20:12:08.455      470.42798423    
20 May 2022 21:42:53.534    20 May 2022 21:48:22.232      328.69731156    
21 May 2022 11:11:53.739    21 May 2022 11:19:49.761      476.02224044    
21 May 2022 12:50:57.019    21 May 2022 12:56:27.775      330.75572269    
21 May 2022 19:27:38.368    21 May 2022 19:35:04.023      445.65462390    
21 May 2022 21:05:34.309    21 May 2022 21:12:10.817      396.50764143    
22 May 2022 10:35:17.473    22 May 2022 10:42:50.937      453.46437207    
22 May 2022 12:13:34.529    22 May 2022 12:19:58.763      384.23434091    
22 May 2022 18:51:01.594    22 May 2022 18:57:52.623      411.02884988    
22 May 2022 20:28:25.182    22 May 2022 20:35:46.326      441.14391580    
23 May 2022 09:58:48.108    23 May 2022 10:05:45.172      417.06425298    
23 May 2022 11:36:19.169    23 May 2022 11:43:23.643      424.47419821    
23 May 2022 18:14:28.535    23 May 2022 18:20:33.294      364.75973289    
23 May 2022 19:51:22.393    23 May 2022 19:59:12.382      469.98982527    
24 May 2022 09:22:28.146    24 May 2022 09:28:29.834      361.68827154    
24 May 2022 10:59:09.560    24 May 2022 11:06:43.681      454.12044658    
24 May 2022 17:38:01.116    24 May 2022 17:43:03.996      302.87943146    
24 May 2022 19:14:24.133    24 May 2022 19:22:30.655      486.52193171    
25 May 2022 08:46:23.821    25 May 2022 08:50:58.559      274.73742929    
25 May 2022 10:22:05.042    25 May 2022 10:29:59.420      474.37851633    
25 May 2022 17:01:44.856    25 May 2022 17:05:19.112      214.25609338    
25 May 2022 18:37:29.400    25 May 2022 18:45:42.005      492.60546905    
26 May 2022 08:11:11.125    26 May 2022 08:12:35.229      84.104324353    
26 May 2022 09:45:05.322    26 May 2022 09:53:11.027      485.70501393    
26 May 2022 18:00:37.619    26 May 2022 18:08:46.868      489.24840650    
26 May 2022 19:40:53.298    26 May 2022 19:43:02.468      129.16949966    
27 May 2022 09:08:10.368    27 May 2022 09:16:18.405      488.03677086    
27 May 2022 10:48:29.189    27 May 2022 10:52:04.743      215.55428936    
27 May 2022 17:23:48.501    27 May 2022 17:31:45.393      476.89240803    
27 May 2022 19:02:43.585    27 May 2022 19:07:33.571      289.98591421    
28 May 2022 08:31:20.391    28 May 2022 08:39:21.214      480.82356536    
28 May 2022 10:10:43.101    28 May 2022 10:15:45.722      302.62091408    
28 May 2022 16:47:01.993    28 May 2022 16:54:37.495      455.50192137    
28 May 2022 18:25:11.874    28 May 2022 18:31:23.978      372.10324818    
29 May 2022 07:54:35.902    29 May 2022 08:02:18.812      462.90991497    
29 May 2022 09:33:10.714    29 May 2022 09:39:14.298      363.58437308    
29 May 2022 16:10:18.314    29 May 2022 16:17:22.820      424.50609523    
29 May 2022 17:47:53.385    29 May 2022 17:54:58.335      424.94965234    
30 May 2022 07:17:57.891    30 May 2022 07:25:10.078      432.18688583    
30 May 2022 08:55:46.644    30 May 2022 09:02:35.767      409.12320177    
30 May 2022 15:33:38.087    30 May 2022 15:40:00.614      382.52716003    
30 May 2022 17:10:42.543    30 May 2022 17:18:22.084      459.54105783    
31 May 2022 06:41:28.281    31 May 2022 06:47:52.959      384.67840942    
31 May 2022 08:18:28.930    31 May 2022 08:25:51.985      443.05548384    
31 May 2022 14:57:02.750    31 May 2022 15:02:29.321      326.57090927    
31 May 2022 16:33:36.945    31 May 2022 16:41:37.487      480.54132268    
01 Jun 2022 06:05:11.400    01 Jun 2022 06:10:22.998      311.59862797    
01 Jun 2022 07:41:16.664    01 Jun 2022 07:49:03.743      467.07910316    
01 Jun 2022 14:20:36.012    01 Jun 2022 14:24:45.125      249.11301619    
01 Jun 2022 15:56:35.322    01 Jun 2022 16:04:45.676      490.35397880    
02 Jun 2022 05:29:22.424    02 Jun 2022 05:32:24.887      182.46346697    
02 Jun 2022 07:04:09.421    02 Jun 2022 07:12:11.342      481.92089457    
02 Jun 2022 13:44:34.730    02 Jun 2022 13:46:31.083      116.35216355    
02 Jun 2022 15:19:36.945    02 Jun 2022 15:27:47.232      490.28760858    
03 Jun 2022 06:27:07.069    03 Jun 2022 06:35:14.778      487.70945513    
03 Jun 2022 08:07:51.760    03 Jun 2022 08:10:41.063      169.30288249    
03 Jun 2022 14:42:41.419    03 Jun 2022 14:50:42.406      480.98650672    
03 Jun 2022 16:21:57.643    03 Jun 2022 16:26:04.197      246.55308427    
04 Jun 2022 05:50:09.723    04 Jun 2022 05:58:13.798      484.07509733    
04 Jun 2022 07:29:50.636    04 Jun 2022 07:34:25.479      274.84291900    
04 Jun 2022 14:05:48.604    04 Jun 2022 14:13:31.190      462.58598228    
04 Jun 2022 15:44:12.150    04 Jun 2022 15:49:58.453      346.30355251    
05 Jun 2022 05:13:17.778    05 Jun 2022 05:21:07.866      470.08823584    
05 Jun 2022 06:52:08.524    05 Jun 2022 06:57:52.340      343.81530785    
05 Jun 2022 13:28:58.615    05 Jun 2022 13:36:13.321      434.70653559    
05 Jun 2022 15:06:44.380    05 Jun 2022 15:13:32.292      407.91155482    
06 Jun 2022 04:36:32.034    06 Jun 2022 04:43:56.039      444.00457941    
06 Jun 2022 06:14:36.197    06 Jun 2022 06:21:10.786      394.58900273    
06 Jun 2022 12:52:11.921    06 Jun 2022 12:58:48.185      396.26404268    
06 Jun 2022 14:29:25.813    06 Jun 2022 14:36:54.086      448.27304757    
07 Jun 2022 03:59:54.034    07 Jun 2022 04:06:36.632      402.59856815    
07 Jun 2022 05:37:10.891    07 Jun 2022 05:44:23.469      432.57762784    
07 Jun 2022 12:15:29.643    07 Jun 2022 12:21:14.526      344.88300128    
07 Jun 2022 13:52:13.266    07 Jun 2022 14:00:06.871      473.60456942    
08 Jun 2022 03:23:27.039    08 Jun 2022 03:29:06.237      339.19866151    
08 Jun 2022 04:59:51.401    08 Jun 2022 05:07:31.466      460.06538328    
08 Jun 2022 11:38:54.520    08 Jun 2022 11:43:29.477      274.95730935    
08 Jun 2022 13:15:05.143    08 Jun 2022 13:23:12.086      486.94297116    
09 Jun 2022 02:47:20.388    09 Jun 2022 02:51:15.373      234.98495902    
09 Jun 2022 04:22:37.148    09 Jun 2022 04:30:35.218      478.07010671    
09 Jun 2022 11:02:36.126    09 Jun 2022 11:05:23.359      167.23259662    
09 Jun 2022 12:38:00.547    09 Jun 2022 12:46:10.471      489.92467364    
10 Jun 2022 03:45:27.902    10 Jun 2022 03:53:34.809      486.90700179    
10 Jun 2022 05:26:42.250    10 Jun 2022 05:28:36.638      114.38709581    
10 Jun 2022 12:00:58.972    10 Jun 2022 12:09:02.371      483.39911622    
10 Jun 2022 13:40:39.023    10 Jun 2022 13:43:55.773      196.74993897    
11 Jun 2022 03:08:23.693    11 Jun 2022 03:16:30.058      486.36447305    
11 Jun 2022 04:48:21.614    11 Jun 2022 04:52:29.533      247.91898569    
11 Jun 2022 11:24:00.193    11 Jun 2022 11:31:47.853      467.65985400    
11 Jun 2022 13:02:37.165    11 Jun 2022 13:07:56.858      319.69313999    
12 Jun 2022 02:31:24.821    12 Jun 2022 02:39:20.514      475.69279675    
12 Jun 2022 04:10:29.758    12 Jun 2022 04:15:55.191      325.43337804    
12 Jun 2022 10:47:04.239    12 Jun 2022 10:54:26.726      442.48701730    
12 Jun 2022 12:24:59.965    12 Jun 2022 12:31:30.648      390.68369520    
13 Jun 2022 01:54:31.948    13 Jun 2022 02:02:05.364      453.41608822    
13 Jun 2022 03:32:49.451    13 Jun 2022 03:39:10.753      381.30175271    
13 Jun 2022 10:10:11.464    13 Jun 2022 10:16:58.482      407.01752678    
13 Jun 2022 11:47:33.800    13 Jun 2022 11:54:50.610      436.80929682    
14 Jun 2022 01:17:46.355    14 Jun 2022 01:24:43.176      416.82068001    
14 Jun 2022 02:55:16.868    14 Jun 2022 03:02:19.931      423.06398281    
14 Jun 2022 09:33:22.772    14 Jun 2022 09:39:22.071      359.29905886    
14 Jun 2022 11:10:14.475    14 Jun 2022 11:18:00.785      466.30938702    
15 Jun 2022 00:41:10.657    15 Jun 2022 00:47:11.184      360.52771815    
15 Jun 2022 02:17:50.462    15 Jun 2022 02:25:24.145      453.68282511    
15 Jun 2022 08:56:40.320    15 Jun 2022 09:01:35.204      294.88341927    
15 Jun 2022 10:33:00.024    15 Jun 2022 10:41:02.980      482.95679251    
16 Jun 2022 00:04:51.512    16 Jun 2022 00:09:22.585      271.07307863    
16 Jun 2022 01:40:29.504    16 Jun 2022 01:48:23.988      474.48357322    
16 Jun 2022 08:20:10.684    16 Jun 2022 08:23:31.189      200.50463250    
16 Jun 2022 09:55:49.371    16 Jun 2022 10:03:58.113      488.74206464    
16 Jun 2022 23:29:34.235    16 Jun 2022 23:30:31.919      57.683971594    
17 Jun 2022 01:03:13.674    17 Jun 2022 01:11:19.636      485.96239882    
17 Jun 2022 09:18:41.910    17 Jun 2022 09:26:46.633      484.72238530    
17 Jun 2022 10:58:51.062    17 Jun 2022 11:01:06.998      135.93620821    
18 Jun 2022 00:26:02.933    18 Jun 2022 00:34:10.981      488.04742981    
18 Jun 2022 02:06:16.527    18 Jun 2022 02:09:58.963      222.43672097    
18 Jun 2022 08:41:37.340    18 Jun 2022 08:49:28.680      471.34017471    
18 Jun 2022 10:20:27.369    18 Jun 2022 10:25:20.472      293.10293833    
18 Jun 2022 23:48:57.511    18 Jun 2022 23:56:57.646      480.13426771    
19 Jun 2022 01:28:14.833    19 Jun 2022 01:33:23.751      308.91797715    
19 Jun 2022 08:04:35.625    19 Jun 2022 08:12:04.138      448.51307563    
19 Jun 2022 09:42:40.497    19 Jun 2022 09:48:54.548      374.05050552    
19 Jun 2022 23:11:57.972    19 Jun 2022 23:19:38.921      460.94833212    
20 Jun 2022 00:50:26.811    20 Jun 2022 00:56:36.420      369.60846658    
20 Jun 2022 07:27:37.034    20 Jun 2022 07:34:32.585      415.55180991    
20 Jun 2022 09:05:06.848    20 Jun 2022 09:12:12.676      425.82783984    
20 Jun 2022 22:35:05.421    20 Jun 2022 22:42:13.557      428.13549021    
21 Jun 2022 00:12:47.275    21 Jun 2022 00:19:42.056      414.78138277    
21 Jun 2022 06:50:42.319    21 Jun 2022 06:56:53.129      370.80970982    
21 Jun 2022 08:27:40.934    21 Jun 2022 08:35:20.194      459.25994671    
21 Jun 2022 21:58:22.058    21 Jun 2022 22:04:39.212      377.15356968    
21 Jun 2022 23:35:14.310    21 Jun 2022 23:42:42.461      448.15032771    
22 Jun 2022 06:13:53.262    22 Jun 2022 06:19:03.860      310.59751221    
22 Jun 2022 07:50:20.380    22 Jun 2022 07:58:19.332      478.95181052    
22 Jun 2022 21:21:53.085    22 Jun 2022 21:26:50.547      297.46227177    
22 Jun 2022 22:57:47.035    22 Jun 2022 23:05:38.388      471.35388415    
23 Jun 2022 05:37:14.853    23 Jun 2022 05:40:59.677      224.82376577    
23 Jun 2022 07:13:03.927    23 Jun 2022 07:21:11.195      487.26804672    
23 Jun 2022 20:46:00.312    23 Jun 2022 20:48:25.611      145.29901010    
23 Jun 2022 22:20:25.047    23 Jun 2022 22:28:30.107      485.06036092    
24 Jun 2022 05:01:29.839    24 Jun 2022 05:01:57.746      27.906824404    
24 Jun 2022 06:35:50.868    24 Jun 2022 06:43:56.342      485.47388023    
24 Jun 2022 08:16:53.873    24 Jun 2022 08:17:19.539      25.666223187    
24 Jun 2022 21:43:08.252    24 Jun 2022 21:51:17.573      489.32141770    
24 Jun 2022 23:23:35.989    24 Jun 2022 23:26:54.962      198.97313307    
25 Jun 2022 05:58:40.837    25 Jun 2022 06:06:34.989      474.15240328    
25 Jun 2022 07:37:43.310    25 Jun 2022 07:42:10.847      267.53640783    
25 Jun 2022 21:05:56.823    25 Jun 2022 21:14:00.474      483.65157726    
25 Jun 2022 22:45:24.677    25 Jun 2022 22:50:19.278      294.60145351    
26 Jun 2022 05:21:33.738    26 Jun 2022 05:29:07.080      453.34201431    
26 Jun 2022 06:59:46.826    26 Jun 2022 07:05:45.622      358.79570368    


Number of events : 246


Observer: Cape_Town
Start Time (UTC)            Stop Time (UTC)               Duration (s)         
27 Apr 2022 12:28:21.379    27 Apr 2022 12:36:24.472      483.09301090    
27 Apr 2022 14:08:39.440    27 Apr 2022 14:12:59.475      260.03530155    
27 Apr 2022 17:26:35.854    27 Apr 2022 17:31:49.504      313.65000301    
27 Apr 2022 19:03:22.149    27 Apr 2022 19:11:37.504      495.35502634    
27 Apr 2022 20:42:21.877    27 Apr 2022 20:47:15.718      293.84104380    
28 Apr 2022 10:15:57.389    28 Apr 2022 10:21:05.443      308.05433141    
28 Apr 2022 11:51:45.235    28 Apr 2022 11:59:57.772      492.53761178    
28 Apr 2022 13:31:37.913    28 Apr 2022 13:36:42.070      304.15678133    
28 Apr 2022 16:50:18.136    28 Apr 2022 16:54:48.342      270.20510783    
28 Apr 2022 18:26:54.965    28 Apr 2022 18:35:01.662      486.69695528    
28 Apr 2022 20:05:20.591    28 Apr 2022 20:11:27.767      367.17521246    
29 Apr 2022 09:40:29.460    29 Apr 2022 09:43:44.424      194.96451470    
29 Apr 2022 11:15:11.940    29 Apr 2022 11:23:28.530      496.59073491    
29 Apr 2022 12:54:38.834    29 Apr 2022 13:00:22.369      343.53456921    
29 Apr 2022 16:14:01.501    29 Apr 2022 16:17:42.516      221.01534025    
29 Apr 2022 17:50:28.404    29 Apr 2022 17:58:21.342      472.93773161    
29 Apr 2022 19:28:29.523    29 Apr 2022 19:35:26.292      416.76914482    
30 Apr 2022 10:38:41.756    30 Apr 2022 10:46:56.459      494.70295063    
30 Apr 2022 12:17:42.071    30 Apr 2022 12:24:00.639      378.56790049    
30 Apr 2022 15:37:47.427    30 Apr 2022 15:40:30.733      163.30601581    
30 Apr 2022 17:14:02.308    30 Apr 2022 17:21:36.683      454.37454932    
30 Apr 2022 18:51:44.320    30 Apr 2022 18:59:15.582      451.26142561    
01 May 2022 10:02:15.039    01 May 2022 10:10:21.163      486.12406215    
01 May 2022 11:40:47.620    01 May 2022 11:47:36.985      409.36551117    
01 May 2022 15:01:42.123    01 May 2022 15:03:07.000      84.876078868    
01 May 2022 16:37:36.564    01 May 2022 16:44:47.792      431.22809218    
01 May 2022 18:15:02.965    01 May 2022 18:22:57.593      474.62761570    
02 May 2022 09:25:52.299    02 May 2022 09:33:42.088      469.78866085    
02 May 2022 11:03:55.536    02 May 2022 11:11:11.424      435.88877055    
02 May 2022 12:45:27.431    02 May 2022 12:47:11.480      104.04923006    
02 May 2022 16:01:11.103    02 May 2022 16:07:54.754      403.65135079    
02 May 2022 17:38:24.309    02 May 2022 17:46:33.409      489.10008925    
03 May 2022 08:49:34.309    03 May 2022 08:56:58.407      444.09878813    
03 May 2022 10:27:05.905    03 May 2022 10:34:43.913      458.00802105    
03 May 2022 12:08:05.660    03 May 2022 12:11:01.248      175.58737836    
03 May 2022 15:24:45.902    03 May 2022 15:30:57.625      371.72370449    
03 May 2022 17:01:47.619    03 May 2022 17:10:03.698      496.07955627    
04 May 2022 08:13:22.336    04 May 2022 08:20:08.794      406.45813281    
04 May 2022 09:50:18.836    04 May 2022 09:58:14.358      475.52220449    
04 May 2022 11:30:51.764    04 May 2022 11:34:42.977      231.21320412    
04 May 2022 14:48:21.001    04 May 2022 14:53:56.423      335.42185421    
04 May 2022 16:25:12.391    04 May 2022 16:33:28.900      496.50893561    
04 May 2022 18:04:41.435    04 May 2022 18:08:28.961      227.52625375    
05 May 2022 07:37:18.746    05 May 2022 07:43:10.818      352.07173404    
05 May 2022 09:13:34.464    05 May 2022 09:21:42.623      488.15889037    
05 May 2022 10:53:41.692    05 May 2022 10:58:20.930      279.23754381    
05 May 2022 14:11:56.545    05 May 2022 14:16:51.089      294.54333518    
05 May 2022 15:48:38.263    05 May 2022 15:56:49.317      491.05399606    
05 May 2022 17:27:21.871    05 May 2022 17:32:48.390      326.51919901    
06 May 2022 07:01:29.138    06 May 2022 07:05:58.814      269.67592423    
06 May 2022 08:36:52.954    06 May 2022 08:45:08.515      495.56012009    
06 May 2022 10:16:34.445    06 May 2022 10:21:56.280      321.83490945    
06 May 2022 13:35:32.882    06 May 2022 13:39:41.392      248.50945787    
06 May 2022 15:12:04.963    06 May 2022 15:20:05.164      480.20062818    
06 May 2022 16:50:18.977    06 May 2022 16:56:47.982      389.00468788    
07 May 2022 06:26:21.314    07 May 2022 06:28:04.908      103.59373565    
07 May 2022 08:00:14.524    07 May 2022 08:08:31.777      497.25348718    
07 May 2022 09:39:29.705    07 May 2022 09:45:29.485      359.78035309    
07 May 2022 12:59:10.857    07 May 2022 13:02:26.634      195.77662084    
07 May 2022 14:35:32.288    07 May 2022 14:43:16.599      464.31092389    
07 May 2022 16:13:24.222    07 May 2022 16:20:36.187      431.96453741    
08 May 2022 07:23:39.464    08 May 2022 07:31:52.066      492.60243993    
08 May 2022 09:02:27.385    08 May 2022 09:09:00.731      393.34630114    
08 May 2022 12:22:53.068    08 May 2022 12:25:04.399      131.33131969    
08 May 2022 13:59:00.085    08 May 2022 14:06:23.741      443.65609760    
08 May 2022 15:36:34.459    08 May 2022 15:44:16.067      461.60875809    
09 May 2022 06:47:08.184    09 May 2022 06:55:08.905      480.72102838    
09 May 2022 08:25:27.499    09 May 2022 08:32:30.077      422.57808850    
09 May 2022 10:07:29.577    09 May 2022 10:08:06.969      37.391610641    
09 May 2022 13:22:28.246    09 May 2022 13:29:26.680      418.43382568    
09 May 2022 14:59:48.075    09 May 2022 15:07:49.149      481.07436678    
10 May 2022 06:10:41.295    10 May 2022 06:18:21.614      460.31910600    
10 May 2022 07:48:30.103    10 May 2022 07:55:57.500      447.39728003    
10 May 2022 09:29:45.391    10 May 2022 09:32:06.701      141.30985545    
10 May 2022 12:45:56.706    10 May 2022 12:52:25.478      388.77169434    
10 May 2022 14:23:04.101    10 May 2022 14:31:16.313      492.21213578    
11 May 2022 05:34:19.758    11 May 2022 05:41:29.151      429.39246293    
11 May 2022 07:11:35.286    11 May 2022 07:19:22.928      467.64165574    
11 May 2022 08:52:21.756    11 May 2022 08:55:45.639      203.88341246    
11 May 2022 12:09:25.458    11 May 2022 12:15:20.171      354.71279043    
11 May 2022 13:46:21.895    11 May 2022 13:54:38.114      496.21902663    
11 May 2022 15:26:34.844    11 May 2022 15:28:46.400      131.55514291    
12 May 2022 04:58:05.252    12 May 2022 05:04:29.757      384.50483802    
12 May 2022 06:34:43.158    12 May 2022 06:42:46.234      483.07605012    
12 May 2022 08:15:03.389    12 May 2022 08:19:19.284      255.89458868    
12 May 2022 11:32:54.572    12 May 2022 11:38:10.741      316.16934913    
12 May 2022 13:09:41.006    12 May 2022 13:17:54.923      493.91705700    
12 May 2022 14:48:45.334    12 May 2022 14:53:25.200      279.86531180    
13 May 2022 04:22:01.221    13 May 2022 04:27:19.905      318.68364096    
13 May 2022 05:57:53.862    13 May 2022 06:06:07.248      493.38583503    
13 May 2022 07:37:48.289    13 May 2022 07:42:49.822      301.53238272    
13 May 2022 10:56:24.259    13 May 2022 11:00:57.063      272.80389176    
13 May 2022 12:33:01.100    13 May 2022 12:41:06.995      485.89462044    
13 May 2022 14:11:28.974    13 May 2022 14:17:27.694      358.72033476    
14 May 2022 03:46:17.821    14 May 2022 03:49:49.354      211.53337505    
14 May 2022 05:21:07.583    14 May 2022 05:29:25.738      498.15569889    
14 May 2022 07:00:35.863    14 May 2022 07:06:17.992      342.12983652    
14 May 2022 10:19:55.036    14 May 2022 10:23:38.740      223.70458682    
14 May 2022 11:56:21.929    14 May 2022 12:04:14.514      472.58505737    
14 May 2022 13:34:24.163    14 May 2022 13:41:15.388      411.22558834    
15 May 2022 04:44:24.567    15 May 2022 04:52:41.398      496.83075417    
15 May 2022 06:23:25.924    15 May 2022 06:29:44.097      378.17313579    
15 May 2022 09:43:28.281    15 May 2022 09:46:14.553      166.27147794    
15 May 2022 11:19:43.305    15 May 2022 11:27:17.617      454.31264121    
15 May 2022 12:57:25.774    15 May 2022 13:04:53.316      447.54166449    
16 May 2022 04:07:45.163    16 May 2022 04:15:53.813      488.65005429    
16 May 2022 05:46:18.441    16 May 2022 05:53:08.247      409.80606589    
16 May 2022 09:07:09.640    16 May 2022 09:08:39.052      89.412350720    
16 May 2022 10:43:05.088    16 May 2022 10:50:16.407      431.31895023    
16 May 2022 12:20:31.532    16 May 2022 12:28:23.658      472.12592155    
17 May 2022 03:31:09.875    17 May 2022 03:39:02.404      472.52937566    
17 May 2022 05:09:13.452    17 May 2022 05:16:30.456      437.00345156    
17 May 2022 06:50:44.415    17 May 2022 06:52:30.451      106.03572006    
17 May 2022 10:06:27.188    17 May 2022 10:13:10.963      403.77453837    
17 May 2022 11:43:40.168    17 May 2022 11:51:47.589      487.42127744    
18 May 2022 02:54:39.480    18 May 2022 03:02:06.318      446.83778642    
18 May 2022 04:32:11.035    18 May 2022 04:39:50.674      459.63843050    
18 May 2022 06:13:09.784    18 May 2022 06:16:07.831      178.04693207    
18 May 2022 09:29:49.564    18 May 2022 09:36:01.339      371.77512338    
18 May 2022 11:06:50.884    18 May 2022 11:15:05.822      494.93781533    
19 May 2022 02:18:15.268    19 May 2022 02:25:04.186      408.91704782    
19 May 2022 03:55:11.293    19 May 2022 04:03:08.799      477.50627169    
19 May 2022 05:35:43.011    19 May 2022 05:39:37.219      234.20757784    
19 May 2022 08:53:12.241    19 May 2022 08:58:47.556      335.31436416    
19 May 2022 10:30:03.135    19 May 2022 10:38:18.816      495.68178509    
19 May 2022 12:09:32.068    19 May 2022 12:13:17.309      225.24109120    
20 May 2022 01:41:59.667    20 May 2022 01:47:53.504      353.83652374    
20 May 2022 03:18:14.359    20 May 2022 03:26:24.685      490.32565467    
20 May 2022 04:58:20.107    20 May 2022 05:03:02.818      282.71060792    
20 May 2022 08:16:35.351    20 May 2022 08:21:29.560      294.20918485    
20 May 2022 09:53:16.532    20 May 2022 10:01:26.890      490.35854934    
20 May 2022 11:31:59.162    20 May 2022 11:37:25.488      326.32660550    
21 May 2022 01:05:58.477    21 May 2022 01:10:28.395      269.91766880    
21 May 2022 02:41:20.405    21 May 2022 02:49:38.129      497.72399389    
21 May 2022 04:21:00.090    21 May 2022 04:26:25.791      325.70082089    
21 May 2022 07:39:59.230    21 May 2022 07:44:07.134      247.90468910    
21 May 2022 09:16:30.788    21 May 2022 09:24:30.268      479.48039785    
21 May 2022 10:54:43.512    21 May 2022 11:01:13.169      389.65736583    
22 May 2022 00:30:41.880    22 May 2022 00:32:18.605      96.724753536    
22 May 2022 02:04:29.657    22 May 2022 02:12:48.864      499.20645542    
22 May 2022 03:43:42.654    22 May 2022 03:49:46.589      363.93458869    
22 May 2022 07:03:24.714    22 May 2022 07:06:39.600      194.88639546    
22 May 2022 08:39:45.689    22 May 2022 08:47:29.117      463.42826926    
22 May 2022 10:17:36.194    22 May 2022 10:24:49.191      432.99681970    
23 May 2022 01:27:42.426    23 May 2022 01:35:56.528      494.10201909    
23 May 2022 03:06:27.728    23 May 2022 03:13:05.397      397.66884075    
23 May 2022 06:26:54.401    23 May 2022 06:29:04.557      130.15669413    
23 May 2022 08:03:01.078    23 May 2022 08:10:23.566      442.48796655    
23 May 2022 09:40:33.967    23 May 2022 09:48:16.714      462.74696166    
24 May 2022 00:50:59.154    24 May 2022 00:59:00.624      481.47003892    
24 May 2022 02:29:15.338    24 May 2022 02:36:22.273      426.93443462    
24 May 2022 04:11:04.202    24 May 2022 04:12:09.910      65.708245046    
24 May 2022 07:26:16.847    24 May 2022 07:33:13.717      416.86951141    
24 May 2022 09:03:35.184    24 May 2022 09:11:37.306      482.12198733    
25 May 2022 00:14:20.500    25 May 2022 00:22:00.429      459.92832785    
25 May 2022 01:52:05.558    25 May 2022 01:59:37.196      451.63816052    
25 May 2022 03:33:15.478    25 May 2022 03:35:48.990      153.51168212    
25 May 2022 06:49:32.936    25 May 2022 06:55:59.647      386.71168521    
25 May 2022 08:26:38.862    25 May 2022 08:34:51.874      493.01133872    
25 May 2022 23:37:47.521    25 May 2022 23:44:54.824      427.30278941    
26 May 2022 01:14:58.490    26 May 2022 01:22:50.092      471.60142417    
26 May 2022 02:55:40.284    26 May 2022 02:59:14.397      214.11313154    
26 May 2022 06:12:49.341    26 May 2022 06:18:41.409      352.06765572    
26 May 2022 07:49:44.357    26 May 2022 07:58:00.991      496.63409272    
26 May 2022 09:29:44.942    26 May 2022 09:32:21.523      156.58004363    
26 May 2022 23:01:22.084    26 May 2022 23:07:41.877      379.79334741    
27 May 2022 00:37:54.268    27 May 2022 00:46:00.837      486.56945648    
27 May 2022 02:18:09.841    27 May 2022 02:22:35.157      265.31681616    
27 May 2022 05:36:06.145    27 May 2022 05:41:19.001      312.85670742    
27 May 2022 07:12:51.218    27 May 2022 07:21:05.044      493.82627564    
27 May 2022 08:51:49.457    27 May 2022 08:56:41.586      292.12856472    
27 May 2022 22:25:08.150    27 May 2022 22:30:17.562      309.41170090    
28 May 2022 00:00:53.053    28 May 2022 00:09:09.256      496.20242387    
28 May 2022 01:40:42.591    28 May 2022 01:45:53.040      310.44866344    
28 May 2022 04:59:23.576    28 May 2022 05:03:52.314      268.73797984    
28 May 2022 06:35:59.118    28 May 2022 06:44:04.304      485.18607313    
28 May 2022 08:14:22.340    28 May 2022 08:20:30.141      367.80103259    
28 May 2022 21:49:18.564    28 May 2022 21:52:28.967      190.40328667    
28 May 2022 23:23:55.058    28 May 2022 23:32:15.109      500.05056389    
29 May 2022 01:03:18.077    29 May 2022 01:09:08.677      350.60043689    
29 May 2022 04:22:42.189    29 May 2022 04:26:20.947      218.75841318    
29 May 2022 05:59:07.815    29 May 2022 06:06:58.969      471.15437997    
29 May 2022 07:37:06.134    29 May 2022 07:44:04.569      418.43515118    
29 May 2022 22:47:00.565    29 May 2022 22:55:18.075      497.50917598    
30 May 2022 00:25:56.175    30 May 2022 00:32:22.332      386.15677221    
30 May 2022 03:46:03.490    30 May 2022 03:48:43.592      160.10206738    
30 May 2022 05:22:17.130    30 May 2022 05:29:49.192      452.06180820    
30 May 2022 06:59:56.167    30 May 2022 07:07:29.470      453.30247488    
30 May 2022 22:10:09.968    30 May 2022 22:18:17.709      487.74106203    
30 May 2022 23:48:36.892    30 May 2022 23:55:34.098      417.20683136    
31 May 2022 03:09:34.170    31 May 2022 03:10:53.794      79.623953614    
31 May 2022 04:45:26.935    31 May 2022 04:52:35.090      428.15541944    
31 May 2022 06:22:50.302    31 May 2022 06:30:46.902      476.60038305    
31 May 2022 21:33:23.841    31 May 2022 21:41:13.379      469.53730906    
31 May 2022 23:11:20.292    31 May 2022 23:18:43.981      443.68951656    
01 Jun 2022 00:52:40.664    01 Jun 2022 00:54:50.286      129.62202594    
01 Jun 2022 04:08:37.148    01 Jun 2022 04:15:16.758      399.61001723    
01 Jun 2022 05:45:47.331    01 Jun 2022 05:53:57.996      490.66513872    
01 Jun 2022 20:56:43.080    01 Jun 2022 21:04:04.124      441.04462703    
01 Jun 2022 22:34:06.473    01 Jun 2022 22:41:51.922      465.44908126    
02 Jun 2022 00:14:57.163    02 Jun 2022 00:18:12.457      195.29368806    
02 Jun 2022 03:31:47.739    02 Jun 2022 03:37:54.262      366.52268884    
02 Jun 2022 05:08:46.490    02 Jun 2022 05:17:03.444      496.95409953    
02 Jun 2022 06:49:58.965    02 Jun 2022 06:50:06.600      7.6356562553    
02 Jun 2022 20:20:09.203    02 Jun 2022 20:26:48.358      399.15439897    
02 Jun 2022 21:56:55.558    02 Jun 2022 22:04:57.810      482.25246118    
02 Jun 2022 23:37:19.673    02 Jun 2022 23:41:28.783      249.10995250    
03 Jun 2022 02:54:58.750    03 Jun 2022 03:00:27.631      328.88089536    
03 Jun 2022 04:31:47.255    03 Jun 2022 04:40:03.699      496.44421306    
03 Jun 2022 06:11:02.054    03 Jun 2022 06:15:18.071      256.01686032    
03 Jun 2022 19:43:45.204    03 Jun 2022 19:49:23.015      337.81042158    
03 Jun 2022 21:19:47.698    03 Jun 2022 21:28:01.483      493.78550596    
03 Jun 2022 22:59:45.752    03 Jun 2022 23:04:41.934      296.18175135    
04 Jun 2022 02:18:10.336    04 Jun 2022 02:22:56.811      286.47505391    
04 Jun 2022 03:54:49.249    04 Jun 2022 04:02:59.072      489.82331915    
04 Jun 2022 05:33:22.844    04 Jun 2022 05:39:08.818      345.97460231    
04 Jun 2022 19:07:39.042    04 Jun 2022 19:11:40.062      241.02081663    
04 Jun 2022 20:42:43.086    04 Jun 2022 20:51:02.719      499.63287322    
04 Jun 2022 22:22:14.734    04 Jun 2022 22:27:52.758      338.02370875    
05 Jun 2022 01:41:22.888    05 Jun 2022 01:45:21.552      238.66421386    
05 Jun 2022 03:17:52.194    05 Jun 2022 03:25:49.787      477.59278048    
05 Jun 2022 04:55:57.989    05 Jun 2022 05:02:42.105      404.11606582    
05 Jun 2022 20:05:41.976    05 Jun 2022 20:14:01.216      499.23942082    
05 Jun 2022 21:44:46.425    05 Jun 2022 21:51:01.593      375.16769922    
06 Jun 2022 01:04:37.401    06 Jun 2022 01:07:41.034      183.63276321    
06 Jun 2022 02:40:55.881    06 Jun 2022 02:48:36.008      460.12642417    
06 Jun 2022 04:18:40.675    06 Jun 2022 04:26:04.657      443.98176094    
06 Jun 2022 19:28:44.720    06 Jun 2022 19:36:56.564      491.84359837    
06 Jun 2022 21:07:20.802    06 Jun 2022 21:14:08.568      407.76550916    
07 Jun 2022 00:27:57.279    07 Jun 2022 00:29:52.072      114.79253643    
07 Jun 2022 02:04:00.157    07 Jun 2022 02:11:17.862      437.70479589    
07 Jun 2022 03:41:28.149    07 Jun 2022 03:49:19.143      470.99432753    
07 Jun 2022 18:51:51.826    07 Jun 2022 18:59:48.186      476.35995297    
07 Jun 2022 20:29:57.915    07 Jun 2022 20:37:13.703      435.78760622    
07 Jun 2022 22:11:28.709    07 Jun 2022 22:13:13.750      105.04122705    
08 Jun 2022 01:27:04.917    08 Jun 2022 01:33:55.449      410.53237048    
08 Jun 2022 03:04:18.941    08 Jun 2022 03:12:26.942      488.00074335    
08 Jun 2022 18:15:04.072    08 Jun 2022 18:22:35.228      451.15575423    
08 Jun 2022 19:52:37.849    08 Jun 2022 20:00:16.948      459.09824503    
08 Jun 2022 21:33:36.561    08 Jun 2022 21:36:33.788      177.22699523    
09 Jun 2022 00:50:10.104    09 Jun 2022 00:56:28.843      378.73863042    
09 Jun 2022 02:27:12.149    09 Jun 2022 02:35:28.866      496.71675044    
09 Jun 2022 17:38:22.747    09 Jun 2022 17:45:16.319      413.57222273    
09 Jun 2022 19:15:20.718    09 Jun 2022 19:23:18.199      477.48150568    
09 Jun 2022 20:55:52.330    09 Jun 2022 20:59:46.077      233.74738432    
10 Jun 2022 00:13:15.727    10 Jun 2022 00:18:58.084      342.35662536    
10 Jun 2022 01:50:07.170    10 Jun 2022 01:58:25.437      498.26670337    
10 Jun 2022 03:29:39.753    10 Jun 2022 03:33:17.137      217.38374125    
10 Jun 2022 17:01:50.268    10 Jun 2022 17:07:48.958      358.69074706    
10 Jun 2022 18:38:06.660    10 Jun 2022 18:46:17.302      490.64250475    
10 Jun 2022 20:18:12.098    10 Jun 2022 20:22:54.766      282.66776340    
10 Jun 2022 23:36:21.892    10 Jun 2022 23:41:23.150      301.25810683    
11 Jun 2022 01:13:03.575    11 Jun 2022 01:21:17.005      493.42967563    
11 Jun 2022 02:51:47.274    11 Jun 2022 02:57:11.658      324.38339065    
11 Jun 2022 16:25:32.378    11 Jun 2022 16:30:07.318      274.94017663    
11 Jun 2022 18:00:55.852    11 Jun 2022 18:09:14.044      498.19135142    
11 Jun 2022 19:40:34.927    11 Jun 2022 19:46:00.986      326.05969606    
11 Jun 2022 22:59:28.890    11 Jun 2022 23:03:43.872      254.98175919    
12 Jun 2022 00:36:01.048    12 Jun 2022 00:44:03.815      482.76695120    
12 Jun 2022 02:14:13.850    12 Jun 2022 02:20:44.055      390.20557782    
12 Jun 2022 15:49:57.791    12 Jun 2022 15:51:42.599      104.80871253    
12 Jun 2022 17:23:48.530    12 Jun 2022 17:32:08.139      499.60941070    
12 Jun 2022 19:03:00.535    12 Jun 2022 19:09:05.167      364.63172551    
12 Jun 2022 22:22:37.454    12 Jun 2022 22:25:59.678      202.22441296    
12 Jun 2022 23:58:59.355    13 Jun 2022 00:06:46.049      466.69377125    
13 Jun 2022 01:36:49.411    13 Jun 2022 01:44:04.304      434.89360866    
13 Jun 2022 16:46:45.013    13 Jun 2022 16:54:59.204      494.19048107    
13 Jun 2022 18:25:28.870    13 Jun 2022 18:32:07.477      398.60628851    
13 Jun 2022 21:45:49.794    13 Jun 2022 21:48:08.564      138.77045122    
13 Jun 2022 23:21:58.322    13 Jun 2022 23:29:23.843      445.52103323    
14 Jun 2022 00:59:30.448    14 Jun 2022 01:07:15.820      465.37176134    
14 Jun 2022 16:09:45.766    14 Jun 2022 16:17:46.704      480.93813801    
14 Jun 2022 17:47:59.968    14 Jun 2022 17:55:07.955      427.98721727    
14 Jun 2022 19:29:42.405    14 Jun 2022 19:30:59.744      77.338067489    
14 Jun 2022 21:09:23.410    14 Jun 2022 21:09:53.279      29.868796072    
14 Jun 2022 22:44:57.827    14 Jun 2022 22:51:57.305      419.47778030    
15 Jun 2022 00:22:15.207    15 Jun 2022 00:30:20.265      485.05812704    
15 Jun 2022 15:32:51.488    15 Jun 2022 15:40:29.863      458.37475802    
15 Jun 2022 17:10:33.909    15 Jun 2022 17:18:06.567      452.65801612    
15 Jun 2022 18:51:40.049    15 Jun 2022 18:54:19.513      159.46383186    
15 Jun 2022 22:07:57.800    15 Jun 2022 22:14:26.517      388.71728280    
15 Jun 2022 23:45:02.647    15 Jun 2022 23:53:18.590      495.94259388    
16 Jun 2022 14:56:03.317    16 Jun 2022 15:03:07.463      424.14558087    
16 Jun 2022 16:33:10.804    16 Jun 2022 16:41:03.221      472.41749957    
16 Jun 2022 18:13:49.048    16 Jun 2022 18:17:28.074      219.02555240    
16 Jun 2022 21:30:58.231    16 Jun 2022 21:36:51.533      353.30251122    
16 Jun 2022 23:07:52.089    16 Jun 2022 23:16:11.390      499.30058147    
17 Jun 2022 00:47:44.247    17 Jun 2022 00:50:39.254      175.00770878    
17 Jun 2022 14:19:23.312    17 Jun 2022 14:25:37.362      374.04994823    
17 Jun 2022 15:55:50.789    17 Jun 2022 16:03:57.775      486.98597944    
17 Jun 2022 17:36:02.628    17 Jun 2022 17:40:32.449      269.82096909    
17 Jun 2022 20:53:59.200    17 Jun 2022 20:59:12.354      313.15465673    
17 Jun 2022 22:30:43.060    17 Jun 2022 22:38:59.063      496.00235297    
18 Jun 2022 00:09:36.418    18 Jun 2022 00:14:39.716      303.29767250    
18 Jun 2022 13:42:56.022    18 Jun 2022 13:47:54.934      298.91220890    
18 Jun 2022 15:18:34.036    18 Jun 2022 15:26:50.029      495.99277057    
18 Jun 2022 16:58:19.468    18 Jun 2022 17:03:34.171      314.70364061    
18 Jun 2022 20:17:00.946    18 Jun 2022 20:21:28.862      267.91566453    
18 Jun 2022 21:53:35.217    18 Jun 2022 22:01:41.885      486.66797359    
18 Jun 2022 23:31:54.419    18 Jun 2022 23:38:11.316      376.89657582    
19 Jun 2022 13:06:58.081    19 Jun 2022 13:09:43.465      165.38433573    
19 Jun 2022 14:41:20.772    19 Jun 2022 14:49:39.718      498.94632809    
19 Jun 2022 16:20:39.186    19 Jun 2022 16:26:33.794      354.60770933    
19 Jun 2022 19:40:04.067    19 Jun 2022 19:43:40.623      216.55664417    
19 Jun 2022 21:16:28.308    19 Jun 2022 21:24:20.060      471.75258226    
19 Jun 2022 22:54:23.031    19 Jun 2022 23:01:29.189      426.15757993    
20 Jun 2022 14:04:11.302    20 Jun 2022 14:12:26.484      495.18116513    
20 Jun 2022 15:43:01.696    20 Jun 2022 15:49:31.537      389.84137899    
20 Jun 2022 19:03:10.238    20 Jun 2022 19:05:46.172      155.93474940    
20 Jun 2022 20:39:22.146    20 Jun 2022 20:46:53.742      451.59559103    
20 Jun 2022 22:16:57.849    20 Jun 2022 22:24:37.655      459.80580286    
21 Jun 2022 13:27:06.063    21 Jun 2022 13:35:09.829      483.76570044    
21 Jun 2022 15:05:27.024    21 Jun 2022 15:12:27.471      420.44703362    
21 Jun 2022 16:47:26.509    21 Jun 2022 16:48:04.859      38.350389828    
21 Jun 2022 18:26:27.747    21 Jun 2022 18:27:37.473      69.726365979    
21 Jun 2022 20:02:16.602    21 Jun 2022 20:09:23.049      426.44789218    
21 Jun 2022 21:39:36.810    21 Jun 2022 21:47:38.692      481.88197027    
22 Jun 2022 12:50:05.704    22 Jun 2022 12:57:49.037      463.33344919    
22 Jun 2022 14:27:55.251    22 Jun 2022 14:35:21.580      446.32881432    
22 Jun 2022 16:09:08.507    22 Jun 2022 16:11:30.199      141.69270076    
22 Jun 2022 19:25:11.598    22 Jun 2022 19:31:48.079      396.48169294    
22 Jun 2022 21:02:18.737    22 Jun 2022 21:10:33.398      494.66039812    
23 Jun 2022 12:13:11.261    23 Jun 2022 12:20:23.002      431.74137804    
23 Jun 2022 13:50:26.488    23 Jun 2022 13:58:13.787      467.29980799    
23 Jun 2022 15:31:10.658    23 Jun 2022 15:34:35.577      204.91990603    
23 Jun 2022 18:48:07.117    23 Jun 2022 18:54:08.897      361.78036015    
23 Jun 2022 20:25:02.879    23 Jun 2022 20:33:22.448      499.56866145    
23 Jun 2022 22:05:17.975    23 Jun 2022 22:07:23.709      125.73394950    
24 Jun 2022 11:36:24.560    24 Jun 2022 11:42:49.825      385.26487589    
24 Jun 2022 13:13:00.871    24 Jun 2022 13:21:03.965      483.09374453    
24 Jun 2022 14:53:18.257    24 Jun 2022 14:57:35.971      257.71410110    
24 Jun 2022 18:11:03.227    24 Jun 2022 18:16:25.522      322.29462991    
24 Jun 2022 19:47:48.722    24 Jun 2022 19:56:06.289      497.56703123    
24 Jun 2022 21:26:51.134    24 Jun 2022 21:31:34.161      283.02742752    
25 Jun 2022 10:59:49.435    25 Jun 2022 11:05:05.601      316.16646806    
25 Jun 2022 12:35:38.572    25 Jun 2022 12:43:51.928      493.35590880    
25 Jun 2022 14:15:29.418    25 Jun 2022 14:20:33.500      304.08252605    
25 Jun 2022 17:34:00.140    25 Jun 2022 17:38:37.864      277.72385351    
25 Jun 2022 19:10:35.897    25 Jun 2022 19:18:45.230      489.33253776    
25 Jun 2022 20:49:00.808    25 Jun 2022 20:55:05.176      364.36772322    
26 Jun 2022 10:23:37.889    26 Jun 2022 10:26:58.253      200.36387217    
26 Jun 2022 11:58:19.810    26 Jun 2022 11:59:27.995      68.184889038    


Number of events : 342


Observer: Hawaii
Start Time (UTC)            Stop Time (UTC)               Duration (s)         
27 Apr 2022 19:55:52.670    27 Apr 2022 20:04:03.217      490.54705699    
28 Apr 2022 09:24:15.653    28 Apr 2022 09:31:16.598      420.94477722    
28 Apr 2022 11:02:01.622    28 Apr 2022 11:08:42.697      401.07443703    
28 Apr 2022 19:19:27.121    28 Apr 2022 19:27:28.873      481.75244126    
28 Apr 2022 20:59:40.041    28 Apr 2022 21:01:58.598      138.55711471    
29 Apr 2022 08:48:17.287    29 Apr 2022 08:54:20.353      363.06568970    
29 Apr 2022 10:25:08.034    29 Apr 2022 10:32:29.654      441.62003190    
29 Apr 2022 18:43:05.036    29 Apr 2022 18:50:47.460      462.42387041    
29 Apr 2022 20:21:54.263    29 Apr 2022 20:26:50.224      295.96083403    
30 Apr 2022 08:12:35.464    30 Apr 2022 08:17:06.632      271.16804203    
30 Apr 2022 09:48:21.048    30 Apr 2022 09:56:10.467      469.41893783    
30 Apr 2022 18:06:46.784    30 Apr 2022 18:13:58.439      431.65532690    
30 Apr 2022 19:44:45.126    30 Apr 2022 19:51:02.831      377.70496480    
01 May 2022 07:38:02.965    01 May 2022 07:38:42.499      39.534196083    
01 May 2022 09:11:39.754    01 May 2022 09:19:45.882      486.12779032    
01 May 2022 17:30:33.332    01 May 2022 17:37:00.661      387.32898755    
01 May 2022 19:07:49.342    01 May 2022 19:14:59.545      430.20293838    
02 May 2022 08:35:03.758    02 May 2022 08:43:16.126      492.36815830    
02 May 2022 16:54:26.951    02 May 2022 16:59:51.670      324.71868763    
02 May 2022 18:31:01.489    02 May 2022 18:38:45.633      464.14346321    
03 May 2022 07:58:33.033    03 May 2022 08:06:41.063      488.03016006    
03 May 2022 09:38:59.304    03 May 2022 09:42:03.648      184.34398446    
03 May 2022 16:18:34.173    03 May 2022 16:22:24.746      230.57276584    
03 May 2022 17:54:19.245    03 May 2022 18:02:23.249      484.00432473    
04 May 2022 07:22:07.913    04 May 2022 07:30:00.191      472.27808547    
04 May 2022 09:01:21.689    04 May 2022 09:06:19.457      297.76773839    
04 May 2022 17:17:41.421    04 May 2022 17:25:53.414      491.99366199    
05 May 2022 06:45:49.232    05 May 2022 06:53:12.514      443.28272279    
05 May 2022 08:24:05.856    05 May 2022 08:30:14.570      368.71354304    
05 May 2022 16:41:07.400    05 May 2022 16:49:16.565      489.16426362    
06 May 2022 06:09:38.717    06 May 2022 06:16:16.132      397.41481345    
06 May 2022 07:47:01.035    06 May 2022 07:53:59.574      418.53806219    
06 May 2022 16:04:36.954    06 May 2022 16:12:32.745      475.79063934    
06 May 2022 17:44:04.529    06 May 2022 17:47:50.907      226.37770430    
07 May 2022 05:33:40.294    07 May 2022 05:39:06.952      326.65822178    
07 May 2022 07:10:03.957    07 May 2022 07:17:37.550      453.59310490    
07 May 2022 15:28:10.207    07 May 2022 15:35:41.637      451.42980443    
07 May 2022 17:06:34.788    07 May 2022 17:12:12.826      338.03830803    
08 May 2022 04:58:06.835    08 May 2022 05:01:31.924      205.08880788    
08 May 2022 06:33:13.176    08 May 2022 06:41:09.751      476.57437735    
08 May 2022 14:51:47.746    08 May 2022 14:58:42.453      414.70763921    
08 May 2022 16:29:26.209    08 May 2022 16:36:11.220      405.01112358    
09 May 2022 05:56:28.011    09 May 2022 06:04:36.670      488.65879965    
09 May 2022 14:15:30.992    09 May 2022 14:21:33.564      362.57267789    
09 May 2022 15:52:28.073    09 May 2022 15:59:56.622      448.54825950    
10 May 2022 05:19:48.219    10 May 2022 05:27:58.355      490.13615315    
10 May 2022 07:01:43.096    10 May 2022 07:02:00.484      17.388367199    
10 May 2022 13:39:23.496    10 May 2022 13:44:11.207      287.71102305    
10 May 2022 15:15:36.738    10 May 2022 15:23:32.489      475.75120426    
11 May 2022 04:43:13.924    11 May 2022 04:51:14.494      480.56989292    
11 May 2022 06:23:02.894    11 May 2022 06:27:05.811      242.91669721    
11 May 2022 13:03:38.699    11 May 2022 13:06:21.725      163.02634209    
11 May 2022 14:38:50.471    11 May 2022 14:47:00.363      489.89194210    
12 May 2022 04:06:45.670    12 May 2022 04:14:24.354      458.68395721    
12 May 2022 05:45:31.244    12 May 2022 05:51:03.829      332.58487157    
12 May 2022 14:02:08.362    12 May 2022 14:10:20.957      492.59453664    
13 May 2022 03:30:24.660    13 May 2022 03:37:26.542      421.88213132    
13 May 2022 05:08:14.776    13 May 2022 05:14:47.709      392.93274569    
13 May 2022 13:25:29.976    13 May 2022 13:33:34.506      484.53062286    
13 May 2022 15:05:53.166    13 May 2022 15:07:51.655      118.48888375    
14 May 2022 02:54:13.476    14 May 2022 03:00:18.292      364.81580436    
14 May 2022 04:31:07.582    14 May 2022 04:38:23.152      435.57006628    
14 May 2022 12:48:55.243    14 May 2022 12:56:40.875      465.63171329    
14 May 2022 14:27:47.486    14 May 2022 14:32:38.348      290.86167013    
15 May 2022 02:18:18.838    15 May 2022 02:22:52.692      273.85433241    
15 May 2022 03:54:07.423    15 May 2022 04:01:52.191      464.76846894    
15 May 2022 12:12:24.495    15 May 2022 12:19:39.518      435.02307449    
15 May 2022 13:50:24.319    15 May 2022 13:56:40.225      375.90547496    
16 May 2022 01:43:28.250    16 May 2022 01:44:22.051      53.801083029    
16 May 2022 03:17:13.255    16 May 2022 03:25:15.667      482.41212135    
16 May 2022 11:35:58.682    16 May 2022 11:42:29.273      390.59152706    
16 May 2022 13:13:15.396    16 May 2022 13:20:25.362      429.96625282    
17 May 2022 02:40:24.621    17 May 2022 02:48:33.840      489.21898791    
17 May 2022 10:59:40.073    17 May 2022 11:05:07.651      327.57756180    
17 May 2022 12:36:14.799    17 May 2022 12:43:59.486      464.68747712    
18 May 2022 02:03:41.461    18 May 2022 02:11:46.569      485.10835434    
18 May 2022 03:44:10.507    18 May 2022 03:47:04.631      174.12476371    
18 May 2022 10:23:35.259    18 May 2022 10:27:27.845      232.58601150    
18 May 2022 11:59:20.048    18 May 2022 12:07:24.884      484.83603165    
19 May 2022 01:27:04.111    19 May 2022 01:34:53.332      469.22058281    
19 May 2022 03:06:17.793    19 May 2022 03:11:10.707      292.91342958    
19 May 2022 11:22:29.887    19 May 2022 11:30:42.622      492.73467776    
20 May 2022 00:50:33.439    20 May 2022 00:57:53.071      439.63174744    
20 May 2022 02:28:48.688    20 May 2022 02:34:54.326      365.63787324    
20 May 2022 10:45:43.671    20 May 2022 10:53:53.148      489.47759927    
21 May 2022 00:14:11.293    21 May 2022 00:20:43.760      392.46677494    
21 May 2022 01:51:31.091    21 May 2022 01:58:27.394      416.30398472    
21 May 2022 10:09:01.166    21 May 2022 10:16:56.500      475.33367830    
21 May 2022 11:48:24.322    21 May 2022 11:52:17.779      233.45796098    
21 May 2022 23:38:01.963    21 May 2022 23:43:20.925      318.96189238    
22 May 2022 01:14:21.506    22 May 2022 01:21:53.207      451.70173013    
22 May 2022 09:32:22.522    22 May 2022 09:39:52.326      449.80440557    
22 May 2022 11:10:43.225    22 May 2022 11:16:26.298      343.07270916    
22 May 2022 23:02:20.561    22 May 2022 23:05:29.279      188.71733537    
23 May 2022 00:37:18.424    23 May 2022 00:45:13.080      474.65636604    
23 May 2022 08:55:48.395    23 May 2022 09:02:39.770      411.37526660    
23 May 2022 10:33:22.804    23 May 2022 10:40:11.744      408.93926374    
24 May 2022 00:00:21.146    24 May 2022 00:08:27.521      486.37540924    
24 May 2022 08:19:20.383    24 May 2022 08:25:17.028      356.64451463    
24 May 2022 09:56:12.783    24 May 2022 10:03:44.214      451.43132888    
24 May 2022 23:23:29.447    24 May 2022 23:31:36.570      487.12371883    
25 May 2022 01:05:00.433    25 May 2022 01:05:59.022      58.588392357    
25 May 2022 07:43:02.607    25 May 2022 07:47:39.772      277.16497032    
25 May 2022 09:19:09.603    25 May 2022 09:27:07.087      477.48431194    
25 May 2022 22:46:43.494    25 May 2022 22:54:39.878      476.38436914    
26 May 2022 00:26:25.153    26 May 2022 00:30:34.867      249.71407346    
26 May 2022 07:07:12.894    26 May 2022 07:09:29.974      137.08061522    
26 May 2022 08:42:11.574    26 May 2022 08:50:21.872      490.29852559    
26 May 2022 22:10:03.921    26 May 2022 22:17:36.633      452.71274324    
26 May 2022 23:48:42.209    26 May 2022 23:54:19.727      337.51831173    
27 May 2022 08:05:17.821    27 May 2022 08:13:29.260      491.43885492    
27 May 2022 21:33:32.119    27 May 2022 21:40:25.271      413.15192382    
27 May 2022 23:11:14.156    27 May 2022 23:17:50.861      396.70524742    
28 May 2022 07:28:27.954    28 May 2022 07:36:29.456      481.50189287    
28 May 2022 09:08:29.833    28 May 2022 09:11:07.444      157.61049500    
28 May 2022 20:57:11.139    28 May 2022 21:03:02.565      351.42642064    
28 May 2022 22:33:55.407    28 May 2022 22:41:13.662      438.25481302    
29 May 2022 06:51:41.968    29 May 2022 06:59:22.269      460.30079364    
29 May 2022 08:30:23.597    29 May 2022 08:35:30.242      306.64491942    
29 May 2022 20:21:09.556    29 May 2022 20:25:19.768      250.21245482    
29 May 2022 21:56:43.822    29 May 2022 22:04:30.079      466.25717761    
30 May 2022 06:15:00.311    30 May 2022 06:22:07.056      426.74536152    
30 May 2022 07:52:51.053    30 May 2022 07:59:17.130      386.07672901    
30 May 2022 21:19:38.415    30 May 2022 21:27:40.907      482.49199638    
31 May 2022 05:38:24.167    31 May 2022 05:44:42.429      378.26261994    
31 May 2022 07:15:31.742    31 May 2022 07:22:48.389      436.64697593    
31 May 2022 20:42:38.784    31 May 2022 20:50:46.360      487.57610084    
01 Jun 2022 05:01:56.441    01 Jun 2022 05:07:05.276      308.83482154    
01 Jun 2022 06:38:20.491    01 Jun 2022 06:46:09.010      468.51874469    
01 Jun 2022 20:05:44.942    01 Jun 2022 20:13:46.236      481.29364271    
01 Jun 2022 21:45:55.452    01 Jun 2022 21:49:17.547      202.09465324    
02 Jun 2022 04:25:46.677    02 Jun 2022 04:29:05.846      199.16948585    
02 Jun 2022 06:01:15.052    02 Jun 2022 06:09:21.056      486.00344636    
02 Jun 2022 19:28:57.338    02 Jun 2022 19:36:39.905      462.56706800    
02 Jun 2022 21:07:56.948    02 Jun 2022 21:13:06.209      309.26097563    
03 Jun 2022 05:24:14.283    03 Jun 2022 05:32:25.482      491.19935523    
03 Jun 2022 18:52:17.044    03 Jun 2022 18:59:26.107      429.06301013    
03 Jun 2022 20:30:18.606    03 Jun 2022 20:36:36.090      377.48418704    
04 Jun 2022 04:47:17.621    04 Jun 2022 04:55:22.655      485.03444073    
04 Jun 2022 18:15:46.374    04 Jun 2022 18:22:02.347      375.97336838    
04 Jun 2022 19:52:51.164    04 Jun 2022 19:59:56.249      425.08510725    
05 Jun 2022 04:10:24.921    05 Jun 2022 04:18:12.518      467.59690958    
05 Jun 2022 05:49:28.142    05 Jun 2022 05:53:54.529      266.38738374    
05 Jun 2022 17:39:31.105    05 Jun 2022 17:44:22.662      291.55743996    
05 Jun 2022 19:15:31.631    05 Jun 2022 19:23:09.474      457.84292941    
06 Jun 2022 03:33:36.462    06 Jun 2022 03:40:54.584      438.12127830    
06 Jun 2022 05:11:42.558    06 Jun 2022 05:17:44.499      361.94169220    
06 Jun 2022 17:03:59.464    06 Jun 2022 17:05:58.634      119.16996252    
06 Jun 2022 18:38:18.682    06 Jun 2022 18:46:16.884      478.20242783    
07 Jun 2022 02:56:53.145    07 Jun 2022 03:03:27.736      394.59126333    
07 Jun 2022 04:34:14.109    07 Jun 2022 04:41:15.074      420.96475738    
07 Jun 2022 18:01:11.723    07 Jun 2022 18:09:18.866      487.14339441    
08 Jun 2022 02:20:17.165    08 Jun 2022 02:25:49.557      332.39170915    
08 Jun 2022 03:56:55.136    08 Jun 2022 04:04:33.718      458.58276710    
08 Jun 2022 17:24:10.625    08 Jun 2022 17:32:15.348      484.72286495    
08 Jun 2022 19:04:52.884    08 Jun 2022 19:07:19.633      146.74977043    
09 Jun 2022 01:43:54.854    09 Jun 2022 01:47:53.494      238.64023554    
09 Jun 2022 03:19:42.678    09 Jun 2022 03:27:43.193      480.51489863    
09 Jun 2022 16:47:15.680    09 Jun 2022 16:55:05.837      470.15640711    
09 Jun 2022 18:26:35.093    09 Jun 2022 18:31:16.480      281.38647792    
10 Jun 2022 02:42:35.284    10 Jun 2022 02:50:44.749      489.46520432    
10 Jun 2022 16:10:27.733    10 Jun 2022 16:17:49.290      441.55738482    
10 Jun 2022 17:48:46.482    10 Jun 2022 17:54:45.667      359.18557502    
11 Jun 2022 02:05:32.214    11 Jun 2022 02:13:38.917      486.70312101    
11 Jun 2022 15:33:48.617    11 Jun 2022 15:40:23.676      395.05948902    
11 Jun 2022 17:11:10.679    11 Jun 2022 17:18:03.352      412.67361880    
12 Jun 2022 01:28:33.192    12 Jun 2022 01:36:25.762      472.56987031    
12 Jun 2022 03:07:59.404    12 Jun 2022 03:11:41.013      221.60890253    
12 Jun 2022 14:57:22.623    12 Jun 2022 15:02:44.507      321.88404574    
12 Jun 2022 16:33:43.574    12 Jun 2022 16:41:13.429      449.85471176    
13 Jun 2022 00:51:38.360    13 Jun 2022 00:59:04.923      446.56285486    
13 Jun 2022 02:29:58.973    13 Jun 2022 02:35:36.174      337.20081446    
13 Jun 2022 14:21:24.809    13 Jun 2022 14:24:36.529      191.71994557    
13 Jun 2022 15:56:23.457    13 Jun 2022 16:04:17.391      473.93385374    
14 Jun 2022 00:14:48.415    14 Jun 2022 00:21:35.481      407.06563555    
14 Jun 2022 01:52:21.303    14 Jun 2022 01:59:06.380      405.07648734    
14 Jun 2022 15:19:09.546    14 Jun 2022 15:27:15.811      486.26431769    
14 Jun 2022 23:38:05.105    14 Jun 2022 23:43:55.462      350.35677465    
15 Jun 2022 01:14:54.744    15 Jun 2022 01:22:23.081      448.33766953    
15 Jun 2022 14:42:01.583    15 Jun 2022 14:50:08.738      487.15461348    
15 Jun 2022 16:23:26.460    15 Jun 2022 16:24:34.605      68.145018630    
15 Jun 2022 23:01:33.116    15 Jun 2022 23:05:59.952      266.83630004    
16 Jun 2022 00:37:35.447    16 Jun 2022 00:45:29.924      474.47735531    
16 Jun 2022 14:04:59.738    16 Jun 2022 14:12:55.799      476.06087368    
16 Jun 2022 15:44:37.396    16 Jun 2022 15:48:51.871      254.47515770    
16 Jun 2022 22:25:36.295    16 Jun 2022 22:27:24.878      108.58308447    
17 Jun 2022 00:00:21.620    17 Jun 2022 00:08:28.502      486.88246775    
17 Jun 2022 13:28:04.690    17 Jun 2022 13:35:36.117      451.42734392    
17 Jun 2022 15:06:38.392    17 Jun 2022 15:12:20.711      342.31830739    
17 Jun 2022 23:23:12.348    17 Jun 2022 23:31:19.523      487.17562021    
18 Jun 2022 12:51:17.957    18 Jun 2022 12:58:07.980      410.02313497    
18 Jun 2022 14:28:54.477    18 Jun 2022 14:35:35.887      401.41029758    
18 Jun 2022 22:46:07.237    18 Jun 2022 22:54:03.173      475.93607866    
19 Jun 2022 00:25:58.975    19 Jun 2022 00:28:49.678      170.70294782    
19 Jun 2022 12:14:42.954    19 Jun 2022 12:20:27.778      344.82362629    
19 Jun 2022 13:51:20.114    19 Jun 2022 13:58:42.725      442.61123867    
19 Jun 2022 22:09:06.323    19 Jun 2022 22:16:39.206      452.88260817    
19 Jun 2022 23:47:40.548    19 Jun 2022 23:52:53.309      312.76053702    
20 Jun 2022 11:38:29.897    20 Jun 2022 11:42:25.105      235.20796500    
20 Jun 2022 13:13:53.174    20 Jun 2022 13:21:43.142      469.96805978    
20 Jun 2022 21:32:10.155    20 Jun 2022 21:39:06.855      416.70059573    
20 Jun 2022 23:09:53.587    20 Jun 2022 23:16:23.371      389.78404175    
21 Jun 2022 12:36:32.690    21 Jun 2022 12:44:37.901      485.21093500    
21 Jun 2022 20:55:20.179    21 Jun 2022 21:01:24.456      364.27780248    
21 Jun 2022 22:32:19.642    21 Jun 2022 22:39:38.121      438.47882923    
22 Jun 2022 11:59:18.291    22 Jun 2022 12:07:27.171      488.88011615    
22 Jun 2022 20:18:40.119    22 Jun 2022 20:23:28.065      287.94605717    
