GMAT/Constellation/Contact/ContactLocator12.txt

Target: HSEYE12

Observer: Bahrain
Start Time (UTC)            Stop Time (UTC)               Duration (s)         
27 Apr 2022 22:25:35.075    27 Apr 2022 22:33:46.396      491.32118651    
28 Apr 2022 00:06:37.294    28 Apr 2022 00:08:54.595      137.30161143    
28 Apr 2022 06:40:55.511    28 Apr 2022 06:49:00.173      484.66159429    
28 Apr 2022 08:20:29.618    28 Apr 2022 08:23:54.365      204.74671433    
28 Apr 2022 21:47:49.127    28 Apr 2022 21:55:58.773      489.64532178    
28 Apr 2022 23:27:37.554    28 Apr 2022 23:32:00.936      263.38250509    
29 Apr 2022 06:03:14.481    29 Apr 2022 06:11:02.724      468.24307448    
29 Apr 2022 07:41:44.750    29 Apr 2022 07:47:14.023      329.27292609    
29 Apr 2022 21:10:08.969    29 Apr 2022 21:18:05.621      476.65134680    
29 Apr 2022 22:49:03.440    29 Apr 2022 22:54:43.031      339.59126431    
30 Apr 2022 05:25:36.384    30 Apr 2022 05:32:57.754      441.36994870    
30 Apr 2022 07:03:24.764    30 Apr 2022 07:10:05.495      400.73098750    
30 Apr 2022 20:32:35.453    30 Apr 2022 20:40:05.937      450.48374520    
30 Apr 2022 22:10:40.689    30 Apr 2022 22:17:15.063      394.37434858    
01 May 2022 04:48:01.676    01 May 2022 04:54:44.652      402.97616335    
01 May 2022 06:25:15.925    01 May 2022 06:32:42.357      446.43181617    
01 May 2022 19:55:10.271    01 May 2022 20:01:57.878      407.60738131    
01 May 2022 21:32:25.781    01 May 2022 21:39:40.445      434.66343333    
02 May 2022 04:10:31.522    02 May 2022 04:16:22.106      350.58420376    
02 May 2022 05:47:13.970    02 May 2022 05:55:08.713      474.74244107    
02 May 2022 19:17:57.112    02 May 2022 19:23:37.608      340.49592647    
02 May 2022 20:54:17.281    02 May 2022 21:02:00.484      463.20291341    
03 May 2022 03:33:08.865    03 May 2022 03:37:47.043      278.17802872    
03 May 2022 05:09:16.914    03 May 2022 05:17:26.387      489.47314408    
03 May 2022 18:41:07.172    03 May 2022 18:44:53.777      226.60512618    
03 May 2022 20:16:14.535    03 May 2022 20:24:15.693      481.15798600    
04 May 2022 02:56:04.443    04 May 2022 02:58:48.616      164.17336520    
04 May 2022 04:31:23.687    04 May 2022 04:39:36.279      492.59238165    
04 May 2022 19:38:17.309    04 May 2022 19:46:26.149      488.83937539    
04 May 2022 21:19:10.996    04 May 2022 21:21:39.624      148.62883041    
05 May 2022 03:53:33.714    05 May 2022 04:01:38.794      485.07967629    
05 May 2022 05:32:57.463    05 May 2022 05:36:43.951      226.48801255    
05 May 2022 19:00:25.695    05 May 2022 19:08:31.603      485.90754188    
05 May 2022 20:40:07.863    05 May 2022 20:44:36.757      268.89421139    
06 May 2022 03:15:46.762    06 May 2022 03:23:33.990      467.22716046    
06 May 2022 04:54:10.847    06 May 2022 04:59:52.320      341.47308748    
06 May 2022 18:22:40.129    06 May 2022 18:30:31.453      471.32354773    
06 May 2022 20:01:28.513    06 May 2022 20:07:11.699      343.18625964    
07 May 2022 02:38:02.922    07 May 2022 02:45:21.602      438.67952311    
07 May 2022 04:15:46.291    07 May 2022 04:22:35.452      409.16132173    
07 May 2022 17:45:01.556    07 May 2022 17:52:24.586      443.03006844    
07 May 2022 19:23:00.325    07 May 2022 19:29:36.971      396.64656299    
08 May 2022 02:00:22.716    08 May 2022 02:07:00.938      398.22161951    
08 May 2022 03:37:32.305    08 May 2022 03:45:04.666      452.36078377    
08 May 2022 17:07:31.877    08 May 2022 17:14:08.928      397.05131776    
08 May 2022 18:44:39.986    08 May 2022 18:51:55.752      435.76550345    
09 May 2022 01:22:47.469    09 May 2022 01:28:30.508      343.03922105    
09 May 2022 02:59:25.020    09 May 2022 03:07:23.651      478.63146581    
09 May 2022 16:30:15.404    09 May 2022 16:35:39.995      324.59062901    
09 May 2022 18:06:26.125    09 May 2022 18:14:09.260      463.13495776    
10 May 2022 00:45:20.642    10 May 2022 00:49:46.705      266.06329075    
10 May 2022 02:21:22.580    10 May 2022 02:29:34.077      491.49780306    
10 May 2022 15:53:26.890    10 May 2022 15:56:42.860      195.96922724    
10 May 2022 17:28:18.118    10 May 2022 17:36:17.950      479.83195970    
11 May 2022 00:08:16.691    11 May 2022 00:10:34.947      138.25556170    
11 May 2022 01:43:23.977    11 May 2022 01:51:36.760      492.78355505    
11 May 2022 16:50:15.759    11 May 2022 16:58:21.847      486.08765682    
11 May 2022 18:30:57.650    11 May 2022 18:33:42.892      165.24207703    
12 May 2022 01:05:28.675    12 May 2022 01:13:32.042      483.36694512    
12 May 2022 02:44:39.780    12 May 2022 02:48:51.055      251.27436033    
12 May 2022 16:12:19.175    12 May 2022 16:20:20.637      481.46226606    
12 May 2022 17:51:52.668    12 May 2022 17:56:30.305      277.63746354    
13 May 2022 00:27:36.478    13 May 2022 00:35:19.918      463.43985671    
13 May 2022 02:05:52.441    13 May 2022 02:11:47.866      355.42498387    
13 May 2022 15:34:28.867    13 May 2022 15:42:13.628      464.76021957    
13 May 2022 17:13:08.956    13 May 2022 17:18:58.102      349.14567964    
13 May 2022 23:49:47.536    13 May 2022 23:57:00.045      432.50964170    
14 May 2022 01:27:24.168    14 May 2022 01:34:22.424      418.25615867    
14 May 2022 14:56:45.914    14 May 2022 15:03:59.549      433.63479559    
14 May 2022 16:34:35.968    14 May 2022 16:41:16.698      400.73032302    
14 May 2022 23:12:02.483    14 May 2022 23:18:31.597      389.11444010    
15 May 2022 00:49:05.677    15 May 2022 00:56:43.819      458.14124490    
15 May 2022 14:19:12.533    15 May 2022 14:25:35.993      383.46006962    
15 May 2022 15:56:10.696    15 May 2022 16:03:28.942      438.24587655    
15 May 2022 22:34:22.924    15 May 2022 22:39:52.788      329.86416144    
16 May 2022 00:10:53.555    16 May 2022 00:18:55.262      481.70656983    
16 May 2022 13:41:54.035    16 May 2022 13:46:57.453      303.41838982    
16 May 2022 15:17:51.872    16 May 2022 15:25:35.930      464.05825509    
16 May 2022 21:56:53.297    16 May 2022 22:00:59.020      245.72302691    
16 May 2022 23:32:46.115    16 May 2022 23:40:58.237      492.12233227    
17 May 2022 13:05:12.823    17 May 2022 13:07:41.336      148.51309854    
17 May 2022 14:39:38.926    17 May 2022 14:47:38.041      479.11503729    
17 May 2022 21:19:58.966    17 May 2022 21:21:24.798      85.831610172    
17 May 2022 22:54:42.435    17 May 2022 23:02:53.459      491.02409970    
18 May 2022 00:35:43.267    18 May 2022 00:36:11.685      28.418164293    
18 May 2022 14:01:31.702    18 May 2022 14:09:35.236      483.53427473    
18 May 2022 15:41:58.947    18 May 2022 15:45:05.822      186.87543635    
18 May 2022 22:16:42.042    18 May 2022 22:24:41.195      479.15299034    
18 May 2022 23:55:39.098    19 May 2022 00:00:16.008      276.91022039    
19 May 2022 13:23:30.392    19 May 2022 13:31:27.129      476.73762770    
19 May 2022 15:02:52.797    19 May 2022 15:07:42.909      290.11193634    
19 May 2022 21:38:44.807    19 May 2022 21:46:21.367      456.56017447    
19 May 2022 23:16:51.058    19 May 2022 23:23:01.118      370.05964631    
20 May 2022 12:45:35.602    20 May 2022 12:53:12.916      457.31435370    
20 May 2022 14:24:05.123    20 May 2022 14:30:03.139      358.01603110    
20 May 2022 21:00:50.977    20 May 2022 21:07:53.530      422.55276268    
20 May 2022 22:38:19.306    20 May 2022 22:45:26.658      427.35202879    
21 May 2022 12:07:48.612    21 May 2022 12:14:51.125      422.51275994    
21 May 2022 13:45:27.574    21 May 2022 13:52:14.726      407.15220122    
21 May 2022 20:23:01.378    21 May 2022 20:29:16.669      375.29163833    
21 May 2022 21:59:56.476    21 May 2022 22:07:39.798      463.32175769    
22 May 2022 11:30:12.117    22 May 2022 11:36:18.868      366.75164807    
22 May 2022 13:06:57.535    22 May 2022 13:14:20.124      442.58919846    
22 May 2022 19:45:18.091    22 May 2022 19:50:28.531      310.44005323    
22 May 2022 21:21:39.629    22 May 2022 21:29:43.280      483.65102626    
23 May 2022 10:52:53.097    23 May 2022 10:57:28.981      275.88378667    
23 May 2022 12:28:33.883    23 May 2022 12:36:20.284      466.40074955    
23 May 2022 19:07:47.446    23 May 2022 19:11:22.640      215.19369171    
23 May 2022 20:43:27.273    23 May 2022 20:51:38.398      491.12491010    
24 May 2022 10:16:42.810    24 May 2022 10:17:30.023      47.212972201    
24 May 2022 11:50:16.140    24 May 2022 11:58:15.505      479.36458269    
24 May 2022 20:05:18.600    24 May 2022 20:13:25.762      487.16203964    
24 May 2022 21:45:23.099    24 May 2022 21:47:42.277      139.17796353    
25 May 2022 11:12:04.227    25 May 2022 11:20:05.677      481.45010497    
25 May 2022 12:52:14.295    25 May 2022 12:55:47.533      213.23836888    
25 May 2022 19:27:13.226    25 May 2022 19:35:05.561      472.33530264    
25 May 2022 21:05:55.231    25 May 2022 21:10:57.778      302.54694640    
26 May 2022 10:33:58.434    26 May 2022 10:41:50.330      471.89573081    
26 May 2022 12:13:07.303    26 May 2022 12:18:13.938      306.63423470    
26 May 2022 18:49:11.120    26 May 2022 18:56:37.632      446.51139417    
26 May 2022 20:27:06.299    26 May 2022 20:33:31.219      384.91937510    
27 May 2022 09:55:59.518    27 May 2022 10:03:28.519      449.00045511    
27 May 2022 11:34:16.085    27 May 2022 11:40:26.218      370.13372619    
27 May 2022 18:11:12.678    27 May 2022 18:18:01.395      408.71711554    
27 May 2022 19:48:31.252    27 May 2022 19:55:47.469      436.21662345    
28 May 2022 09:18:09.050    28 May 2022 09:24:58.495      409.44464944    
28 May 2022 10:55:34.347    28 May 2022 11:02:30.537      416.18997847    
28 May 2022 17:33:19.016    28 May 2022 17:39:15.562      356.54589065    
28 May 2022 19:10:04.315    28 May 2022 19:17:52.116      467.80128259    
29 May 2022 08:40:30.452    29 May 2022 08:46:16.658      346.20622447    
29 May 2022 10:16:59.918    29 May 2022 10:24:28.913      448.99508965    
29 May 2022 16:55:33.017    29 May 2022 17:00:17.094      284.07674509    
29 May 2022 18:31:43.005    29 May 2022 18:39:47.459      484.45390173    
30 May 2022 08:03:13.700    30 May 2022 08:07:12.857      239.15753402    
30 May 2022 09:38:31.854    30 May 2022 09:46:22.129      470.27513101    
30 May 2022 16:18:05.119    30 May 2022 16:20:55.425      170.30641381    
30 May 2022 17:53:26.033    30 May 2022 18:01:34.596      488.56306585    
31 May 2022 09:00:09.782    31 May 2022 09:08:10.380      480.59829595    
31 May 2022 10:41:31.387    31 May 2022 10:42:54.490      83.103367640    
31 May 2022 17:15:12.714    31 May 2022 17:23:14.023      481.30899605    
31 May 2022 18:54:45.554    31 May 2022 18:58:04.812      199.25762502    
01 Jun 2022 08:21:53.724    01 Jun 2022 08:29:53.470      479.74581616    
01 Jun 2022 10:01:44.601    01 Jun 2022 10:05:47.944      243.34356511    
01 Jun 2022 16:37:02.767    01 Jun 2022 16:44:45.833      463.06551191    
01 Jun 2022 18:15:29.049    01 Jun 2022 18:20:56.857      327.80737096    
02 Jun 2022 07:43:44.090    02 Jun 2022 07:51:30.808      466.71770148    
02 Jun 2022 09:22:37.123    02 Jun 2022 09:28:03.951      326.82749138    
02 Jun 2022 15:58:56.284    02 Jun 2022 16:06:09.747      433.46250630    
02 Jun 2022 17:36:39.288    02 Jun 2022 17:43:19.076      399.78790144    
03 Jun 2022 07:05:41.836    03 Jun 2022 07:13:01.257      439.42072842    
03 Jun 2022 08:43:43.058    03 Jun 2022 08:50:08.300      385.24277847    
03 Jun 2022 15:20:53.856    03 Jun 2022 15:27:24.992      391.13655025    
03 Jun 2022 16:58:01.378    03 Jun 2022 17:05:26.179      444.80055930    
04 Jun 2022 06:27:48.938    04 Jun 2022 06:34:22.660      393.72236434    
04 Jun 2022 08:04:57.836    04 Jun 2022 08:12:05.423      427.58673413    
04 Jun 2022 14:42:57.033    04 Jun 2022 14:48:29.848      332.81482877    
04 Jun 2022 16:19:30.827    04 Jun 2022 16:27:22.470      471.64359887    
05 Jun 2022 05:50:09.960    05 Jun 2022 05:55:30.274      320.31409097    
05 Jun 2022 07:26:19.727    05 Jun 2022 07:33:56.894      457.16682037    
05 Jun 2022 14:05:10.108    05 Jun 2022 14:09:19.871      249.76308527    
05 Jun 2022 15:41:05.565    05 Jun 2022 15:49:09.828      484.26293767    
06 Jun 2022 05:13:01.220    06 Jun 2022 05:16:07.599      186.37911631    
06 Jun 2022 06:47:47.970    06 Jun 2022 06:55:43.297      475.32722403    
06 Jun 2022 13:27:56.233    06 Jun 2022 13:29:31.783      95.549999422    
06 Jun 2022 15:02:44.499    06 Jun 2022 15:10:49.149      484.64910913    
07 Jun 2022 06:09:22.312    07 Jun 2022 06:17:24.702      482.39039263    
07 Jun 2022 07:50:04.386    07 Jun 2022 07:52:40.928      156.54207267    
07 Jun 2022 14:24:27.069    07 Jun 2022 14:32:20.793      473.72385878    
07 Jun 2022 16:03:33.502    07 Jun 2022 16:07:41.364      247.86154660    
08 Jun 2022 05:31:02.885    08 Jun 2022 05:39:00.789      477.90351952    
08 Jun 2022 07:10:33.125    08 Jun 2022 07:15:08.778      275.65303361    
08 Jun 2022 13:46:13.104    08 Jun 2022 13:53:44.730      451.62569673    
08 Jun 2022 15:24:23.305    08 Jun 2022 15:30:15.741      352.43636034    
09 Jun 2022 04:52:50.250    09 Jun 2022 05:00:30.804      460.55395404    
09 Jun 2022 06:31:25.401    09 Jun 2022 06:37:15.038      349.63664679    
09 Jun 2022 13:08:02.843    09 Jun 2022 13:15:00.521      417.67820811    
09 Jun 2022 14:45:32.809    09 Jun 2022 14:52:27.339      414.52966291    
10 Jun 2022 04:14:45.626    10 Jun 2022 04:21:53.331      427.70475206    
10 Jun 2022 05:52:29.144    10 Jun 2022 05:59:11.647      402.50290758    
10 Jun 2022 12:29:57.148    10 Jun 2022 12:36:07.113      369.96504626    
10 Jun 2022 14:06:52.426    10 Jun 2022 14:14:25.547      453.12086596    
11 Jun 2022 03:36:51.593    11 Jun 2022 03:43:05.599      374.00600861    
11 Jun 2022 05:13:41.111    11 Jun 2022 05:21:01.691      440.58074243    
11 Jun 2022 11:51:58.252    11 Jun 2022 11:57:02.088      303.83627411    
11 Jun 2022 13:28:18.675    11 Jun 2022 13:36:13.643      474.96780666    
12 Jun 2022 02:59:14.689    12 Jun 2022 03:04:00.871      286.18253795    
12 Jun 2022 04:34:59.967    12 Jun 2022 04:42:46.326      466.35929999    
12 Jun 2022 11:14:13.253    12 Jun 2022 11:17:38.193      204.94060535    
12 Jun 2022 12:49:49.855    12 Jun 2022 12:57:53.117      483.26257062    
13 Jun 2022 02:22:32.716    13 Jun 2022 02:24:01.152      88.436094951    
13 Jun 2022 03:56:25.142    13 Jun 2022 04:04:25.931      480.78978461    
13 Jun 2022 12:11:25.060    13 Jun 2022 12:19:24.664      479.60371776    
13 Jun 2022 13:51:41.391    13 Jun 2022 13:53:26.106      104.71503596    
14 Jun 2022 03:17:56.514    14 Jun 2022 03:26:00.430      483.91630909    
14 Jun 2022 04:58:07.504    14 Jun 2022 05:01:39.753      212.24852029    
14 Jun 2022 11:33:03.863    14 Jun 2022 11:40:48.498      464.63487513    
14 Jun 2022 13:11:46.615    14 Jun 2022 13:16:36.940      290.32496765    
15 Jun 2022 02:39:34.354    15 Jun 2022 02:47:29.350      474.99629046    
15 Jun 2022 04:18:42.814    15 Jun 2022 04:23:51.474      308.66006295    
15 Jun 2022 10:54:46.226    15 Jun 2022 11:02:04.441      438.21437432    
15 Jun 2022 12:32:40.153    15 Jun 2022 12:38:56.507      376.35354636    
16 Jun 2022 02:01:19.426    16 Jun 2022 02:08:51.725      452.29902340    
16 Jun 2022 03:39:34.757    16 Jun 2022 03:45:48.516      373.75935246    
16 Jun 2022 10:16:32.588    16 Jun 2022 10:23:11.850      399.26115446    
16 Jun 2022 11:53:48.758    16 Jun 2022 12:00:57.850      429.09247305    
17 Jun 2022 01:23:13.341    17 Jun 2022 01:30:05.743      412.40256565    
17 Jun 2022 03:00:36.637    17 Jun 2022 03:07:37.427      420.79015343    
17 Jun 2022 09:38:24.215    17 Jun 2022 09:44:09.260      345.04522600    
17 Jun 2022 11:15:05.990    17 Jun 2022 11:22:47.201      461.21055189    
18 Jun 2022 00:45:19.650    18 Jun 2022 00:51:07.651      348.00093316    
18 Jun 2022 02:21:46.183    18 Jun 2022 02:29:20.309      454.12620432    
18 Jun 2022 09:00:24.522    18 Jun 2022 09:04:53.079      268.55666419    
18 Jun 2022 10:36:29.171    18 Jun 2022 10:44:27.027      477.85537021    
19 Jun 2022 00:07:48.908    19 Jun 2022 00:11:46.700      237.79224332    
19 Jun 2022 01:43:02.413    19 Jun 2022 01:50:57.957      475.54385054    
19 Jun 2022 08:22:47.806    19 Jun 2022 08:25:08.856      141.05059312    
19 Jun 2022 09:57:56.933    19 Jun 2022 10:05:58.482      481.54827382    
20 Jun 2022 01:04:24.951    20 Jun 2022 01:12:30.557      485.60553028    
20 Jun 2022 02:45:28.883    20 Jun 2022 02:47:28.923      120.04037749    
20 Jun 2022 09:19:28.562    20 Jun 2022 09:27:22.067      473.50493300    
20 Jun 2022 10:58:55.305    20 Jun 2022 11:02:17.536      202.23134500    
21 Jun 2022 00:25:53.831    21 Jun 2022 00:33:57.874      484.04301675    
21 Jun 2022 02:05:36.432    21 Jun 2022 02:09:57.009      260.57685935    
21 Jun 2022 08:41:03.781    21 Jun 2022 08:48:37.849      454.06807247    
21 Jun 2022 10:19:24.581    21 Jun 2022 10:24:53.324      328.74316979    
21 Jun 2022 23:47:29.508    21 Jun 2022 23:55:19.257      469.74884545    
22 Jun 2022 01:26:15.059    22 Jun 2022 01:31:56.111      341.05184153    
22 Jun 2022 08:02:42.725    22 Jun 2022 08:09:45.481      422.75560589    
22 Jun 2022 09:40:20.213    22 Jun 2022 09:46:59.728      399.51523362    
22 Jun 2022 23:09:13.039    22 Jun 2022 23:16:33.452      440.41249123    
23 Jun 2022 00:47:06.505    23 Jun 2022 00:53:44.368      397.86234641    
23 Jun 2022 07:24:26.114    23 Jun 2022 07:30:44.047      377.93283396    
23 Jun 2022 09:01:27.689    23 Jun 2022 09:08:51.061      443.37181309    
23 Jun 2022 22:31:06.640    23 Jun 2022 22:37:38.049      391.40954716    
24 Jun 2022 00:08:06.768    24 Jun 2022 00:15:25.632      438.86381288    
24 Jun 2022 06:46:15.855    24 Jun 2022 06:51:31.455      315.59983715    
24 Jun 2022 08:22:42.577    24 Jun 2022 08:30:31.552      468.97554919    
24 Jun 2022 21:53:15.613    24 Jun 2022 21:58:27.557      311.94408570    
24 Jun 2022 23:29:14.280    24 Jun 2022 23:37:01.307      467.02723636    
25 Jun 2022 06:08:17.664    25 Jun 2022 06:12:01.831      224.16670021    
25 Jun 2022 07:44:02.836    25 Jun 2022 07:52:03.041      480.20541372    
25 Jun 2022 21:16:01.646    25 Jun 2022 21:18:40.100      158.45394465    
25 Jun 2022 22:50:28.363    25 Jun 2022 22:58:31.888      483.52484917    
26 Jun 2022 07:05:27.399    26 Jun 2022 07:13:26.389      478.98967807    


Number of events : 244


Observer: Cape_Town
Start Time (UTC)            Stop Time (UTC)               Duration (s)         
27 Apr 2022 12:18:57.051    27 Apr 2022 12:25:41.674      404.62315389    
27 Apr 2022 13:55:51.969    27 Apr 2022 14:03:39.823      467.85441673    
27 Apr 2022 15:36:25.582    27 Apr 2022 15:39:58.535      212.95308138    
27 Apr 2022 18:53:37.784    27 Apr 2022 18:59:07.472      329.68809527    
27 Apr 2022 20:30:22.875    27 Apr 2022 20:38:34.871      491.99583270    
27 Apr 2022 22:09:51.363    27 Apr 2022 22:13:24.534      213.17133954    
28 Apr 2022 11:41:44.776    28 Apr 2022 11:47:30.661      345.88444174    
28 Apr 2022 13:17:55.212    28 Apr 2022 13:25:57.439      482.22717843    
28 Apr 2022 14:57:59.608    28 Apr 2022 15:02:27.966      268.35778205    
28 Apr 2022 18:16:03.867    28 Apr 2022 18:20:47.442      283.57549208    
28 Apr 2022 19:52:37.761    28 Apr 2022 20:00:43.495      485.73461138    
28 Apr 2022 21:31:15.153    28 Apr 2022 21:36:39.001      323.84773957    
29 Apr 2022 11:04:49.811    29 Apr 2022 11:09:02.290      252.47864871    
29 Apr 2022 12:40:01.881    29 Apr 2022 12:48:12.217      490.33597887    
29 Apr 2022 14:19:37.531    29 Apr 2022 14:24:53.778      316.24704906    
29 Apr 2022 17:38:31.369    29 Apr 2022 17:42:21.789      230.42080655    
29 Apr 2022 19:14:53.665    29 Apr 2022 19:22:46.690      473.02480334    
29 Apr 2022 20:52:59.200    29 Apr 2022 20:59:29.475      390.27537791    
30 Apr 2022 12:02:12.267    30 Apr 2022 12:10:23.832      491.56507569    
30 Apr 2022 13:41:18.685    30 Apr 2022 13:47:16.825      358.13972033    
30 Apr 2022 17:01:02.163    30 Apr 2022 17:03:48.853      166.69025961    
30 Apr 2022 18:37:10.344    30 Apr 2022 18:44:44.658      454.31416944    
30 Apr 2022 20:14:52.515    30 Apr 2022 20:22:06.863      434.34869580    
01 May 2022 11:24:26.775    01 May 2022 11:32:31.827      485.05193868    
01 May 2022 13:03:02.885    01 May 2022 13:09:37.445      394.56063146    
01 May 2022 16:23:45.540    01 May 2022 16:24:59.605      74.064334680    
01 May 2022 17:59:27.632    01 May 2022 18:06:37.550      429.91803089    
01 May 2022 19:36:51.372    01 May 2022 19:44:34.803      463.43015267    
02 May 2022 10:46:46.004    02 May 2022 10:54:35.546      469.54243470    
02 May 2022 12:24:50.117    02 May 2022 12:31:55.752      425.63498074    
02 May 2022 14:06:42.953    02 May 2022 14:07:26.029      43.076040305    
02 May 2022 17:21:45.431    02 May 2022 17:28:25.469      400.03790071    
02 May 2022 18:58:53.933    02 May 2022 19:06:55.048      481.11544009    
03 May 2022 10:09:10.884    03 May 2022 10:16:33.989      443.10485241    
03 May 2022 11:46:40.455    03 May 2022 11:54:11.740      451.28433838    
03 May 2022 13:27:42.675    03 May 2022 13:30:16.499      153.82360647    
03 May 2022 16:44:03.724    03 May 2022 16:50:08.475      364.75104190    
03 May 2022 18:20:59.114    03 May 2022 18:29:08.597      489.48257121    
04 May 2022 09:31:43.004    04 May 2022 09:38:25.491      402.48653018    
04 May 2022 11:08:34.020    04 May 2022 11:16:25.316      471.29611848    
04 May 2022 12:49:04.303    04 May 2022 12:52:45.033      220.72997543    
04 May 2022 16:06:22.599    04 May 2022 16:11:46.552      323.95302812    
04 May 2022 17:43:06.214    04 May 2022 17:51:16.068      489.85388879    
04 May 2022 19:22:28.769    04 May 2022 19:26:12.060      223.29146513    
05 May 2022 08:54:25.507    05 May 2022 09:00:06.830      341.32240056    
05 May 2022 10:30:30.975    05 May 2022 10:38:36.314      485.33945032    
05 May 2022 12:10:31.984    05 May 2022 12:15:07.771      275.78669249    
05 May 2022 15:28:42.341    05 May 2022 15:33:19.535      277.19336925    
05 May 2022 17:05:14.749    05 May 2022 17:13:17.873      483.12342149    
05 May 2022 18:43:48.312    05 May 2022 18:49:17.802      329.48961547    
06 May 2022 08:17:26.837    06 May 2022 08:21:29.480      242.64277965    
06 May 2022 09:52:31.539    06 May 2022 10:00:44.489      492.94937749    
06 May 2022 11:32:03.611    06 May 2022 11:37:27.049      323.43774852    
06 May 2022 14:51:03.673    06 May 2022 14:54:46.862      223.18948733    
06 May 2022 16:27:24.372    06 May 2022 16:35:14.291      469.91914697    
06 May 2022 18:05:26.892    06 May 2022 18:12:00.894      394.00191171    
07 May 2022 09:14:36.011    07 May 2022 09:22:49.493      493.48190264    
07 May 2022 10:53:38.583    07 May 2022 10:59:43.654      365.07049362    
07 May 2022 14:13:28.698    07 May 2022 14:16:06.639      157.94177590    
07 May 2022 15:49:34.833    07 May 2022 15:57:05.523      450.69024899    
07 May 2022 17:27:14.470    07 May 2022 17:34:31.273      436.80318422    
08 May 2022 08:36:44.811    08 May 2022 08:44:50.840      486.02852134    
08 May 2022 10:15:16.727    08 May 2022 10:21:57.887      401.15968507    
08 May 2022 13:36:09.838    08 May 2022 13:37:06.704      56.866353820    
08 May 2022 15:11:45.957    08 May 2022 15:18:51.711      425.75372192    
08 May 2022 16:49:07.502    08 May 2022 16:56:52.380      464.87781506    
09 May 2022 07:58:58.566    09 May 2022 08:06:47.823      469.25707050    
09 May 2022 09:36:58.037    09 May 2022 09:44:09.841      431.80429763    
09 May 2022 11:18:35.672    09 May 2022 11:19:52.714      77.041451214    
09 May 2022 14:33:57.639    09 May 2022 14:40:32.952      395.31252652    
09 May 2022 16:11:04.204    09 May 2022 16:19:05.892      481.68750467    
10 May 2022 07:21:18.267    10 May 2022 07:28:39.359      441.09245479    
10 May 2022 08:58:42.582    10 May 2022 09:06:19.489      456.90712931    
10 May 2022 10:39:38.509    10 May 2022 10:42:27.713      169.20415414    
10 May 2022 13:56:09.854    10 May 2022 14:02:09.298      359.44363758    
10 May 2022 15:33:03.515    10 May 2022 15:41:12.763      489.24847345    
11 May 2022 06:43:45.642    11 May 2022 06:50:23.623      397.98112846    
11 May 2022 08:20:30.480    11 May 2022 08:28:26.717      476.23744748    
11 May 2022 10:00:55.396    11 May 2022 10:04:48.774      233.37786969    
11 May 2022 13:18:22.686    11 May 2022 13:23:40.722      318.03626718    
11 May 2022 14:55:04.737    11 May 2022 15:03:13.587      488.84982626    
11 May 2022 16:34:18.264    11 May 2022 16:38:19.953      241.68951177    
12 May 2022 06:06:24.222    12 May 2022 06:11:56.981      332.75940417    
12 May 2022 07:42:21.895    12 May 2022 07:50:31.337      489.44250781    
12 May 2022 09:22:17.698    12 May 2022 09:27:04.795      287.09754192    
12 May 2022 12:40:36.426    12 May 2022 12:45:07.040      270.61386737    
12 May 2022 14:17:07.386    12 May 2022 14:25:08.752      481.36596114    
12 May 2022 15:55:35.430    12 May 2022 16:01:15.773      340.34294720    
13 May 2022 05:29:24.226    13 May 2022 05:33:09.108      224.88250646    
13 May 2022 07:04:17.048    13 May 2022 07:12:33.076      496.02731637    
13 May 2022 08:43:43.807    13 May 2022 08:49:17.596      333.78894998    
13 May 2022 12:02:51.840    13 May 2022 12:06:27.636      215.79599935    
13 May 2022 13:39:11.110    13 May 2022 13:46:58.523      467.41279489    
13 May 2022 15:17:09.508    13 May 2022 15:23:51.050      401.54157485    
14 May 2022 06:26:16.249    14 May 2022 06:34:31.552      495.30334468    
14 May 2022 08:05:13.247    14 May 2022 08:11:27.812      374.56481669    
14 May 2022 11:25:11.266    14 May 2022 11:27:40.375      149.10832860    
14 May 2022 13:01:15.655    14 May 2022 13:08:43.087      447.43223414    
14 May 2022 14:38:51.982    14 May 2022 14:46:14.180      442.19821380    
15 May 2022 05:48:19.942    15 May 2022 05:56:26.234      486.29191951    
15 May 2022 07:26:45.892    15 May 2022 07:33:35.682      409.79002859    
15 May 2022 10:47:52.555    15 May 2022 10:48:27.662      35.107532493    
15 May 2022 12:23:20.838    15 May 2022 12:30:22.576      421.73729927    
15 May 2022 14:00:39.627    15 May 2022 14:08:28.261      468.63409937    
16 May 2022 05:10:28.804    16 May 2022 05:18:16.346      467.54244083    
16 May 2022 06:48:21.751    16 May 2022 06:55:41.257      439.50658279    
16 May 2022 08:29:45.706    16 May 2022 08:31:34.490      108.78387736    
16 May 2022 11:45:26.553    16 May 2022 11:51:57.082      390.52897207    
16 May 2022 13:22:30.773    16 May 2022 13:30:34.839      484.06646167    
17 May 2022 04:32:43.928    17 May 2022 04:40:00.687      436.75964096    
17 May 2022 06:10:00.905    17 May 2022 06:17:44.484      463.57941163    
17 May 2022 07:50:48.834    17 May 2022 07:53:57.088      188.25401561    
17 May 2022 11:07:32.769    17 May 2022 11:13:26.651      353.88199158    
17 May 2022 12:44:24.409    17 May 2022 12:52:34.805      490.39623396    
17 May 2022 14:25:09.047    17 May 2022 14:25:57.582      48.535734904    
18 May 2022 03:55:07.273    18 May 2022 04:01:37.187      389.91396994    
18 May 2022 05:31:43.481    18 May 2022 05:39:45.226      481.74517981    
18 May 2022 07:12:01.392    18 May 2022 07:16:10.409      249.01720129    
18 May 2022 10:29:39.577    18 May 2022 10:34:51.255      311.67739030    
18 May 2022 12:06:19.865    18 May 2022 12:14:28.714      488.84978006    
18 May 2022 13:45:22.216    18 May 2022 13:49:48.479      266.26299861    
19 May 2022 03:17:43.039    19 May 2022 03:23:01.537      318.49808857    
19 May 2022 04:53:29.655    19 May 2022 05:01:43.271      493.61579946    
19 May 2022 06:33:18.640    19 May 2022 06:38:19.450      300.80971923    
19 May 2022 09:51:47.286    19 May 2022 09:56:10.693      263.40708565    
19 May 2022 11:28:16.670    19 May 2022 11:36:16.934      480.26427291    
19 May 2022 13:06:37.759    19 May 2022 13:12:33.391      355.63238411    
20 May 2022 02:40:45.028    20 May 2022 02:43:59.822      194.79362980    
20 May 2022 04:15:19.667    20 May 2022 04:23:38.318      498.65103888    
20 May 2022 05:54:39.479    20 May 2022 06:00:25.515      346.03512143    
20 May 2022 09:13:56.730    20 May 2022 09:17:24.298      207.56782751    
20 May 2022 10:50:14.485    20 May 2022 10:57:59.718      465.23249875    
20 May 2022 12:28:07.736    20 May 2022 12:35:00.134      412.39736897    
21 May 2022 03:37:13.857    21 May 2022 03:45:29.954      496.09758763    
21 May 2022 05:16:03.588    21 May 2022 05:22:29.081      385.49325394    
21 May 2022 08:36:10.577    21 May 2022 08:38:29.621      139.04441184    
21 May 2022 10:12:13.065    21 May 2022 10:19:37.247      444.18175137    
21 May 2022 11:49:45.308    21 May 2022 11:57:15.425      450.11699502    
22 May 2022 02:59:12.720    22 May 2022 03:07:17.596      484.87562137    
22 May 2022 04:37:30.904    22 May 2022 04:44:30.320      419.41555756    
22 May 2022 09:34:12.240    22 May 2022 09:41:09.655      417.41565359    
22 May 2022 11:11:27.663    22 May 2022 11:19:21.954      474.29134778    
23 May 2022 02:21:17.022    23 May 2022 02:29:00.384      463.36203452    
23 May 2022 03:59:01.476    23 May 2022 04:06:29.249      447.77231760    
23 May 2022 05:40:12.843    23 May 2022 05:42:30.853      138.00939369    
23 May 2022 08:56:11.911    23 May 2022 09:02:37.039      385.12810335    
23 May 2022 10:33:13.293    23 May 2022 10:41:21.113      487.82008714    
24 May 2022 01:43:28.024    24 May 2022 01:50:36.956      428.93196264    
24 May 2022 03:20:35.411    24 May 2022 03:28:25.791      470.37993707    
24 May 2022 05:01:14.246    24 May 2022 05:04:42.916      208.66995987    
24 May 2022 08:18:12.068    24 May 2022 08:23:59.452      347.38468537    
24 May 2022 09:55:01.269    24 May 2022 10:03:13.720      492.45055105    
24 May 2022 11:35:00.379    24 May 2022 11:37:24.824      144.44555906    
25 May 2022 01:05:48.068    25 May 2022 01:12:04.875      376.80714133    
25 May 2022 02:42:12.859    25 May 2022 02:50:19.792      486.93280381    
25 May 2022 04:22:22.429    25 May 2022 04:26:48.447      266.01793827    
25 May 2022 07:40:12.823    25 May 2022 07:45:16.868      304.04510137    
25 May 2022 09:16:50.971    25 May 2022 09:25:00.295      489.32424879    
25 May 2022 10:55:40.856    25 May 2022 11:00:35.616      294.75934971    
26 May 2022 00:28:22.519    26 May 2022 00:33:18.671      296.15220136    
26 May 2022 02:03:54.024    26 May 2022 02:12:11.021      496.99638770    
26 May 2022 03:43:34.747    26 May 2022 03:48:50.363      315.61587414    
26 May 2022 07:02:14.535    26 May 2022 07:06:29.072      254.53763913    
26 May 2022 08:38:41.963    26 May 2022 08:46:41.190      479.22745496    
26 May 2022 10:16:54.959    26 May 2022 10:23:09.125      374.16536798    
26 May 2022 23:51:33.961    26 May 2022 23:53:55.666      141.70509288    
27 May 2022 01:25:39.183    27 May 2022 01:33:59.153      499.97001401    
27 May 2022 03:04:50.508    27 May 2022 03:10:49.565      359.05722157    
27 May 2022 06:24:18.167    27 May 2022 06:27:35.301      197.13367318    
27 May 2022 08:00:33.930    27 May 2022 08:08:16.651      462.72084941    
27 May 2022 09:38:21.132    27 May 2022 09:45:26.797      425.66450714    
28 May 2022 00:47:28.723    28 May 2022 00:55:43.735      495.01225355    
28 May 2022 02:26:09.535    28 May 2022 02:32:46.397      396.86226131    
28 May 2022 05:46:27.009    28 May 2022 05:48:32.524      125.51504761    
28 May 2022 07:22:26.651    28 May 2022 07:29:46.861      440.21064317    
28 May 2022 08:59:54.073    28 May 2022 09:07:33.826      459.75320747    
29 May 2022 00:09:23.216    29 May 2022 00:17:24.119      480.90272405    
29 May 2022 01:47:31.832    29 May 2022 01:54:40.967      429.13476813    
29 May 2022 03:29:12.463    29 May 2022 03:30:24.534      72.071312147    
29 May 2022 06:44:19.973    29 May 2022 06:51:11.959      411.98522514    
29 May 2022 08:21:31.407    29 May 2022 08:29:32.480      481.07265435    
29 May 2022 23:31:23.556    29 May 2022 23:38:59.328      455.77165594    
30 May 2022 01:08:57.488    30 May 2022 01:16:33.261      455.77237762    
30 May 2022 02:49:57.003    30 May 2022 02:52:41.511      164.50726533    
30 May 2022 06:06:13.822    30 May 2022 06:12:32.046      378.22387669    
30 May 2022 07:43:11.809    30 May 2022 07:51:23.980      492.17065856    
30 May 2022 22:53:31.256    30 May 2022 23:00:27.758      416.50226429    
31 May 2022 00:30:26.636    31 May 2022 00:38:23.175      476.53915136    
31 May 2022 02:10:55.631    31 May 2022 02:14:44.554      228.92365584    
31 May 2022 05:28:08.209    31 May 2022 05:33:47.179      338.96961836    
31 May 2022 07:04:54.445    31 May 2022 07:13:09.064      494.61901803    
31 May 2022 08:44:25.295    31 May 2022 08:47:52.068      206.77245929    
31 May 2022 22:15:49.260    31 May 2022 22:21:46.376      357.11588919    
31 May 2022 23:51:59.454    01 Jun 2022 00:00:10.534      491.08074952    
01 Jun 2022 01:31:59.588    01 Jun 2022 01:36:42.742      283.15388120    
01 Jun 2022 04:50:03.290    01 Jun 2022 04:54:57.322      294.03184064    
01 Jun 2022 06:26:38.751    01 Jun 2022 06:34:48.211      489.46031914    
01 Jun 2022 08:05:15.632    01 Jun 2022 08:10:40.501      324.86913378    
01 Jun 2022 21:38:25.108    01 Jun 2022 21:42:47.546      262.43766103    
01 Jun 2022 23:13:36.172    01 Jun 2022 23:21:55.078      498.90593465    
02 Jun 2022 00:53:07.356    02 Jun 2022 00:58:37.856      330.49956931    
02 Jun 2022 04:11:59.504    02 Jun 2022 04:16:02.206      242.70163947    
02 Jun 2022 05:48:24.327    02 Jun 2022 05:56:21.747      477.42023816    
02 Jun 2022 07:26:28.471    02 Jun 2022 07:33:02.824      394.35254663    
02 Jun 2022 22:35:17.106    02 Jun 2022 22:43:36.443      499.33687930    
03 Jun 2022 00:14:18.529    03 Jun 2022 00:20:30.513      371.98378688    
03 Jun 2022 03:33:58.067    03 Jun 2022 03:37:00.849      182.78143227    
03 Jun 2022 05:10:10.886    03 Jun 2022 05:17:49.906      459.01969518    
03 Jun 2022 06:47:51.344    03 Jun 2022 06:55:11.401      440.05760041    
03 Jun 2022 21:57:02.700    03 Jun 2022 22:05:14.116      491.41550524    
03 Jun 2022 23:35:33.032    03 Jun 2022 23:42:20.941      407.90904590    
04 Jun 2022 02:56:03.671    04 Jun 2022 02:57:48.847      105.17568901    
04 Jun 2022 04:31:58.226    04 Jun 2022 04:39:12.862      434.63632751    
04 Jun 2022 06:09:20.202    04 Jun 2022 06:17:10.173      469.97107506    
04 Jun 2022 21:18:53.621    04 Jun 2022 21:26:47.349      473.72865218    
04 Jun 2022 22:56:50.917    04 Jun 2022 23:04:09.189      438.27295628    
05 Jun 2022 00:38:13.377    05 Jun 2022 00:40:05.203      111.82602667    
05 Jun 2022 03:53:46.214    05 Jun 2022 04:00:30.748      404.53396740    
05 Jun 2022 05:30:53.075    05 Jun 2022 05:39:01.003      487.92806219    
05 Jun 2022 20:40:50.934    05 Jun 2022 20:48:14.987      444.05380622    
05 Jun 2022 22:18:12.295    05 Jun 2022 22:25:55.203      462.90803407    
05 Jun 2022 23:59:00.369    06 Jun 2022 00:02:08.694      188.32517703    
06 Jun 2022 03:15:34.795    06 Jun 2022 03:21:43.658      368.86285135    
06 Jun 2022 04:52:28.813    06 Jun 2022 05:00:44.937      496.12352700    
06 Jun 2022 20:02:56.522    06 Jun 2022 20:09:35.049      398.52773112    
06 Jun 2022 21:39:37.319    06 Jun 2022 21:47:38.846      481.52619620    
06 Jun 2022 23:19:55.883    06 Jun 2022 23:24:04.078      248.19473448    
07 Jun 2022 02:37:24.013    07 Jun 2022 02:42:51.630      327.61696513    
07 Jun 2022 04:14:06.672    07 Jun 2022 04:22:22.618      495.94570723    
07 Jun 2022 05:53:14.549    07 Jun 2022 05:57:33.032      258.48272340    
07 Jun 2022 19:25:14.331    07 Jun 2022 19:30:43.486      329.15432666    
07 Jun 2022 21:01:06.184    07 Jun 2022 21:09:19.903      493.71870607    
07 Jun 2022 22:40:55.946    07 Jun 2022 22:45:55.625      299.67934918    
08 Jun 2022 01:59:14.083    08 Jun 2022 02:03:54.582      280.49858952    
08 Jun 2022 03:35:46.139    08 Jun 2022 03:43:54.469      488.33030176    
08 Jun 2022 05:14:10.042    08 Jun 2022 05:20:04.519      354.47679134    
08 Jun 2022 18:47:56.591    08 Jun 2022 18:51:27.964      211.37332449    
08 Jun 2022 20:22:39.146    08 Jun 2022 20:30:58.071      498.92518432    
08 Jun 2022 22:01:59.654    08 Jun 2022 22:07:44.482      344.82805696    
09 Jun 2022 01:21:05.598    09 Jun 2022 01:24:52.110      226.51246864    
09 Jun 2022 02:57:26.847    09 Jun 2022 03:05:20.782      473.93522796    
09 Jun 2022 04:35:21.729    09 Jun 2022 04:42:16.240      414.51121601    
09 Jun 2022 19:44:16.559    09 Jun 2022 19:52:32.927      496.36830540    
09 Jun 2022 21:23:06.774    09 Jun 2022 21:29:31.060      384.28583555    
10 Jun 2022 00:43:00.292    10 Jun 2022 00:45:42.726      162.43433696    
10 Jun 2022 02:19:08.530    10 Jun 2022 02:26:41.765      453.23453683    
10 Jun 2022 03:56:41.749    10 Jun 2022 04:04:15.934      454.18516818    
10 Jun 2022 19:05:58.936    10 Jun 2022 19:14:03.870      484.93356180    
10 Jun 2022 20:44:17.297    10 Jun 2022 20:51:15.494      418.19735292    
11 Jun 2022 00:05:07.125    11 Jun 2022 00:06:17.773      70.647483179    
11 Jun 2022 01:40:51.004    11 Jun 2022 01:47:57.573      426.56879369    
11 Jun 2022 03:18:07.014    11 Jun 2022 03:26:06.573      479.55933526    
11 Jun 2022 18:27:47.069    11 Jun 2022 18:35:30.009      462.93948161    
11 Jun 2022 20:05:31.302    11 Jun 2022 20:12:57.778      446.47651550    
11 Jun 2022 21:46:39.730    11 Jun 2022 21:49:01.110      141.38044763    
12 Jun 2022 01:02:34.157    12 Jun 2022 01:09:08.322      394.16469183    
12 Jun 2022 02:39:35.896    12 Jun 2022 02:47:49.663      493.76734133    
12 Jun 2022 17:49:42.273    12 Jun 2022 17:56:49.921      427.64807175    
12 Jun 2022 19:26:48.915    12 Jun 2022 19:34:37.813      468.89811109    
12 Jun 2022 21:07:25.603    12 Jun 2022 21:10:55.502      209.89912773    
13 Jun 2022 00:24:17.963    13 Jun 2022 00:30:14.084      356.12132986    
13 Jun 2022 02:01:07.404    13 Jun 2022 02:09:26.080      498.67573385    
13 Jun 2022 03:41:03.460    13 Jun 2022 03:43:38.199      154.73951254    
13 Jun 2022 17:11:47.012    13 Jun 2022 17:18:01.029      374.01728615    
13 Jun 2022 18:48:10.303    13 Jun 2022 18:56:15.424      485.12082410    
13 Jun 2022 20:28:17.811    13 Jun 2022 20:32:44.167      266.35617635    
13 Jun 2022 23:46:02.517    13 Jun 2022 23:51:14.857      312.33910342    
14 Jun 2022 01:22:40.881    14 Jun 2022 01:30:56.375      495.49403120    
14 Jun 2022 03:01:28.928    14 Jun 2022 03:06:31.766      302.83779739    
14 Jun 2022 16:34:07.078    14 Jun 2022 16:38:57.426      290.34736996    
14 Jun 2022 18:09:35.680    14 Jun 2022 18:17:50.354      494.67332899    
14 Jun 2022 19:49:14.144    14 Jun 2022 19:54:29.585      315.44062207    
14 Jun 2022 23:07:48.150    14 Jun 2022 23:12:10.458      262.30864782    
15 Jun 2022 00:44:15.865    15 Jun 2022 00:52:20.915      485.04981701    
15 Jun 2022 02:22:27.097    15 Jun 2022 02:28:49.139      382.04180634    
15 Jun 2022 15:57:09.461    15 Jun 2022 15:59:12.008      122.54732143    
15 Jun 2022 17:31:05.338    15 Jun 2022 17:39:22.247      496.90932288    
15 Jun 2022 19:10:14.041    15 Jun 2022 19:16:12.529      358.48815625    
15 Jun 2022 22:29:35.760    15 Jun 2022 22:33:00.198      204.43810355    
16 Jun 2022 00:05:52.025    16 Jun 2022 00:13:39.955      467.92931574    
16 Jun 2022 01:43:37.452    16 Jun 2022 01:50:50.713      433.26124633    
16 Jun 2022 16:52:39.686    16 Jun 2022 17:00:50.608      490.92162213    
16 Jun 2022 18:31:17.378    16 Jun 2022 18:37:53.278      395.90037380    
16 Jun 2022 21:51:28.352    16 Jun 2022 21:53:41.340      132.98834682    
16 Jun 2022 23:27:29.126    16 Jun 2022 23:34:53.680      444.55342947    
17 Jun 2022 01:04:54.744    17 Jun 2022 01:12:41.610      466.86616017    
17 Jun 2022 16:14:19.341    17 Jun 2022 16:22:14.725      475.38337628    
17 Jun 2022 17:52:24.189    17 Jun 2022 17:59:31.901      427.71179035    
17 Jun 2022 19:33:59.628    17 Jun 2022 19:35:17.390      77.762424597    
17 Jun 2022 22:49:07.012    17 Jun 2022 22:56:02.227      415.21562843    
18 Jun 2022 00:26:16.598    18 Jun 2022 00:34:24.083      487.48473390    
18 Jun 2022 15:36:05.280    18 Jun 2022 15:43:33.513      448.23232441    
18 Jun 2022 17:13:34.576    18 Jun 2022 17:21:08.347      453.77113150    
18 Jun 2022 18:54:30.200    18 Jun 2022 18:57:16.775      166.57575674    
18 Jun 2022 22:10:45.606    18 Jun 2022 22:17:05.694      380.08798911    
18 Jun 2022 23:47:41.680    18 Jun 2022 23:55:59.347      497.66762538    
19 Jun 2022 14:57:59.207    19 Jun 2022 15:04:45.157      405.95081372    
19 Jun 2022 16:34:48.685    19 Jun 2022 16:42:42.486      473.80037969    
19 Jun 2022 18:15:13.630    19 Jun 2022 18:19:03.766      230.13564163    
19 Jun 2022 21:32:24.938    19 Jun 2022 21:38:04.122      339.18440390    
19 Jun 2022 23:09:09.145    19 Jun 2022 23:17:28.135      498.99043241    
20 Jun 2022 00:48:29.335    20 Jun 2022 00:52:21.540      232.20508449    
20 Jun 2022 14:20:04.579    20 Jun 2022 14:25:46.088      341.50950350    
20 Jun 2022 15:56:06.705    20 Jun 2022 16:04:14.106      487.40102320    
20 Jun 2022 17:36:02.356    20 Jun 2022 17:40:46.240      283.88325168    
20 Jun 2022 20:54:05.201    20 Jun 2022 20:58:57.437      292.23609940    
20 Jun 2022 22:30:38.423    20 Jun 2022 22:38:50.920      492.49732050    
21 Jun 2022 00:09:08.799    21 Jun 2022 00:14:49.787      340.98805252    
21 Jun 2022 13:42:31.174    21 Jun 2022 13:46:26.416      235.24109573    
21 Jun 2022 15:17:28.885    21 Jun 2022 15:25:42.912      494.02680419    
21 Jun 2022 16:56:55.013    21 Jun 2022 17:02:25.819      330.80615366    
21 Jun 2022 20:15:46.949    21 Jun 2022 20:19:45.270      238.32123550    
21 Jun 2022 21:52:09.111    21 Jun 2022 22:00:08.023      478.91214945    
21 Jun 2022 23:30:08.066    21 Jun 2022 23:36:54.705      406.63912062    
22 Jun 2022 14:38:55.569    22 Jun 2022 14:47:08.491      492.92212111    
22 Jun 2022 16:17:51.244    22 Jun 2022 16:24:03.057      371.81301985    
22 Jun 2022 19:37:31.764    22 Jun 2022 19:40:26.286      174.52219730    
22 Jun 2022 21:13:40.924    22 Jun 2022 21:21:19.673      458.74916035    
22 Jun 2022 22:51:16.824    22 Jun 2022 22:58:46.489      449.66474095    
23 Jun 2022 14:00:27.255    23 Jun 2022 14:08:30.263      483.00783170    
23 Jun 2022 15:38:50.999    23 Jun 2022 15:45:38.145      407.14581893    
23 Jun 2022 18:59:26.832    23 Jun 2022 19:00:53.608      86.776058190    
23 Jun 2022 20:35:13.666    23 Jun 2022 20:42:26.038      432.37140693    
23 Jun 2022 22:12:31.416    23 Jun 2022 22:20:28.682      477.26602015    
24 Jun 2022 13:22:04.706    24 Jun 2022 13:29:47.370      462.66430960    
24 Jun 2022 14:59:54.347    24 Jun 2022 15:07:11.107      436.76023094    
24 Jun 2022 16:41:12.346    24 Jun 2022 16:43:05.941      113.59426165    
24 Jun 2022 19:56:47.226    24 Jun 2022 20:03:27.240      400.01370739    
24 Jun 2022 21:33:50.000    24 Jun 2022 21:42:03.014      493.01421162    
25 Jun 2022 12:43:49.180    25 Jun 2022 12:50:58.455      429.27491523    
25 Jun 2022 14:21:01.412    25 Jun 2022 14:28:41.864      460.45139192    
25 Jun 2022 16:01:44.219    25 Jun 2022 16:04:54.478      190.25899870    
25 Jun 2022 19:18:21.584    25 Jun 2022 19:24:23.353      361.76839897    
25 Jun 2022 20:55:11.484    25 Jun 2022 21:03:30.471      498.98706320    
25 Jun 2022 22:35:26.977    25 Jun 2022 22:37:19.373      112.39584982    


Number of events : 335


Observer: Hawaii
Start Time (UTC)            Stop Time (UTC)               Duration (s)         
27 Apr 2022 13:06:57.581    27 Apr 2022 13:11:46.348      288.76732987    
27 Apr 2022 21:22:49.368    27 Apr 2022 21:30:58.910      489.54223380    
28 Apr 2022 10:50:14.178    28 Apr 2022 10:57:36.515      442.33679652    
28 Apr 2022 12:28:25.915    28 Apr 2022 12:34:33.579      367.66360688    
28 Apr 2022 20:45:03.936    28 Apr 2022 20:53:10.823      486.88707476    
29 Apr 2022 10:12:55.199    29 Apr 2022 10:19:26.195      390.99612561    
29 Apr 2022 11:50:07.516    29 Apr 2022 11:57:08.642      421.12524830    
29 Apr 2022 20:07:22.784    29 Apr 2022 20:15:14.425      471.64109121    
29 Apr 2022 21:46:36.611    29 Apr 2022 21:50:37.510      240.89849439    
30 Apr 2022 09:35:51.549    30 Apr 2022 09:40:59.728      308.17970980    
30 Apr 2022 11:11:58.190    30 Apr 2022 11:19:35.507      457.31771726    
30 Apr 2022 19:29:46.123    30 Apr 2022 19:37:09.270      443.14687403    
30 Apr 2022 21:07:55.408    30 Apr 2022 21:13:48.093      352.68566245    
01 May 2022 08:59:27.624    01 May 2022 09:01:52.514      144.89000821    
01 May 2022 10:33:56.221    01 May 2022 10:41:55.664      479.44291660    
01 May 2022 18:52:14.875    01 May 2022 18:58:54.199      399.32374401    
01 May 2022 20:29:35.762    01 May 2022 20:36:34.319      418.55693405    
02 May 2022 09:56:00.878    02 May 2022 10:04:09.623      488.74469394    
02 May 2022 18:14:51.415    02 May 2022 18:20:26.594      335.17914657    
02 May 2022 19:51:27.014    02 May 2022 19:59:06.636      459.62244255    
03 May 2022 09:18:12.013    03 May 2022 09:26:17.310      485.29662058    
03 May 2022 10:58:42.994    03 May 2022 11:01:25.502      162.50789602    
03 May 2022 17:37:42.878    03 May 2022 17:41:39.071      236.19310601    
03 May 2022 19:13:25.493    03 May 2022 19:21:28.500      483.00680638    
04 May 2022 08:40:30.012    04 May 2022 08:48:18.123      468.11089511    
04 May 2022 10:19:37.984    04 May 2022 10:24:31.897      293.91261289    
04 May 2022 18:35:29.492    04 May 2022 18:43:41.396      491.90418319    
05 May 2022 08:02:55.982    05 May 2022 08:10:10.736      434.75391859    
05 May 2022 09:41:01.054    05 May 2022 09:47:11.742      370.68800364    
05 May 2022 17:57:38.187    05 May 2022 18:05:45.919      487.73202687    
06 May 2022 07:25:32.437    06 May 2022 07:31:52.421      379.98413765    
06 May 2022 09:02:37.179    06 May 2022 09:09:39.826      422.64689910    
06 May 2022 17:19:51.321    06 May 2022 17:27:42.088      470.76723946    
06 May 2022 18:58:54.725    06 May 2022 19:03:16.123      261.39854821    
07 May 2022 06:48:25.917    07 May 2022 06:53:16.415      290.49823384    
07 May 2022 08:24:22.388    07 May 2022 08:31:59.871      457.48284159    
07 May 2022 16:42:09.171    07 May 2022 16:49:29.378      440.20662551    
07 May 2022 18:20:11.274    07 May 2022 18:26:16.193      364.91927110    
08 May 2022 06:12:14.674    08 May 2022 06:13:44.241      89.566679054    
08 May 2022 07:46:15.046    08 May 2022 07:54:13.270      478.22322868    
08 May 2022 16:04:32.788    08 May 2022 16:11:06.478      393.68996975    
08 May 2022 17:41:47.227    08 May 2022 17:48:54.166      426.93883167    
09 May 2022 07:08:14.466    09 May 2022 07:16:20.461      485.99539439    
09 May 2022 15:27:04.899    09 May 2022 15:32:30.393      325.49347188    
09 May 2022 17:03:33.552    09 May 2022 17:11:18.836      465.28365172    
10 May 2022 06:30:20.551    10 May 2022 06:38:21.297      480.74647175    
10 May 2022 08:10:38.271    10 May 2022 08:13:39.044      180.77254405    
10 May 2022 14:49:54.278    10 May 2022 14:53:32.081      217.80275835    
10 May 2022 16:25:26.931    10 May 2022 16:33:33.283      486.35144883    
11 May 2022 05:52:33.768    11 May 2022 06:00:15.066      461.29748627    
11 May 2022 07:31:32.095    11 May 2022 07:36:34.943      302.84836928    
11 May 2022 15:47:25.790    11 May 2022 15:55:38.833      493.04315527    
12 May 2022 05:14:55.397    12 May 2022 05:22:00.246      424.84945832    
12 May 2022 06:52:51.033    12 May 2022 06:59:07.328      376.29458690    
12 May 2022 15:09:29.382    12 May 2022 15:17:35.979      486.59674932    
12 May 2022 16:50:25.336    12 May 2022 16:51:08.363      43.027236569    
13 May 2022 04:37:28.384    13 May 2022 04:43:33.646      365.26243963    
13 May 2022 06:14:22.512    13 May 2022 06:21:28.505      425.99315151    
13 May 2022 14:31:37.521    13 May 2022 14:39:24.641      467.12079569    
13 May 2022 16:10:28.025    13 May 2022 16:15:12.585      284.55995636    
14 May 2022 04:00:20.981    14 May 2022 04:04:46.772      265.79066380    
14 May 2022 05:36:02.923    14 May 2022 05:43:41.809      458.88643046    
14 May 2022 13:53:50.588    14 May 2022 14:01:04.164      433.57605207    
14 May 2022 15:31:43.228    14 May 2022 15:38:01.806      378.57792954    
15 May 2022 04:57:50.759    15 May 2022 05:05:48.480      477.72126216    
15 May 2022 13:16:09.855    15 May 2022 13:22:32.995      383.13969537    
15 May 2022 14:53:15.502    15 May 2022 15:00:31.215      435.71314977    
16 May 2022 04:19:45.411    16 May 2022 04:27:48.857      483.44563359    
16 May 2022 12:38:38.683    16 May 2022 12:43:47.485      308.80161098    
16 May 2022 14:14:57.445    16 May 2022 14:22:47.961      470.51546741    
17 May 2022 03:41:46.868    17 May 2022 03:49:42.690      475.82277053    
17 May 2022 05:21:47.915    17 May 2022 05:25:12.662      204.74676933    
17 May 2022 12:01:29.316    17 May 2022 12:04:35.102      185.78551695    
17 May 2022 13:36:46.145    17 May 2022 13:44:54.698      488.55269167    
18 May 2022 03:03:55.723    18 May 2022 03:11:29.126      453.40301183    
18 May 2022 04:42:41.542    18 May 2022 04:47:57.317      315.77546610    
18 May 2022 12:58:40.199    18 May 2022 13:06:52.565      492.36595554    
19 May 2022 02:26:13.511    19 May 2022 02:33:06.375      412.86412929    
19 May 2022 04:03:56.919    19 May 2022 04:10:21.759      384.83986877    
19 May 2022 12:20:38.972    19 May 2022 12:28:41.931      482.95888903    
19 May 2022 14:00:45.500    19 May 2022 14:03:04.784      139.28467658    
20 May 2022 01:48:43.856    20 May 2022 01:54:30.563      346.70748627    
20 May 2022 03:25:24.105    20 May 2022 03:32:35.654      431.54893415    
20 May 2022 11:42:42.390    20 May 2022 11:50:22.597      460.20651420    
20 May 2022 13:21:18.176    20 May 2022 13:26:26.713      308.53686500    
21 May 2022 01:11:38.059    21 May 2022 01:15:30.137      232.07792138    
21 May 2022 02:46:59.964    21 May 2022 02:54:41.861      461.89690403    
21 May 2022 11:04:51.007    21 May 2022 11:11:53.730      422.72233969    
21 May 2022 12:42:32.122    21 May 2022 12:49:04.788      392.66642245    
22 May 2022 02:08:43.174    22 May 2022 02:16:41.434      478.25996656    
22 May 2022 10:27:06.458    22 May 2022 10:33:13.414      366.95615812    
22 May 2022 12:04:00.937    22 May 2022 12:11:25.157      444.22016207    
23 May 2022 01:30:33.249    23 May 2022 01:38:34.595      481.34607937    
23 May 2022 09:49:33.232    23 May 2022 09:54:16.876      283.64466039    
23 May 2022 11:25:38.678    23 May 2022 11:33:33.514      474.83621979    
24 May 2022 00:52:30.302    24 May 2022 01:00:20.974      470.67110961    
24 May 2022 02:32:11.839    24 May 2022 02:36:05.343      233.50369600    
24 May 2022 09:12:32.426    24 May 2022 09:14:42.737      130.31105578    
24 May 2022 10:47:22.857    24 May 2022 10:55:32.095      489.23798109    
25 May 2022 00:14:35.121    25 May 2022 00:21:59.535      444.41459686    
25 May 2022 01:53:05.576    25 May 2022 01:58:38.320      332.74355986    
25 May 2022 10:09:12.274    25 May 2022 10:17:21.843      489.56854753    
25 May 2022 23:36:49.617    25 May 2022 23:43:28.123      398.50629503    
26 May 2022 01:14:17.818    26 May 2022 01:20:54.302      396.48435619    
26 May 2022 09:31:06.441    26 May 2022 09:39:02.991      476.54922473    
26 May 2022 11:10:41.492    26 May 2022 11:13:58.805      197.31354704    
26 May 2022 22:59:18.480    26 May 2022 23:04:41.807      323.32682200    
27 May 2022 00:35:41.067    27 May 2022 00:43:00.521      439.45393773    
27 May 2022 08:53:05.442    27 May 2022 09:00:35.190      449.74712993    
27 May 2022 10:31:25.024    27 May 2022 10:36:57.500      332.47672679    
27 May 2022 22:22:19.269    27 May 2022 22:25:22.790      183.52087077    
27 May 2022 23:57:12.723    28 May 2022 00:04:59.314      466.59171141    
28 May 2022 08:15:10.086    28 May 2022 08:21:57.363      407.27702673    
28 May 2022 09:52:37.727    28 May 2022 09:59:24.418      406.69090350    
28 May 2022 23:18:51.689    28 May 2022 23:26:51.521      479.83162747    
29 May 2022 07:37:22.584    29 May 2022 07:43:07.024      344.44015265    
29 May 2022 09:14:03.375    29 May 2022 09:21:35.542      452.16623708    
29 May 2022 22:40:37.636    29 May 2022 22:48:37.218      479.58157350    
30 May 2022 00:21:43.780    30 May 2022 00:23:09.395      85.614988371    
30 May 2022 06:59:49.533    30 May 2022 07:03:57.305      247.77208194    
30 May 2022 08:35:37.264    30 May 2022 08:43:35.335      478.07079256    
30 May 2022 22:02:30.845    30 May 2022 22:10:15.880      465.03521871    
30 May 2022 23:41:50.639    30 May 2022 23:46:16.338      265.69884896    
31 May 2022 07:57:17.318    31 May 2022 08:05:25.629      488.31049197    
31 May 2022 21:24:32.357    31 May 2022 21:31:46.223      433.86585228    
31 May 2022 23:02:44.718    31 May 2022 23:08:37.889      353.17142947    
01 Jun 2022 07:19:02.552    01 Jun 2022 07:27:07.158      484.60559039    
01 Jun 2022 20:46:44.637    01 Jun 2022 20:53:05.547      380.91009760    
01 Jun 2022 22:23:54.487    01 Jun 2022 22:30:45.316      410.82850113    
02 Jun 2022 06:40:52.644    02 Jun 2022 06:48:39.990      467.34570363    
02 Jun 2022 08:20:00.318    02 Jun 2022 08:24:05.249      244.93037851    
02 Jun 2022 20:09:14.138    02 Jun 2022 20:14:07.159      293.02044783    
02 Jun 2022 21:45:14.484    02 Jun 2022 21:52:43.818      449.33392211    
03 Jun 2022 06:02:47.878    03 Jun 2022 06:10:03.574      435.69542519    
03 Jun 2022 07:40:50.063    03 Jun 2022 07:46:45.950      355.88693161    
03 Jun 2022 19:32:37.224    03 Jun 2022 19:34:14.457      97.232948639    
03 Jun 2022 21:06:42.639    03 Jun 2022 21:14:35.205      472.56599315    
04 Jun 2022 05:24:49.423    04 Jun 2022 05:31:16.470      387.04705888    
04 Jun 2022 07:02:01.762    04 Jun 2022 07:09:02.122      420.36024792    
04 Jun 2022 20:28:18.098    04 Jun 2022 20:36:20.068      481.96995794    
05 Jun 2022 04:47:00.431    05 Jun 2022 04:52:15.249      314.81806522    
05 Jun 2022 06:23:24.755    05 Jun 2022 06:31:04.182      459.42606367    
05 Jun 2022 19:50:00.711    05 Jun 2022 19:57:58.305      477.59428513    
05 Jun 2022 21:30:20.720    05 Jun 2022 21:33:10.046      169.32582449    
06 Jun 2022 04:09:32.002    06 Jun 2022 04:12:48.528      196.52635683    
06 Jun 2022 05:44:55.358    06 Jun 2022 05:52:55.563      480.20558880    
06 Jun 2022 19:11:50.961    06 Jun 2022 19:19:29.177      458.21607445    
06 Jun 2022 20:50:47.375    06 Jun 2022 20:55:46.955      299.57989664    
07 Jun 2022 05:06:31.873    07 Jun 2022 05:14:37.706      485.83261175    
07 Jun 2022 18:33:50.239    07 Jun 2022 18:40:51.043      420.80355075    
07 Jun 2022 20:11:41.968    07 Jun 2022 20:17:57.802      375.83396119    
08 Jun 2022 04:28:13.533    08 Jun 2022 04:36:11.116      477.58311824    
08 Jun 2022 06:08:55.138    08 Jun 2022 06:09:54.699      59.561238368    
08 Jun 2022 17:56:01.840    08 Jun 2022 18:02:00.358      358.51829967    
08 Jun 2022 19:32:49.956    08 Jun 2022 19:39:56.857      426.90068500    
09 Jun 2022 03:50:00.201    09 Jun 2022 03:57:35.655      455.45476688    
09 Jun 2022 05:28:42.490    09 Jun 2022 05:33:29.062      286.57205442    
09 Jun 2022 17:18:35.497    09 Jun 2022 17:22:47.138      251.64118060    
09 Jun 2022 18:54:07.432    09 Jun 2022 19:01:47.746      460.31403223    
10 Jun 2022 03:11:52.421    10 Jun 2022 03:18:50.497      418.07642217    
10 Jun 2022 04:49:36.228    10 Jun 2022 04:55:54.694      378.46542009    
10 Jun 2022 18:15:32.813    10 Jun 2022 18:23:31.779      478.96601848    
11 Jun 2022 02:33:51.892    11 Jun 2022 02:39:53.651      361.75836237    
11 Jun 2022 04:10:47.088    11 Jun 2022 04:18:00.600      433.51250980    
11 Jun 2022 17:37:05.495    11 Jun 2022 17:45:09.284      483.78904728    
12 Jun 2022 01:56:03.425    12 Jun 2022 02:00:40.008      276.58313946    
12 Jun 2022 03:32:07.805    12 Jun 2022 03:39:53.779      465.97401397    
12 Jun 2022 16:58:45.530    12 Jun 2022 17:06:39.938      474.40762531    
12 Jun 2022 18:38:30.074    12 Jun 2022 18:42:20.149      230.07464348    
13 Jun 2022 01:18:52.001    13 Jun 2022 01:20:44.290      112.28860023    
13 Jun 2022 02:53:35.523    13 Jun 2022 03:01:36.822      481.29927472    
13 Jun 2022 16:20:33.671    13 Jun 2022 16:28:02.723      449.05153108    
13 Jun 2022 17:59:05.340    13 Jun 2022 18:04:38.831      333.49125370    
14 Jun 2022 02:15:08.897    14 Jun 2022 02:23:10.800      481.90294399    
14 Jun 2022 15:42:31.814    14 Jun 2022 15:49:15.479      403.66489962    
14 Jun 2022 17:20:00.337    14 Jun 2022 17:26:39.622      399.28577336    
15 Jun 2022 01:36:47.384    15 Jun 2022 01:44:35.977      468.59348088    
15 Jun 2022 03:16:25.158    15 Jun 2022 03:19:26.191      181.03369921    
15 Jun 2022 15:04:44.635    15 Jun 2022 15:10:13.267      328.63132199    
15 Jun 2022 16:41:06.919    15 Jun 2022 16:48:30.379      443.45919318    
16 Jun 2022 00:58:31.075    16 Jun 2022 01:05:51.971      440.89583452    
16 Jun 2022 02:36:49.100    16 Jun 2022 02:42:13.179      324.07933627    
16 Jun 2022 14:27:29.483    16 Jun 2022 14:30:38.477      188.99400198    
16 Jun 2022 16:02:22.331    16 Jun 2022 16:10:13.572      471.24071777    
17 Jun 2022 00:20:20.879    17 Jun 2022 00:26:57.579      396.69997562    
17 Jun 2022 01:57:45.321    17 Jun 2022 02:04:25.444      400.12335180    
17 Jun 2022 15:23:45.420    17 Jun 2022 15:31:50.069      484.64930810    
17 Jun 2022 23:42:19.350    17 Jun 2022 23:47:49.945      330.59568848    
18 Jun 2022 01:18:55.227    18 Jun 2022 01:26:21.315      446.08848703    
18 Jun 2022 14:45:15.846    18 Jun 2022 14:53:19.936      484.09025799    
18 Jun 2022 16:26:04.776    18 Jun 2022 16:28:06.569      121.79283510    
18 Jun 2022 23:04:34.688    18 Jun 2022 23:08:20.564      225.87615080    
19 Jun 2022 00:40:13.766    19 Jun 2022 00:48:05.573      471.80653332    
19 Jun 2022 14:06:53.914    19 Jun 2022 14:14:42.595      468.68097129    
19 Jun 2022 15:46:06.194    19 Jun 2022 15:50:47.656      281.46190059    
20 Jun 2022 00:01:38.761    20 Jun 2022 00:09:40.125      481.36438073    
20 Jun 2022 13:28:40.752    20 Jun 2022 13:35:56.654      435.90225965    
20 Jun 2022 15:06:46.179    20 Jun 2022 15:12:52.246      366.06705110    
20 Jun 2022 23:23:09.200    20 Jun 2022 23:31:05.706      476.50564533    
21 Jun 2022 12:50:39.052    21 Jun 2022 12:56:59.159      380.10692321    
21 Jun 2022 14:27:41.337    21 Jun 2022 14:34:43.449      422.11190307    
21 Jun 2022 22:44:44.791    21 Jun 2022 22:52:22.327      457.53681968    
22 Jun 2022 00:23:43.841    22 Jun 2022 00:27:54.863      251.02250845    
22 Jun 2022 12:12:56.108    22 Jun 2022 12:17:42.558      286.44961776    
22 Jun 2022 13:48:46.735    22 Jun 2022 13:56:25.917      459.18161500    
22 Jun 2022 22:06:25.921    22 Jun 2022 22:13:29.312      423.39094367    
22 Jun 2022 23:44:20.228    22 Jun 2022 23:50:18.663      358.43492687    
23 Jun 2022 11:36:29.494    23 Jun 2022 11:37:09.019      39.524357510    
23 Jun 2022 13:10:00.457    23 Jun 2022 13:18:01.285      480.82740542    
23 Jun 2022 21:28:14.039    23 Jun 2022 21:34:24.921      370.88247741    
23 Jun 2022 23:05:17.887    23 Jun 2022 23:12:18.668      420.78064363    
24 Jun 2022 12:31:21.740    24 Jun 2022 12:39:30.044      488.30351749    
24 Jun 2022 20:50:13.199    24 Jun 2022 20:55:04.799      291.60029548    
24 Jun 2022 22:26:26.743    24 Jun 2022 22:34:04.692      457.94861619    
25 Jun 2022 11:52:50.523    25 Jun 2022 12:00:51.986      481.46377261    
25 Jun 2022 13:32:47.884    25 Jun 2022 13:36:21.684      213.80039183    
