GMAT/Constellation/Contact/ContactLocator13.txt

Target: HSEYE13

Observer: Bahrain
Start Time (UTC)            Stop Time (UTC)               Duration (s)         
27 Apr 2022 22:21:42.249    27 Apr 2022 22:25:27.308      225.05939081    
27 Apr 2022 23:56:46.152    28 Apr 2022 00:04:47.759      481.60764441    
28 Apr 2022 06:36:31.497    28 Apr 2022 06:39:06.533      155.03665373    
28 Apr 2022 08:11:44.830    28 Apr 2022 08:19:55.810      490.98003090    
28 Apr 2022 23:18:14.931    28 Apr 2022 23:26:24.144      489.21292025    
29 Apr 2022 00:59:01.221    29 Apr 2022 01:01:39.149      157.92803471    
29 Apr 2022 07:33:21.079    29 Apr 2022 07:41:23.811      482.73183962    
29 Apr 2022 09:12:37.367    29 Apr 2022 09:16:32.467      235.09946818    
29 Apr 2022 22:39:49.754    29 Apr 2022 22:47:55.035      485.28142911    
30 Apr 2022 00:19:24.116    30 Apr 2022 00:24:01.408      277.29165880    
30 Apr 2022 06:55:00.547    30 Apr 2022 07:02:43.828      463.28064288    
30 Apr 2022 08:33:17.253    30 Apr 2022 08:39:06.227      348.97432452    
30 Apr 2022 22:01:31.149    30 Apr 2022 22:09:19.723      468.57351833    
30 Apr 2022 23:40:10.395    30 Apr 2022 23:46:01.904      351.50894100    
01 May 2022 06:16:43.379    01 May 2022 06:23:55.525      432.14536838    
01 May 2022 07:54:18.957    01 May 2022 08:01:14.617      415.66013888    
01 May 2022 21:23:20.278    01 May 2022 21:30:36.867      436.58829841    
01 May 2022 23:01:08.034    01 May 2022 23:07:52.549      404.51564026    
02 May 2022 05:38:30.262    02 May 2022 05:44:58.032      387.76969188    
02 May 2022 07:15:31.253    02 May 2022 07:23:08.678      457.42592459    
02 May 2022 20:45:19.564    02 May 2022 20:51:43.863      384.29933282    
02 May 2022 22:22:13.800    02 May 2022 22:29:36.441      442.64170836    
03 May 2022 05:00:22.972    03 May 2022 05:05:49.406      326.43415307    
03 May 2022 06:36:50.301    03 May 2022 06:44:52.061      481.76049764    
03 May 2022 20:07:34.975    03 May 2022 20:12:34.568      299.59300384    
03 May 2022 21:43:26.366    03 May 2022 21:51:14.748      468.38162576    
04 May 2022 04:22:26.605    04 May 2022 04:26:24.408      237.80267439    
04 May 2022 05:58:14.268    04 May 2022 06:06:26.408      492.13971456    
04 May 2022 19:30:35.064    04 May 2022 19:32:40.254      125.19064124    
04 May 2022 21:04:45.169    04 May 2022 21:12:47.861      482.69205911    
05 May 2022 03:45:21.348    05 May 2022 03:46:02.740      41.391895409    
05 May 2022 05:19:42.183    05 May 2022 05:27:52.496      490.31251164    
05 May 2022 07:00:05.321    05 May 2022 07:01:45.873      100.55260820    
05 May 2022 20:26:10.094    05 May 2022 20:34:15.715      485.62119291    
05 May 2022 22:06:23.328    05 May 2022 22:09:53.813      210.48498221    
06 May 2022 04:41:13.571    06 May 2022 04:49:10.602      477.03120449    
06 May 2022 06:19:59.925    06 May 2022 06:24:54.201      294.27663821    
06 May 2022 19:47:41.418    06 May 2022 19:55:37.846      476.42708888    
06 May 2022 21:26:51.643    06 May 2022 21:31:58.799      307.15646928    
07 May 2022 04:02:48.348    07 May 2022 04:10:20.616      452.26891078    
07 May 2022 05:40:45.414    07 May 2022 05:47:08.356      382.94173608    
07 May 2022 19:09:19.918    07 May 2022 19:16:53.290      453.37209423    
07 May 2022 20:47:36.692    07 May 2022 20:53:48.846      372.15426631    
08 May 2022 03:24:26.867    08 May 2022 03:31:21.990      415.12266097    
08 May 2022 05:01:46.254    08 May 2022 05:09:03.680      437.42589477    
08 May 2022 18:31:07.221    08 May 2022 18:38:00.229      413.00874352    
08 May 2022 20:08:31.687    08 May 2022 20:15:30.605      418.91796734    
09 May 2022 02:46:10.210    09 May 2022 02:52:13.458      363.24767643    
09 May 2022 04:22:55.797    09 May 2022 04:30:46.627      470.83043220    
09 May 2022 17:53:06.925    09 May 2022 17:58:54.872      347.94696512    
09 May 2022 19:29:34.342    09 May 2022 19:37:06.201      451.85869625    
10 May 2022 02:08:01.194    10 May 2022 02:12:52.034      290.84000207    
10 May 2022 03:44:11.291    10 May 2022 03:52:19.743      488.45221067    
10 May 2022 17:15:29.796    10 May 2022 17:19:26.263      236.46775499    
10 May 2022 18:50:43.675    10 May 2022 18:58:36.433      472.75871396    
11 May 2022 01:30:09.863    11 May 2022 01:33:07.531      177.66869471    
11 May 2022 03:05:31.335    11 May 2022 03:13:44.221      492.88602005    
11 May 2022 18:11:59.310    11 May 2022 18:20:01.479      482.16943791    
11 May 2022 19:53:06.109    11 May 2022 19:54:56.288      110.17864952    
12 May 2022 02:26:55.192    12 May 2022 02:35:00.586      485.39454112    
12 May 2022 04:06:19.423    12 May 2022 04:09:58.037      218.61342428    
12 May 2022 17:33:21.295    12 May 2022 17:41:21.086      479.79149554    
12 May 2022 19:13:04.020    12 May 2022 19:17:19.055      255.03506087    
13 May 2022 01:48:22.559    13 May 2022 01:56:08.921      466.36202076    
13 May 2022 03:26:42.863    13 May 2022 03:32:24.468      341.60510591    
13 May 2022 16:54:50.111    13 May 2022 17:02:34.562      464.45078464    
13 May 2022 18:33:34.943    13 May 2022 18:39:10.783      335.84063337    
14 May 2022 01:09:53.542    14 May 2022 01:17:08.903      435.36072416    
14 May 2022 02:47:31.131    14 May 2022 02:54:22.764      411.63295638    
14 May 2022 16:16:26.879    14 May 2022 16:23:40.572      433.69249022    
14 May 2022 17:54:18.887    14 May 2022 18:00:51.326      392.43913038    
15 May 2022 00:31:28.802    15 May 2022 00:37:59.660      390.85873448    
15 May 2022 02:08:30.920    15 May 2022 02:16:06.015      455.09428239    
15 May 2022 15:38:13.983    15 May 2022 15:44:36.517      382.53356967    
15 May 2022 17:15:11.693    15 May 2022 17:22:24.669      432.97596354    
15 May 2022 23:53:10.101    15 May 2022 23:58:39.229      329.12773885    
16 May 2022 01:29:37.965    16 May 2022 01:37:38.265      480.29919056    
16 May 2022 15:00:17.330    16 May 2022 15:05:16.275      298.94558417    
16 May 2022 16:36:11.744    16 May 2022 16:43:52.230      460.48647584    
16 May 2022 23:15:02.564    16 May 2022 23:19:02.307      239.74257378    
17 May 2022 00:50:50.266    17 May 2022 00:59:01.285      491.01892943    
17 May 2022 14:23:05.015    17 May 2022 14:25:11.534      126.51867889    
17 May 2022 15:57:18.347    17 May 2022 16:05:14.491      476.14404468    
17 May 2022 22:37:47.108    17 May 2022 22:38:27.828      40.720020910    
18 May 2022 00:12:06.767    18 May 2022 00:20:15.898      489.13170149    
18 May 2022 01:52:39.744    18 May 2022 01:53:57.075      77.331362700    
18 May 2022 15:18:31.321    18 May 2022 15:26:31.411      480.09067982    
18 May 2022 16:58:50.818    18 May 2022 17:02:01.846      191.02757763    
18 May 2022 23:33:26.947    18 May 2022 23:41:22.389      475.44176399    
19 May 2022 01:12:13.972    19 May 2022 01:17:03.039      289.06741091    
19 May 2022 14:39:50.907    19 May 2022 14:47:42.520      471.61314333    
19 May 2022 16:19:03.671    19 May 2022 16:23:59.318      295.64702878    
19 May 2022 22:54:50.706    19 May 2022 23:02:20.625      449.91897099    
20 May 2022 00:32:47.118    20 May 2022 00:39:06.846      379.72756183    
20 May 2022 14:01:17.876    20 May 2022 14:08:46.823      448.94753345    
20 May 2022 15:39:35.651    20 May 2022 15:45:39.566      363.91471258    
20 May 2022 22:16:18.415    20 May 2022 22:23:10.003      411.58851511    
20 May 2022 23:53:36.330    21 May 2022 00:00:51.124      434.79419322    
21 May 2022 13:22:53.892    21 May 2022 13:29:42.427      408.53496693    
21 May 2022 15:00:18.284    21 May 2022 15:07:10.893      412.60922535    
21 May 2022 21:37:51.248    21 May 2022 21:43:49.136      357.88875137    
21 May 2022 23:14:34.544    21 May 2022 23:22:22.705      468.16113152    
22 May 2022 12:44:42.714    22 May 2022 12:50:25.350      342.63657632    
22 May 2022 14:21:08.931    22 May 2022 14:28:35.747      446.81659708    
22 May 2022 20:59:32.362    22 May 2022 21:04:14.667      282.30463484    
22 May 2022 22:35:38.886    22 May 2022 22:43:44.231      485.34455836    
23 May 2022 12:06:55.964    23 May 2022 12:10:43.752      227.78798036    
23 May 2022 13:42:06.484    23 May 2022 13:49:55.025      468.54122401    
23 May 2022 20:21:34.060    23 May 2022 20:24:14.128      160.06825803    
23 May 2022 21:56:47.905    23 May 2022 22:04:56.920      489.01510838    
24 May 2022 13:03:10.521    24 May 2022 13:11:08.931      478.40996889    
24 May 2022 14:44:20.536    24 May 2022 14:45:57.753      97.216603928    
24 May 2022 21:18:00.845    24 May 2022 21:26:01.292      480.44661105    
24 May 2022 22:57:21.468    24 May 2022 23:01:00.889      219.42103752    
25 May 2022 12:24:21.081    25 May 2022 12:32:17.205      476.12387248    
25 May 2022 14:04:02.397    25 May 2022 14:08:13.685      251.28742259    
25 May 2022 20:39:17.420    25 May 2022 20:46:57.403      459.98247567    
25 May 2022 22:17:34.051    25 May 2022 22:23:15.360      341.30905919    
26 May 2022 11:45:38.672    26 May 2022 11:53:19.115      460.44239636    
26 May 2022 13:24:20.904    26 May 2022 13:29:54.938      334.03344078    
26 May 2022 20:00:37.787    26 May 2022 20:07:44.868      427.08033789    
26 May 2022 21:38:11.368    26 May 2022 21:45:01.702      410.33329944    
27 May 2022 11:07:04.500    27 May 2022 11:14:13.238      428.73803736    
27 May 2022 12:44:52.927    27 May 2022 12:51:24.498      391.57045236    
27 May 2022 19:22:02.741    27 May 2022 19:28:22.677      379.93524433    
27 May 2022 20:59:00.215    27 May 2022 21:06:32.896      452.68136548    
28 May 2022 10:28:41.168    28 May 2022 10:34:56.756      375.58821563    
28 May 2022 12:05:34.050    28 May 2022 12:12:46.610      432.55949118    
28 May 2022 18:43:34.423    28 May 2022 18:48:48.490      314.06710778    
28 May 2022 20:19:56.345    28 May 2022 20:27:52.966      476.62184743    
29 May 2022 09:50:35.354    29 May 2022 09:55:22.780      287.42557901    
29 May 2022 11:26:22.596    29 May 2022 11:34:02.758      460.16139054    
29 May 2022 18:05:19.555    29 May 2022 18:08:55.417      215.86193203    
29 May 2022 19:40:57.778    29 May 2022 19:49:03.671      485.89353635    
30 May 2022 09:13:26.695    30 May 2022 09:14:51.466      84.771116904    
30 May 2022 10:47:17.868    30 May 2022 10:55:13.437      475.56841539    
30 May 2022 19:02:03.486    30 May 2022 19:10:05.814      482.32852381    
30 May 2022 20:42:17.735    30 May 2022 20:44:05.053      107.31863247    
31 May 2022 10:08:19.710    31 May 2022 10:16:18.594      478.88363610    
31 May 2022 11:48:31.282    31 May 2022 11:51:52.745      201.46292198    
31 May 2022 18:23:12.994    31 May 2022 18:30:59.648      466.65451125    
31 May 2022 20:01:52.191    31 May 2022 20:06:47.775      295.58351951    
01 Jun 2022 09:29:28.423    01 Jun 2022 09:37:17.717      469.29390739    
01 Jun 2022 11:08:34.064    01 Jun 2022 11:13:37.418      303.35366382    
01 Jun 2022 17:44:26.276    01 Jun 2022 17:51:44.979      438.70305856    
01 Jun 2022 19:22:15.833    01 Jun 2022 19:28:38.053      382.22055745    
02 Jun 2022 08:50:44.887    02 Jun 2022 08:58:09.717      444.83080142    
02 Jun 2022 10:28:55.203    02 Jun 2022 10:35:05.719      370.51586208    
02 Jun 2022 17:05:43.854    02 Jun 2022 17:12:21.074      397.22004075    
02 Jun 2022 18:42:54.858    02 Jun 2022 18:50:09.477      434.61952577    
03 Jun 2022 08:12:11.002    03 Jun 2022 08:18:52.485      401.48293914    
03 Jun 2022 09:49:26.939    03 Jun 2022 09:56:25.259      418.31931464    
03 Jun 2022 16:27:07.246    03 Jun 2022 16:32:46.215      338.96869520    
03 Jun 2022 18:03:42.704    03 Jun 2022 18:11:28.396      465.69153556    
04 Jun 2022 07:33:51.180    04 Jun 2022 07:39:21.406      330.22580578    
04 Jun 2022 09:10:06.787    04 Jun 2022 09:17:38.347      451.55998408    
04 Jun 2022 15:48:40.762    04 Jun 2022 15:52:55.916      255.15407959    
04 Jun 2022 17:24:36.653    04 Jun 2022 17:32:37.312      480.65859787    
05 Jun 2022 06:56:00.582    05 Jun 2022 06:59:21.114      200.53214348    
05 Jun 2022 08:30:53.714    05 Jun 2022 08:38:45.820      472.10676178    
05 Jun 2022 15:10:47.596    05 Jun 2022 15:12:26.835      99.238353549    
05 Jun 2022 16:45:35.335    05 Jun 2022 16:53:37.372      482.03726074    
06 Jun 2022 07:51:47.361    06 Jun 2022 07:59:47.834      480.47209686    
06 Jun 2022 09:32:33.534    06 Jun 2022 09:34:54.990      141.45663881    
06 Jun 2022 16:06:38.066    06 Jun 2022 16:14:29.037      470.97159675    
06 Jun 2022 17:45:43.775    06 Jun 2022 17:49:44.173      240.39844681    
07 Jun 2022 07:12:47.847    07 Jun 2022 07:20:44.059      476.21232094    
07 Jun 2022 08:52:16.082    07 Jun 2022 08:56:48.182      272.09992097    
07 Jun 2022 15:27:44.644    07 Jun 2022 15:35:12.286      447.64201819    
07 Jun 2022 17:05:50.845    07 Jun 2022 17:11:41.764      350.91916567    
08 Jun 2022 06:33:55.799    08 Jun 2022 06:41:33.653      457.85419311    
08 Jun 2022 08:12:26.181    08 Jun 2022 08:18:15.997      349.81562232    
08 Jun 2022 14:48:55.366    08 Jun 2022 14:55:46.599      411.23257885    
08 Jun 2022 16:26:19.610    08 Jun 2022 16:33:14.355      414.74543918    
09 Jun 2022 05:55:12.650    09 Jun 2022 06:02:14.970      422.31934858    
09 Jun 2022 07:32:48.856    09 Jun 2022 07:39:33.268      404.41246553    
09 Jun 2022 14:10:11.320    09 Jun 2022 14:16:10.675      359.35510551    
09 Jun 2022 15:46:59.208    09 Jun 2022 15:54:32.587      453.37888546    
10 Jun 2022 05:16:41.556    10 Jun 2022 05:22:44.637      363.08127847    
10 Jun 2022 06:53:20.458    10 Jun 2022 07:00:43.466      443.00768059    
10 Jun 2022 13:31:35.485    10 Jun 2022 13:36:21.339      285.85381941    
10 Jun 2022 15:07:45.861    10 Jun 2022 15:15:40.011      474.14985633    
11 Jun 2022 04:38:31.296    11 Jun 2022 04:42:53.658      262.36253665    
11 Jun 2022 06:13:59.551    11 Jun 2022 06:21:47.831      468.28080090    
11 Jun 2022 12:53:19.101    11 Jun 2022 12:56:07.176      168.07559050    
11 Jun 2022 14:28:37.769    11 Jun 2022 14:36:38.196      480.42705429    
12 Jun 2022 05:34:45.557    12 Jun 2022 05:42:46.727      481.16998491    
12 Jun 2022 07:16:27.545    12 Jun 2022 07:17:05.303      37.758289464    
12 Jun 2022 13:49:34.008    12 Jun 2022 13:57:27.827      473.81867917    
12 Jun 2022 15:29:13.942    12 Jun 2022 15:32:03.009      169.06681142    
13 Jun 2022 04:55:38.421    13 Jun 2022 05:03:39.984      481.56331944    
13 Jun 2022 06:35:28.681    13 Jun 2022 06:39:28.770      240.08857372    
13 Jun 2022 13:10:34.198    13 Jun 2022 13:18:09.045      454.84727640    
13 Jun 2022 14:48:58.000    13 Jun 2022 14:54:14.763      316.76352684    
14 Jun 2022 04:16:38.572    14 Jun 2022 04:24:26.949      468.37653093    
14 Jun 2022 05:55:27.395    14 Jun 2022 06:00:56.968      329.57315486    
14 Jun 2022 12:31:38.441    14 Jun 2022 12:38:41.509      423.06821358    
14 Jun 2022 14:09:15.794    14 Jun 2022 14:15:49.582      393.78858054    
15 Jun 2022 03:37:47.109    15 Jun 2022 03:45:06.293      439.18438610    
15 Jun 2022 05:15:41.265    15 Jun 2022 05:22:12.175      390.91043029    
15 Jun 2022 11:52:47.504    15 Jun 2022 11:59:04.221      376.71767855    
15 Jun 2022 13:29:47.060    15 Jun 2022 13:37:07.495      440.43459148    
16 Jun 2022 02:59:06.417    16 Jun 2022 03:05:35.402      388.98566170    
16 Jun 2022 04:36:04.982    16 Jun 2022 04:43:19.527      434.54528149    
16 Jun 2022 11:14:03.532    16 Jun 2022 11:19:14.816      311.28360346    
16 Jun 2022 12:50:26.485    16 Jun 2022 12:58:13.578      467.09283806    
17 Jun 2022 02:20:42.419    17 Jun 2022 02:25:48.126      305.70733744    
17 Jun 2022 03:56:36.620    17 Jun 2022 04:04:20.745      464.12500815    
17 Jun 2022 10:35:33.396    17 Jun 2022 10:39:06.229      212.83242378    
17 Jun 2022 12:11:11.730    17 Jun 2022 12:19:09.927      478.19711140    
18 Jun 2022 01:43:02.602    18 Jun 2022 01:45:16.752      134.14992804    
18 Jun 2022 03:17:15.378    18 Jun 2022 03:25:16.412      481.03475160    
18 Jun 2022 11:32:01.605    18 Jun 2022 11:39:57.483      475.87776231    
18 Jun 2022 13:12:53.829    18 Jun 2022 13:13:15.344      21.515575878    
19 Jun 2022 02:38:01.043    19 Jun 2022 02:46:06.511      485.46791347    
19 Jun 2022 04:18:13.097    19 Jun 2022 04:21:39.765      206.66872632    
19 Jun 2022 10:52:55.553    19 Jun 2022 11:00:36.555      461.00172432    
19 Jun 2022 12:31:38.126    19 Jun 2022 12:36:18.082      279.95578260    
20 Jun 2022 01:58:53.885    20 Jun 2022 02:06:50.541      476.65535503    
20 Jun 2022 03:37:59.644    20 Jun 2022 03:43:09.343      309.69920971    
20 Jun 2022 10:13:53.508    20 Jun 2022 10:21:06.960      433.45230689    
20 Jun 2022 11:51:43.817    20 Jun 2022 11:57:56.281      372.46377007    
21 Jun 2022 01:19:54.762    21 Jun 2022 01:27:27.409      452.64726601    
21 Jun 2022 02:58:04.826    21 Jun 2022 03:04:22.553      377.72670232    
21 Jun 2022 09:34:55.990    21 Jun 2022 09:41:27.939      391.94903201    
21 Jun 2022 11:12:06.538    21 Jun 2022 11:19:14.072      427.53457973    
22 Jun 2022 00:41:05.559    22 Jun 2022 00:47:54.997      409.43790096    
22 Jun 2022 02:18:20.896    22 Jun 2022 02:25:26.974      426.07786080    
22 Jun 2022 08:56:04.587    22 Jun 2022 09:01:37.674      333.08633863    
22 Jun 2022 10:32:38.708    22 Jun 2022 10:40:18.795      460.08676813    
23 Jun 2022 00:02:30.661    23 Jun 2022 00:08:08.694      338.03304881    
23 Jun 2022 01:38:45.357    23 Jun 2022 01:46:24.908      459.55191795    
23 Jun 2022 08:17:23.956    23 Jun 2022 08:21:31.305      247.34824786    
23 Jun 2022 09:53:17.327    23 Jun 2022 10:01:13.206      475.87809046    
23 Jun 2022 23:24:24.922    23 Jun 2022 23:27:53.418      208.49662421    
24 Jun 2022 00:59:17.173    24 Jun 2022 01:07:17.179      480.00650393    
24 Jun 2022 07:39:23.208    24 Jun 2022 07:40:39.551      76.342782704    
24 Jun 2022 09:14:00.916    24 Jun 2022 09:21:58.541      477.62554534    
25 Jun 2022 00:19:55.993    25 Jun 2022 00:28:03.916      487.92280076    
25 Jun 2022 02:00:30.227    25 Jun 2022 02:03:20.723      170.49608601    
25 Jun 2022 08:34:48.741    25 Jun 2022 08:42:35.289      466.54742165    
25 Jun 2022 10:13:51.468    25 Jun 2022 10:17:51.942      240.47432179    
25 Jun 2022 23:40:41.957    25 Jun 2022 23:48:44.752      482.79561322    
26 Jun 2022 01:20:03.257    26 Jun 2022 01:24:53.244      289.98662301    
26 Jun 2022 07:55:40.592    26 Jun 2022 08:03:03.417      442.82473926    
26 Jun 2022 09:33:43.574    26 Jun 2022 09:39:35.015      351.44081184    


Number of events : 246


Observer: Cape_Town
Start Time (UTC)            Stop Time (UTC)               Duration (s)         
27 Apr 2022 13:49:59.178    27 Apr 2022 13:57:19.153      439.97456142    
27 Apr 2022 15:27:26.424    27 Apr 2022 15:34:54.177      447.75275550    
27 Apr 2022 17:08:29.584    27 Apr 2022 17:10:52.860      143.27587400    
27 Apr 2022 20:24:42.261    27 Apr 2022 20:30:43.357      361.09623624    
27 Apr 2022 22:01:34.219    27 Apr 2022 22:09:42.276      488.05789577    
28 Apr 2022 13:11:58.620    28 Apr 2022 13:18:35.852      397.23193750    
28 Apr 2022 14:48:45.517    28 Apr 2022 14:56:34.104      468.58725952    
28 Apr 2022 16:29:13.993    28 Apr 2022 16:32:49.795      215.80240899    
28 Apr 2022 19:46:28.044    28 Apr 2022 19:51:45.764      317.72015953    
28 Apr 2022 21:23:07.527    28 Apr 2022 21:31:15.438      487.91123248    
28 Apr 2022 23:02:23.871    28 Apr 2022 23:06:13.564      229.69297939    
29 Apr 2022 12:34:09.576    29 Apr 2022 12:39:41.175      331.59883098    
29 Apr 2022 14:10:08.244    29 Apr 2022 14:18:11.173      482.92908728    
29 Apr 2022 15:50:05.689    29 Apr 2022 15:54:39.635      273.94523383    
29 Apr 2022 19:08:14.916    29 Apr 2022 19:12:42.431      267.51489221    
29 Apr 2022 20:44:42.331    29 Apr 2022 20:52:42.435      480.10388509    
29 Apr 2022 22:23:09.676    29 Apr 2022 22:28:45.126      335.45039113    
30 Apr 2022 11:56:42.901    30 Apr 2022 12:00:24.170      221.26960172    
30 Apr 2022 13:31:34.856    30 Apr 2022 13:39:45.106      490.25025557    
30 Apr 2022 15:11:01.820    30 Apr 2022 15:16:25.491      323.67082882    
30 Apr 2022 18:30:03.953    30 Apr 2022 18:33:32.471      208.51797103    
30 Apr 2022 20:06:18.257    30 Apr 2022 20:14:03.573      465.31539786    
30 Apr 2022 21:44:14.464    30 Apr 2022 21:50:53.701      399.23678952    
01 May 2022 12:53:05.699    01 May 2022 13:01:15.502      489.80310388    
01 May 2022 14:32:01.619    01 May 2022 14:38:08.332      366.71247168    
01 May 2022 17:51:58.770    01 May 2022 17:54:12.518      133.74716733    
01 May 2022 19:27:55.044    01 May 2022 19:35:19.064      444.01926011    
01 May 2022 21:05:28.271    01 May 2022 21:12:49.147      440.87630353    
02 May 2022 12:14:41.281    02 May 2022 12:22:41.790      480.50911983    
02 May 2022 13:53:04.874    02 May 2022 13:59:48.523      403.64905562    
02 May 2022 18:49:32.524    02 May 2022 18:56:29.057      416.53277201    
02 May 2022 20:26:47.538    02 May 2022 20:34:34.920      467.38227209    
03 May 2022 11:36:22.377    03 May 2022 11:44:03.120      460.74352534    
03 May 2022 13:14:11.573    03 May 2022 13:21:26.175      434.60229373    
03 May 2022 14:55:40.956    03 May 2022 14:57:08.260      87.304089800    
03 May 2022 18:11:10.619    03 May 2022 18:17:33.648      383.02898415    
03 May 2022 19:48:10.469    03 May 2022 19:56:12.713      482.24353477    
04 May 2022 10:58:10.257    04 May 2022 11:05:18.136      427.87881412    
04 May 2022 12:35:21.804    04 May 2022 12:43:01.262      459.45822755    
04 May 2022 14:16:08.959    04 May 2022 14:19:08.319      179.36022930    
04 May 2022 17:32:49.360    04 May 2022 17:38:32.862      343.50231261    
04 May 2022 19:09:36.000    04 May 2022 19:17:43.493      487.49280284    
04 May 2022 20:49:54.707    04 May 2022 20:51:29.398      94.690425089    
05 May 2022 10:20:07.264    05 May 2022 10:26:24.405      377.14126651    
05 May 2022 11:56:35.713    05 May 2022 12:04:33.653      477.94034259    
05 May 2022 13:36:50.455    05 May 2022 13:40:55.077      244.62136446    
05 May 2022 16:54:28.952    05 May 2022 16:59:26.596      297.64391400    
05 May 2022 18:31:03.436    05 May 2022 18:39:07.862      484.42669690    
05 May 2022 20:09:56.385    05 May 2022 20:14:34.772      278.38653254    
06 May 2022 09:42:18.739    06 May 2022 09:47:16.498      297.75873466    
06 May 2022 11:17:53.509    06 May 2022 11:26:03.128      489.61865822    
06 May 2022 12:57:37.591    06 May 2022 13:02:36.688      299.09685070    
06 May 2022 16:16:09.969    06 May 2022 16:20:14.439      244.46986030    
06 May 2022 17:52:32.299    06 May 2022 18:00:26.219      473.91965522    
06 May 2022 19:30:45.296    06 May 2022 19:36:49.097      363.80110426    
07 May 2022 09:05:06.718    07 May 2022 09:07:32.283      145.56572875    
07 May 2022 10:39:15.481    07 May 2022 10:47:29.358      493.87730572    
07 May 2022 12:18:28.836    07 May 2022 12:24:14.927      346.09017450    
07 May 2022 15:37:54.011    07 May 2022 15:40:55.002      180.99139470    
07 May 2022 17:14:02.255    07 May 2022 17:21:38.835      456.57999966    
07 May 2022 18:51:47.923    07 May 2022 18:58:45.781      417.85748948    
08 May 2022 10:00:42.035    08 May 2022 10:08:51.872      489.83752836    
08 May 2022 11:39:23.749    08 May 2022 11:45:50.417      386.66814353    
08 May 2022 14:59:48.041    08 May 2022 15:01:21.603      93.561999744    
08 May 2022 16:35:33.070    08 May 2022 16:42:45.902      432.83166520    
08 May 2022 18:12:57.953    08 May 2022 18:20:31.025      453.07252554    
09 May 2022 09:22:13.777    09 May 2022 09:30:09.986      476.20862295    
09 May 2022 11:00:22.228    09 May 2022 11:07:23.384      421.15647172    
09 May 2022 15:57:04.598    09 May 2022 16:03:47.549      402.95174026    
09 May 2022 17:34:12.704    09 May 2022 17:42:07.397      474.69260824    
10 May 2022 08:43:51.663    10 May 2022 08:51:22.652      450.98968442    
10 May 2022 10:21:24.313    10 May 2022 10:28:53.864      449.55072968    
10 May 2022 12:02:29.543    10 May 2022 12:04:52.118      142.57512280    
10 May 2022 15:18:36.784    10 May 2022 15:24:43.854      367.06943011    
10 May 2022 16:55:30.717    10 May 2022 17:03:36.240      485.52313910    
11 May 2022 08:05:37.332    11 May 2022 08:12:28.128      410.79580385    
11 May 2022 09:42:30.117    11 May 2022 09:50:21.771      471.65380268    
11 May 2022 11:23:00.664    11 May 2022 11:26:36.946      216.28251633    
11 May 2022 14:40:09.700    11 May 2022 14:45:34.808      325.10888994    
11 May 2022 16:16:51.084    11 May 2022 16:24:58.349      487.26558873    
11 May 2022 17:56:18.371    11 May 2022 17:59:41.753      203.38237477    
12 May 2022 07:27:34.056    12 May 2022 07:33:23.032      348.97604197    
12 May 2022 09:03:39.808    12 May 2022 09:11:46.923      487.11462017    
12 May 2022 10:43:39.332    12 May 2022 10:48:14.697      275.36492633    
12 May 2022 14:01:43.632    12 May 2022 14:06:20.239      276.60688329    
12 May 2022 15:38:13.195    12 May 2022 15:46:14.228      481.03272517    
12 May 2022 17:16:45.537    12 May 2022 17:22:08.304      322.76694052    
13 May 2022 06:49:50.701    13 May 2022 06:53:58.388      247.68762568    
13 May 2022 08:24:53.623    13 May 2022 08:33:09.040      495.41641833    
13 May 2022 10:04:22.628    13 May 2022 10:09:48.558      325.92974114    
13 May 2022 13:23:19.375    13 May 2022 13:26:59.519      220.14405273    
13 May 2022 14:59:36.623    13 May 2022 15:07:24.210      467.58724168    
13 May 2022 16:37:35.863    13 May 2022 16:44:07.877      392.01409905    
14 May 2022 07:46:11.894    14 May 2022 07:54:27.718      495.82374520    
14 May 2022 09:25:09.780    14 May 2022 09:31:19.500      369.71915674    
14 May 2022 12:44:59.416    14 May 2022 12:47:30.392      150.97597054    
14 May 2022 14:21:01.062    14 May 2022 14:28:28.527      447.46449357    
14 May 2022 15:58:36.377    14 May 2022 16:05:53.313      436.93644265    
15 May 2022 07:07:35.106    15 May 2022 07:15:42.381      487.27447365    
15 May 2022 08:46:00.575    15 May 2022 08:52:47.877      407.30179745    
15 May 2022 12:07:05.578    15 May 2022 12:07:31.329      25.750976801    
15 May 2022 13:42:26.301    15 May 2022 13:49:27.337      421.03639342    
15 May 2022 15:19:42.917    15 May 2022 15:27:28.637      465.72070364    
16 May 2022 06:29:04.004    16 May 2022 06:36:52.175      468.17024464    
16 May 2022 08:06:54.999    16 May 2022 08:14:13.786      438.78623836    
16 May 2022 09:48:18.835    16 May 2022 09:50:01.864      103.02924339    
16 May 2022 13:03:52.214    16 May 2022 13:10:20.749      388.53582664    
16 May 2022 14:40:53.459    16 May 2022 14:48:55.737      482.27767982    
17 May 2022 05:50:39.818    17 May 2022 05:57:55.753      435.93542338    
17 May 2022 07:27:53.134    17 May 2022 07:35:37.180      464.04574730    
17 May 2022 09:08:38.207    17 May 2022 09:11:46.594      188.38673593    
17 May 2022 12:25:18.773    17 May 2022 12:31:08.813      350.03947383    
17 May 2022 14:02:06.821    17 May 2022 14:10:15.658      488.83720626    
17 May 2022 15:42:38.557    17 May 2022 15:43:46.330      67.772270890    
18 May 2022 05:12:24.806    18 May 2022 05:18:50.732      385.92616405    
18 May 2022 06:48:55.119    18 May 2022 06:56:57.910      482.79149561    
18 May 2022 08:29:08.573    18 May 2022 08:33:20.670      252.09767015    
18 May 2022 11:46:46.101    18 May 2022 11:51:51.479      305.37806317    
18 May 2022 13:23:22.236    18 May 2022 13:31:29.040      486.80376420    
18 May 2022 15:02:17.364    18 May 2022 15:06:51.758      274.39388358    
19 May 2022 04:34:24.054    19 May 2022 04:39:31.896      307.84227513    
19 May 2022 06:10:01.153    19 May 2022 06:18:15.734      494.58046085    
19 May 2022 07:49:44.196    19 May 2022 07:54:50.117      305.92123125    
19 May 2022 11:08:14.606    19 May 2022 11:12:28.468      253.86231967    
19 May 2022 12:44:39.175    19 May 2022 12:52:36.294      477.11856634    
19 May 2022 14:22:53.154    19 May 2022 14:28:56.391      363.23710800    
20 May 2022 03:56:57.201    20 May 2022 03:59:39.478      162.27627166    
20 May 2022 05:31:11.518    20 May 2022 05:39:30.298      498.78082720    
20 May 2022 07:10:23.845    20 May 2022 07:16:16.396      352.55166065    
20 May 2022 10:29:45.454    20 May 2022 10:32:58.809      193.35521443    
20 May 2022 12:05:57.261    20 May 2022 12:13:37.698      460.43705101    
20 May 2022 13:43:43.455    20 May 2022 13:50:42.561      419.10546098    
21 May 2022 04:52:26.616    21 May 2022 05:00:41.107      494.49125299    
21 May 2022 06:31:07.171    21 May 2022 06:37:40.020      392.84897967    
21 May 2022 09:51:23.026    21 May 2022 09:53:18.378      115.35222492    
21 May 2022 11:27:16.225    21 May 2022 11:34:33.448      437.22247509    
21 May 2022 13:04:41.459    21 May 2022 13:12:16.930      455.47080481    
22 May 2022 04:13:47.057    22 May 2022 04:21:47.442      480.38495472    
22 May 2022 05:51:54.116    22 May 2022 05:59:01.156      427.04027920    
22 May 2022 07:33:41.988    22 May 2022 07:34:32.692      50.703865243    
22 May 2022 10:48:35.890    22 May 2022 10:55:23.683      407.79236227    
22 May 2022 12:25:44.332    22 May 2022 12:33:42.188      477.85610037    
23 May 2022 03:35:13.816    23 May 2022 03:42:48.213      454.39686802    
23 May 2022 05:12:44.740    23 May 2022 05:20:19.803      455.06278424    
23 May 2022 06:53:43.469    23 May 2022 06:56:23.431      159.96240119    
23 May 2022 10:09:56.167    23 May 2022 10:16:08.494      372.32737346    
23 May 2022 11:46:50.542    23 May 2022 11:54:59.726      489.18346519    
24 May 2022 02:56:48.589    24 May 2022 03:03:41.601      413.01207973    
24 May 2022 04:33:39.169    24 May 2022 04:41:35.847      476.67777180    
24 May 2022 06:14:05.265    24 May 2022 06:17:54.027      228.76139780    
24 May 2022 09:31:17.079    24 May 2022 09:36:47.910      330.83052048    
24 May 2022 11:07:59.145    24 May 2022 11:16:10.359      491.21421635    
24 May 2022 12:47:22.497    24 May 2022 12:50:57.068      214.57070110    
25 May 2022 02:18:34.801    25 May 2022 02:24:24.054      349.25274127    
25 May 2022 03:54:37.585    25 May 2022 04:02:49.083      491.49796085    
25 May 2022 05:34:33.251    25 May 2022 05:39:18.940      285.68931523    
25 May 2022 08:52:38.844    25 May 2022 08:57:21.827      282.98259492    
25 May 2022 10:29:09.506    25 May 2022 10:37:14.603      485.09653648    
25 May 2022 12:07:39.489    25 May 2022 12:13:10.661      331.17181943    
26 May 2022 01:40:41.979    26 May 2022 01:44:45.924      243.94519853    
26 May 2022 03:15:40.239    26 May 2022 03:23:59.207      498.96784024    
26 May 2022 04:55:05.484    26 May 2022 05:00:40.383      334.89819575    
26 May 2022 08:14:02.095    26 May 2022 08:17:49.789      227.69354313    
26 May 2022 09:50:21.182    26 May 2022 09:58:12.799      471.61749353    
26 May 2022 11:28:18.599    26 May 2022 11:34:58.189      399.59066886    
27 May 2022 02:36:47.486    27 May 2022 02:45:05.788      498.30209124    
27 May 2022 04:15:41.454    27 May 2022 04:21:59.077      377.62261794    
27 May 2022 07:35:28.763    27 May 2022 07:38:10.113      161.34960197    
27 May 2022 09:11:33.857    27 May 2022 09:19:05.190      451.33267567    
27 May 2022 10:49:07.685    27 May 2022 10:56:31.659      443.97436307    
28 May 2022 01:57:59.850    28 May 2022 02:06:08.214      488.36432422    
28 May 2022 03:36:21.054    28 May 2022 03:43:15.278      414.22420226    
28 May 2022 06:57:09.961    28 May 2022 06:58:12.006      62.044847407    
28 May 2022 08:32:47.316    28 May 2022 08:39:51.950      424.63451405    
28 May 2022 10:10:02.718    28 May 2022 10:17:54.967      472.24884321    
29 May 2022 01:19:18.139    29 May 2022 01:27:05.570      467.43108745    
29 May 2022 02:57:04.331    29 May 2022 03:04:29.034      444.70309516    
29 May 2022 04:38:16.727    29 May 2022 04:40:25.922      129.19555753    
29 May 2022 07:54:01.427    29 May 2022 08:00:33.207      391.78052747    
29 May 2022 09:31:01.718    29 May 2022 09:39:09.963      488.24473154    
30 May 2022 00:40:43.709    30 May 2022 00:47:56.395      432.68619790    
30 May 2022 02:17:51.407    30 May 2022 02:25:40.270      468.86313152    
30 May 2022 03:58:29.246    30 May 2022 04:01:53.871      204.62480070    
30 May 2022 07:15:16.160    30 May 2022 07:21:09.041      352.88072086    
30 May 2022 08:52:03.525    30 May 2022 09:00:17.684      494.15882577    
30 May 2022 10:32:07.483    30 May 2022 10:34:16.729      129.24600894    
31 May 2022 00:02:19.102    31 May 2022 00:08:38.031      378.92812692    
31 May 2022 01:38:42.457    31 May 2022 01:46:48.817      486.36057327    
31 May 2022 03:18:49.617    31 May 2022 03:23:14.428      264.81079302    
31 May 2022 06:36:31.629    31 May 2022 06:41:39.445      307.81573980    
31 May 2022 08:13:07.390    31 May 2022 08:21:18.770      491.37965783    
31 May 2022 09:51:54.922    31 May 2022 09:56:49.983      295.06159140    
31 May 2022 23:24:10.324    31 May 2022 23:29:04.361      294.03683458    
01 Jun 2022 00:59:37.714    01 Jun 2022 01:07:54.412      496.69788267    
01 Jun 2022 02:39:14.619    01 Jun 2022 02:44:31.130      316.51101614    
01 Jun 2022 05:57:48.220    01 Jun 2022 06:02:04.202      255.98152494    
01 Jun 2022 07:34:12.799    01 Jun 2022 07:42:13.640      480.84041738    
01 Jun 2022 09:12:21.740    01 Jun 2022 09:18:40.000      378.25989949    
01 Jun 2022 22:46:45.894    01 Jun 2022 22:48:46.757      120.86254003    
02 Jun 2022 00:20:37.502    02 Jun 2022 00:28:56.678      499.17660935    
02 Jun 2022 01:59:43.491    02 Jun 2022 02:05:44.994      361.50286908    
02 Jun 2022 05:19:07.029    02 Jun 2022 05:22:22.456      195.42722498    
02 Jun 2022 06:55:19.390    02 Jun 2022 07:03:02.584      463.19310061    
02 Jun 2022 08:33:01.720    02 Jun 2022 08:40:12.872      431.15192520    
02 Jun 2022 23:41:42.280    02 Jun 2022 23:49:55.080      492.79979918    
03 Jun 2022 01:20:16.057    03 Jun 2022 01:26:56.381      400.32417581    
03 Jun 2022 04:40:32.089    03 Jun 2022 04:42:30.488      118.39830230    
03 Jun 2022 06:16:26.911    03 Jun 2022 06:23:45.812      438.90048035    
03 Jun 2022 07:53:48.991    03 Jun 2022 08:01:34.348      465.35698761    
03 Jun 2022 23:02:52.744    03 Jun 2022 23:10:48.830      476.08529645    
04 Jun 2022 00:40:52.345    04 Jun 2022 00:48:05.394      433.04952291    
04 Jun 2022 02:22:20.496    04 Jun 2022 02:23:52.538      92.042244924    
04 Jun 2022 05:37:35.199    04 Jun 2022 05:44:23.480      408.28097389    
04 Jun 2022 07:14:40.980    04 Jun 2022 07:22:46.879      485.89870725    
04 Jun 2022 22:24:10.019    04 Jun 2022 22:31:36.702      446.68289168    
05 Jun 2022 00:01:32.467    05 Jun 2022 00:09:11.993      459.52607570    
05 Jun 2022 01:42:21.745    05 Jun 2022 01:45:20.448      178.70316248    
05 Jun 2022 04:58:44.184    05 Jun 2022 05:04:55.699      371.51444881    
05 Jun 2022 06:35:36.266    05 Jun 2022 06:43:51.767      495.50066841    
05 Jun 2022 21:45:36.114    05 Jun 2022 21:52:16.578      400.46454670    
05 Jun 2022 23:22:16.588    05 Jun 2022 23:30:16.036      479.44833110    
06 Jun 2022 01:02:34.500    06 Jun 2022 01:06:37.322      242.82170143    
06 Jun 2022 04:19:53.916    06 Jun 2022 04:25:22.510      328.59387343    
06 Jun 2022 05:56:33.961    06 Jun 2022 06:04:49.788      495.82722631    
06 Jun 2022 07:35:41.295    06 Jun 2022 07:39:54.570      253.27478010    
06 Jun 2022 21:07:15.319    06 Jun 2022 21:12:44.057      328.73775184    
06 Jun 2022 22:43:04.926    06 Jun 2022 22:51:17.292      492.36558150    
07 Jun 2022 00:22:52.554    07 Jun 2022 00:27:49.722      297.16850796    
07 Jun 2022 03:41:04.651    07 Jun 2022 03:45:43.810      279.15906123    
07 Jun 2022 05:17:33.468    07 Jun 2022 05:25:41.441      487.97243902    
07 Jun 2022 06:55:54.303    07 Jun 2022 07:01:49.072      354.76832001    
07 Jun 2022 20:29:21.573    07 Jun 2022 20:32:45.083      203.51087720    
07 Jun 2022 22:03:57.774    07 Jun 2022 22:12:15.420      497.64688017    
07 Jun 2022 23:43:14.702    07 Jun 2022 23:48:59.131      344.42851804    
08 Jun 2022 03:02:17.119    08 Jun 2022 03:05:59.090      221.97103532    
08 Jun 2022 04:38:34.372    08 Jun 2022 04:46:27.061      472.68971790    
08 Jun 2022 06:16:25.114    08 Jun 2022 06:23:21.925      416.81036461    
08 Jun 2022 21:24:55.538    08 Jun 2022 21:33:09.939      494.40089031    
08 Jun 2022 23:03:40.650    08 Jun 2022 23:10:06.055      385.40496264    
09 Jun 2022 02:23:33.610    09 Jun 2022 02:26:06.349      152.73858765    
09 Jun 2022 03:59:36.376    09 Jun 2022 04:07:06.887      450.51067531    
09 Jun 2022 05:37:04.855    09 Jun 2022 05:44:41.873      457.01878695    
09 Jun 2022 20:45:58.824    09 Jun 2022 20:54:00.147      481.32301824    
09 Jun 2022 22:24:10.380    09 Jun 2022 22:31:10.656      420.27596264    
10 Jun 2022 00:06:07.702    10 Jun 2022 00:06:33.793      26.090782089    
10 Jun 2022 01:45:11.805    10 Jun 2022 01:45:48.266      36.460963846    
10 Jun 2022 03:20:39.285    10 Jun 2022 03:27:41.091      421.80601369    
10 Jun 2022 04:57:50.157    10 Jun 2022 05:05:52.156      481.99890505    
10 Jun 2022 20:07:08.589    10 Jun 2022 20:14:44.981      456.39180320    
10 Jun 2022 21:44:43.985    10 Jun 2022 21:52:12.926      448.94133692    
10 Jun 2022 23:25:45.275    10 Jun 2022 23:28:14.847      149.57194728    
11 Jun 2022 02:41:42.992    11 Jun 2022 02:48:09.797      386.80500942    
11 Jun 2022 04:18:39.277    11 Jun 2022 04:26:54.388      495.11075998    
11 Jun 2022 19:28:26.484    11 Jun 2022 19:35:22.669      416.18582660    
11 Jun 2022 21:05:21.611    11 Jun 2022 21:13:12.745      471.13406004    
11 Jun 2022 22:45:49.967    11 Jun 2022 22:49:29.243      219.27609168    
12 Jun 2022 02:02:47.500    12 Jun 2022 02:08:33.067      345.56680270    
12 Jun 2022 03:39:31.163    12 Jun 2022 03:47:49.497      498.33408570    
12 Jun 2022 05:19:02.215    12 Jun 2022 05:22:24.502      202.28720022    
12 Jun 2022 18:49:55.807    12 Jun 2022 18:55:49.788      353.98100219    
12 Jun 2022 20:26:03.458    12 Jun 2022 20:34:09.902      486.44432954    
12 Jun 2022 22:06:01.179    12 Jun 2022 22:10:37.946      276.76614553    
13 Jun 2022 01:23:52.989    13 Jun 2022 01:28:50.848      297.85939953    
13 Jun 2022 03:00:25.121    13 Jun 2022 03:08:38.061      492.93981772    
13 Jun 2022 04:38:58.396    13 Jun 2022 04:44:26.988      328.59199347    
13 Jun 2022 18:11:45.502    13 Jun 2022 18:15:57.267      251.76453382    
13 Jun 2022 19:46:49.787    13 Jun 2022 19:55:04.083      494.29618201    
13 Jun 2022 21:26:16.839    13 Jun 2022 21:31:43.325      326.48526896    
14 Jun 2022 00:45:00.002    14 Jun 2022 00:49:02.786      242.78451595    
14 Jun 2022 02:21:20.672    14 Jun 2022 02:29:20.461      479.78877132    
14 Jun 2022 03:59:19.788    14 Jun 2022 04:06:00.506      400.71835052    
14 Jun 2022 19:07:40.962    14 Jun 2022 19:15:54.843      493.88132432    
14 Jun 2022 20:46:36.434    14 Jun 2022 20:52:46.117      369.68287054    
15 Jun 2022 00:06:10.142    15 Jun 2022 00:09:07.538      177.39563053    
15 Jun 2022 01:42:17.478    15 Jun 2022 01:49:56.960      459.48165738    
15 Jun 2022 03:19:52.111    15 Jun 2022 03:27:19.196      447.08516300    
15 Jun 2022 18:28:37.517    15 Jun 2022 18:36:41.548      484.03084780    
15 Jun 2022 20:06:59.870    15 Jun 2022 20:13:46.570      406.69971487    
15 Jun 2022 23:27:30.873    15 Jun 2022 23:28:57.975      87.102359603    
16 Jun 2022 01:03:15.308    16 Jun 2022 01:10:27.745      432.43667325    
16 Jun 2022 02:40:30.920    16 Jun 2022 02:48:27.363      476.44336727    
16 Jun 2022 17:49:40.282    16 Jun 2022 17:57:23.248      462.96589184    
16 Jun 2022 19:27:27.207    16 Jun 2022 19:34:44.718      437.51119719    
16 Jun 2022 21:08:42.521    16 Jun 2022 21:10:37.330      114.80887831    
17 Jun 2022 00:24:14.025    17 Jun 2022 00:30:52.946      398.92070261    
17 Jun 2022 02:01:14.077    17 Jun 2022 02:09:27.004      492.92769906    
17 Jun 2022 17:10:50.657    17 Jun 2022 17:17:58.417      427.75987240    
17 Jun 2022 18:47:58.572    17 Jun 2022 18:55:40.469      461.89681445    
17 Jun 2022 20:28:37.488    17 Jun 2022 20:31:51.330      193.84256720    
17 Jun 2022 23:45:13.601    17 Jun 2022 23:51:12.635      359.03373077    
18 Jun 2022 01:22:00.343    18 Jun 2022 01:30:19.223      498.87928680    
18 Jun 2022 03:02:03.990    18 Jun 2022 03:04:16.052      132.06159981    
18 Jun 2022 16:32:11.310    18 Jun 2022 16:38:24.253      372.94316548    
18 Jun 2022 18:08:34.145    18 Jun 2022 18:16:33.633      479.48728495    
18 Jun 2022 19:48:41.574    18 Jun 2022 19:52:56.983      255.40985075    
18 Jun 2022 23:06:14.169    18 Jun 2022 23:11:26.782      312.61321177    
19 Jun 2022 00:42:48.925    19 Jun 2022 00:51:04.689      495.76398107    
19 Jun 2022 02:21:35.453    19 Jun 2022 02:26:34.586      299.13294265    
19 Jun 2022 15:53:48.705    19 Jun 2022 15:58:34.158      285.45267399    
19 Jun 2022 17:29:14.167    19 Jun 2022 17:37:23.921      489.75437590    
19 Jun 2022 19:08:50.708    19 Jun 2022 19:13:58.676      307.96773462    
19 Jun 2022 22:27:16.174    19 Jun 2022 22:31:35.109      258.93443936    
20 Jun 2022 00:03:39.278    20 Jun 2022 00:11:43.836      484.55765859    
20 Jun 2022 01:41:46.788    20 Jun 2022 01:48:09.534      382.74509349    
20 Jun 2022 15:16:18.244    20 Jun 2022 15:17:52.596      94.351926434    
20 Jun 2022 16:49:58.968    20 Jun 2022 16:58:10.925      491.95734310    
20 Jun 2022 18:29:03.990    20 Jun 2022 18:34:57.554      353.56368211    
20 Jun 2022 21:48:20.900    20 Jun 2022 21:51:36.574      195.67410242    
20 Jun 2022 23:24:31.025    20 Jun 2022 23:32:16.958      465.93310033    
21 Jun 2022 01:02:11.606    21 Jun 2022 01:09:27.141      435.53530737    
21 Jun 2022 16:10:49.030    21 Jun 2022 16:18:54.064      485.03399282    
21 Jun 2022 17:49:21.204    21 Jun 2022 17:55:54.007      392.80323302    
21 Jun 2022 21:09:33.351    21 Jun 2022 21:11:26.489      113.13801035    
21 Jun 2022 22:45:23.904    21 Jun 2022 22:52:44.260      440.35585209    
22 Jun 2022 00:22:43.954    22 Jun 2022 00:30:33.220      469.26580014    
22 Jun 2022 15:31:45.092    22 Jun 2022 15:39:32.483      467.39087381    
22 Jun 2022 17:09:42.361    22 Jun 2022 17:16:48.136      425.77557826    
22 Jun 2022 18:51:17.662    22 Jun 2022 18:52:24.772      67.109510454    
22 Jun 2022 22:06:17.758    22 Jun 2022 22:13:05.884      408.12646482    
22 Jun 2022 23:43:21.217    22 Jun 2022 23:51:30.245      489.02795815    
23 Jun 2022 14:52:48.375    23 Jun 2022 15:00:04.840      436.46481946    
23 Jun 2022 16:30:07.567    23 Jun 2022 16:37:39.890      452.32214708    
23 Jun 2022 18:10:57.573    23 Jun 2022 18:13:43.910      166.33756621    
23 Jun 2022 21:27:12.539    23 Jun 2022 21:33:21.914      369.37465203    
23 Jun 2022 23:04:01.949    23 Jun 2022 23:12:19.530      497.58137120    
24 Jun 2022 14:14:01.119    24 Jun 2022 14:20:28.766      387.64608594    
24 Jun 2022 15:50:36.990    24 Jun 2022 15:58:29.109      472.11906934    
24 Jun 2022 17:30:53.877    24 Jun 2022 17:34:47.375      233.49808410    
24 Jun 2022 20:48:08.356    24 Jun 2022 20:53:32.335      323.97923372    
24 Jun 2022 22:24:45.246    24 Jun 2022 22:33:01.855      496.60909065    
25 Jun 2022 00:03:46.229    25 Jun 2022 00:08:11.974      265.74497059    
25 Jun 2022 13:35:28.343    25 Jun 2022 13:40:39.113      310.77067154    
25 Jun 2022 15:11:10.853    25 Jun 2022 15:19:15.537      484.68401735    
25 Jun 2022 16:50:56.332    25 Jun 2022 16:55:45.756      289.42434640    
25 Jun 2022 20:09:05.603    25 Jun 2022 20:13:36.914      271.31060155    
25 Jun 2022 21:45:30.507    25 Jun 2022 21:53:37.719      487.21198373    
25 Jun 2022 23:23:46.506    25 Jun 2022 23:29:49.443      362.93723158    


Number of events : 337


Observer: Hawaii
Start Time (UTC)            Stop Time (UTC)               Duration (s)         
27 Apr 2022 12:58:59.639    27 Apr 2022 13:07:05.180      485.54173907    
27 Apr 2022 14:39:28.460    27 Apr 2022 14:42:10.802      162.34201575    
27 Apr 2022 21:18:21.718    27 Apr 2022 21:22:12.663      230.94524138    
27 Apr 2022 22:54:00.167    27 Apr 2022 23:02:01.532      481.36492105    
28 Apr 2022 12:20:44.227    28 Apr 2022 12:28:31.585      467.35772830    
28 Apr 2022 13:59:47.260    28 Apr 2022 14:04:44.896      297.63641021    
28 Apr 2022 22:15:30.175    28 Apr 2022 22:23:40.453      490.27863974    
29 Apr 2022 11:42:37.470    29 Apr 2022 11:49:48.983      431.51289972    
29 Apr 2022 13:20:35.498    29 Apr 2022 13:26:51.101      375.60281209    
29 Apr 2022 21:37:05.194    29 Apr 2022 21:45:10.270      485.07538014    
30 Apr 2022 11:04:42.362    30 Apr 2022 11:10:54.139      371.77668745    
30 Apr 2022 12:41:37.342    30 Apr 2022 12:48:44.979      427.63670274    
30 Apr 2022 20:58:44.980    30 Apr 2022 21:06:30.960      465.98041450    
30 Apr 2022 22:37:36.492    30 Apr 2022 22:42:13.388      276.89621423    
01 May 2022 10:27:07.320    01 May 2022 10:31:38.393      271.07326534    
01 May 2022 12:02:48.697    01 May 2022 12:10:30.361      461.66369329    
01 May 2022 20:20:29.932    01 May 2022 20:27:41.850      431.91816463    
01 May 2022 21:58:20.850    01 May 2022 22:04:37.080      376.23079632    
02 May 2022 11:24:07.913    02 May 2022 11:32:08.629      480.71628339    
02 May 2022 19:42:21.453    02 May 2022 19:48:41.258      379.80469378    
02 May 2022 21:19:23.741    02 May 2022 21:26:39.202      435.46049354    
03 May 2022 10:45:34.358    03 May 2022 10:53:40.158      485.79991824    
03 May 2022 19:04:23.371    03 May 2022 19:09:25.072      301.70063549    
03 May 2022 20:40:36.859    03 May 2022 20:48:27.813      470.95427796    
04 May 2022 10:07:08.067    04 May 2022 10:15:04.656      476.58899078    
04 May 2022 11:46:57.602    04 May 2022 11:50:40.732      223.12991652    
04 May 2022 18:26:51.002    04 May 2022 18:29:37.690      166.68736408    
04 May 2022 20:01:57.065    04 May 2022 20:10:05.801      488.73598755    
05 May 2022 09:28:49.778    05 May 2022 09:36:21.137      451.35863232    
05 May 2022 11:07:24.953    05 May 2022 11:12:54.161      329.20790997    
05 May 2022 19:23:22.897    05 May 2022 19:31:34.372      491.47475859    
06 May 2022 08:50:41.364    06 May 2022 08:57:27.478      406.11410744    
06 May 2022 10:28:12.828    06 May 2022 10:34:48.718      395.89082943    
06 May 2022 18:44:53.736    06 May 2022 18:52:53.881      480.14459442    
06 May 2022 20:24:36.633    06 May 2022 20:27:38.003      181.37003439    
07 May 2022 08:12:47.436    07 May 2022 08:18:18.821      331.38496169    
07 May 2022 09:49:12.490    07 May 2022 09:56:32.865      440.37456616    
07 May 2022 18:06:29.596    07 May 2022 18:14:04.037      454.44069636    
07 May 2022 19:44:51.440    07 May 2022 19:50:20.436      328.99557017    
08 May 2022 07:35:24.860    08 May 2022 07:38:38.049      193.18897206    
08 May 2022 09:10:21.057    08 May 2022 09:18:09.204      468.14638262    
08 May 2022 17:28:11.249    08 May 2022 17:35:03.784      412.53529508    
08 May 2022 19:05:39.531    08 May 2022 19:12:26.846      407.31530195    
09 May 2022 08:31:37.338    09 May 2022 08:39:38.649      481.31156657    
09 May 2022 16:50:00.893    09 May 2022 16:55:50.628      349.73477981    
09 May 2022 18:26:41.507    09 May 2022 18:34:16.372      454.86493623    
10 May 2022 07:53:00.981    10 May 2022 08:01:01.277      480.29593671    
10 May 2022 09:33:57.678    10 May 2022 09:35:39.477      101.79851021    
10 May 2022 16:12:05.129    10 May 2022 16:16:17.668      252.53876236    
10 May 2022 17:47:52.170    10 May 2022 17:55:53.947      481.77728114    
11 May 2022 07:14:32.307    11 May 2022 07:22:16.493      464.18619615    
11 May 2022 08:53:46.098    11 May 2022 08:58:19.045      272.94672191    
11 May 2022 17:09:09.279    11 May 2022 17:17:21.539      492.25996134    
12 May 2022 06:36:12.496    12 May 2022 06:43:22.847      430.35053993    
12 May 2022 08:14:18.036    12 May 2022 08:20:17.045      359.00919044    
12 May 2022 16:30:31.788    12 May 2022 16:38:39.914      488.12655959    
13 May 2022 05:58:04.404    13 May 2022 06:04:17.212      372.80750532    
13 May 2022 07:35:05.653    13 May 2022 07:42:01.019      415.36511716    
13 May 2022 15:51:59.365    13 May 2022 15:59:49.109      469.74408380    
13 May 2022 17:30:56.627    13 May 2022 17:35:23.098      266.47118654    
14 May 2022 05:20:16.008    14 May 2022 05:24:51.336      275.32825980    
14 May 2022 06:56:03.674    14 May 2022 07:03:35.938      452.26325142    
14 May 2022 15:13:32.351    14 May 2022 15:20:48.481      436.13043528    
14 May 2022 16:51:26.383    14 May 2022 16:57:37.870      371.48700604    
15 May 2022 06:17:10.089    15 May 2022 06:25:03.507      473.41846603    
15 May 2022 14:35:12.088    15 May 2022 14:41:36.373      384.28562370    
15 May 2022 16:12:16.435    15 May 2022 16:19:29.529      433.09331102    
16 May 2022 05:38:24.105    16 May 2022 05:46:24.218      480.11318995    
16 May 2022 13:57:02.306    16 May 2022 14:02:08.732      306.42562840    
16 May 2022 15:33:17.401    16 May 2022 15:41:07.169      469.76872376    
17 May 2022 04:59:45.674    17 May 2022 05:07:37.821      472.14732495    
17 May 2022 06:39:43.432    17 May 2022 06:43:04.583      201.15078294    
17 May 2022 13:19:17.748    17 May 2022 13:22:10.491      172.74283724    
17 May 2022 14:54:25.859    17 May 2022 15:02:33.922      488.06283125    
18 May 2022 04:21:15.487    18 May 2022 04:28:43.329      447.84170907    
18 May 2022 05:59:54.393    18 May 2022 06:05:11.277      316.88368153    
18 May 2022 14:15:40.229    18 May 2022 14:23:51.070      490.84087737    
19 May 2022 03:42:55.411    19 May 2022 03:49:38.585      403.17456363    
19 May 2022 05:20:28.897    19 May 2022 05:26:56.242      387.34503428    
19 May 2022 13:36:59.834    19 May 2022 13:44:58.982      479.14818217    
19 May 2022 15:16:44.500    19 May 2022 15:19:39.330      174.82969193    
20 May 2022 03:04:50.128    20 May 2022 03:10:18.617      328.48935717    
20 May 2022 04:41:16.045    20 May 2022 04:48:30.058      434.01318099    
20 May 2022 12:58:24.674    20 May 2022 13:05:57.345      452.67040195    
20 May 2022 14:36:45.881    20 May 2022 14:42:12.448      326.56673351    
21 May 2022 02:27:17.168    21 May 2022 02:30:25.605      188.43702734    
21 May 2022 04:02:12.524    21 May 2022 04:09:55.718      463.19441384    
21 May 2022 12:19:55.560    21 May 2022 12:26:45.025      409.46554175    
21 May 2022 13:57:22.230    21 May 2022 14:04:07.875      405.64425200    
22 May 2022 03:23:16.992    22 May 2022 03:31:14.251      477.25867321    
22 May 2022 11:41:34.861    22 May 2022 11:47:19.325      344.46398575    
22 May 2022 13:18:12.859    22 May 2022 13:25:46.005      453.14599690    
23 May 2022 02:44:29.041    23 May 2022 02:52:25.757      476.71603194    
23 May 2022 04:25:31.312    23 May 2022 04:26:56.131      84.818789398    
23 May 2022 11:03:29.987    23 May 2022 11:07:32.504      242.51689897    
23 May 2022 12:39:12.380    23 May 2022 12:47:11.931      479.55094257    
24 May 2022 02:05:48.987    24 May 2022 02:13:29.623      460.63584324    
24 May 2022 03:45:01.883    24 May 2022 03:49:30.696      268.81319537    
24 May 2022 12:00:18.497    24 May 2022 12:08:27.655      489.15811077    
25 May 2022 01:27:18.067    25 May 2022 01:34:24.319      426.25182982    
25 May 2022 03:05:21.361    25 May 2022 03:11:18.301      356.93953950    
25 May 2022 11:21:30.151    25 May 2022 11:29:33.931      483.77994800    
26 May 2022 00:48:59.332    26 May 2022 00:55:06.505      367.17342554    
26 May 2022 02:25:57.077    26 May 2022 02:32:51.304      414.22737093    
26 May 2022 10:42:47.044    26 May 2022 10:50:30.751      463.70713172    
26 May 2022 12:21:38.945    26 May 2022 12:26:08.788      269.84248627    
27 May 2022 00:11:01.602    27 May 2022 00:15:27.080      265.47821327    
27 May 2022 01:46:43.451    27 May 2022 01:54:14.970      451.51881678    
27 May 2022 10:04:09.610    27 May 2022 10:11:17.370      427.76051110    
27 May 2022 11:41:58.380    27 May 2022 11:48:10.947      372.56739051    
28 May 2022 01:07:38.406    28 May 2022 01:15:31.068      472.66134191    
28 May 2022 09:25:39.437    28 May 2022 09:31:51.878      372.44035093    
28 May 2022 11:02:37.766    28 May 2022 11:09:50.258      432.49138937    
29 May 2022 00:28:41.149    29 May 2022 00:36:40.090      478.94117074    
29 May 2022 08:47:21.092    29 May 2022 08:52:09.387      288.29505133    
29 May 2022 10:23:28.015    29 May 2022 10:31:15.524      467.50848878    
29 May 2022 23:49:51.673    29 May 2022 23:57:41.752      470.07877696    
30 May 2022 01:29:40.943    30 May 2022 01:33:13.487      212.54484487    
30 May 2022 08:09:36.483    30 May 2022 08:11:47.670      131.18708767    
30 May 2022 09:44:25.792    30 May 2022 09:52:29.796      484.00413928    
30 May 2022 23:11:10.773    30 May 2022 23:18:34.973      444.19925435    
31 May 2022 00:49:42.263    31 May 2022 00:55:06.871      324.60799998    
31 May 2022 09:05:29.574    31 May 2022 09:13:34.304      484.73012263    
31 May 2022 22:32:40.555    31 May 2022 22:39:17.369      396.81330262    
01 Jun 2022 00:10:06.055    01 Jun 2022 00:16:39.630      393.57543042    
01 Jun 2022 08:26:38.764    01 Jun 2022 08:34:29.354      470.59003450    
01 Jun 2022 10:06:09.240    01 Jun 2022 10:09:23.167      193.92726361    
01 Jun 2022 21:54:26.440    01 Jun 2022 21:59:43.244      316.80343717    
01 Jun 2022 23:30:42.362    01 Jun 2022 23:38:01.418      439.05516984    
02 Jun 2022 07:47:53.488    02 Jun 2022 07:55:14.516      441.02767316    
02 Jun 2022 09:26:05.093    02 Jun 2022 09:31:38.884      333.79084188    
02 Jun 2022 21:16:51.602    02 Jun 2022 21:19:29.147      157.54512527    
02 Jun 2022 22:51:28.069    02 Jun 2022 22:59:15.049      466.98001114    
03 Jun 2022 07:09:14.818    03 Jun 2022 07:15:48.407      393.58894058    
03 Jun 2022 08:46:32.182    03 Jun 2022 08:53:20.657      408.47555799    
03 Jun 2022 22:12:21.932    03 Jun 2022 22:20:21.467      479.53461829    
04 Jun 2022 06:30:45.843    04 Jun 2022 06:36:07.622      321.77929846    
04 Jun 2022 08:07:12.961    04 Jun 2022 08:14:45.753      452.79255887    
04 Jun 2022 21:33:23.640    04 Jun 2022 21:41:20.693      477.05353702    
04 Jun 2022 23:13:56.117    04 Jun 2022 23:16:16.129      140.01234910    
05 Jun 2022 05:52:37.498    05 Jun 2022 05:56:00.906      203.40834085    
05 Jun 2022 07:28:02.493    05 Jun 2022 07:35:58.827      476.33417296    
05 Jun 2022 20:54:33.642    05 Jun 2022 21:02:11.993      458.35079164    
05 Jun 2022 22:33:32.315    05 Jun 2022 22:38:22.742      290.42714378    
06 Jun 2022 06:48:58.655    06 Jun 2022 06:57:01.713      483.05809546    
06 Jun 2022 20:15:53.427    06 Jun 2022 20:22:53.596      420.16904246    
06 Jun 2022 21:53:43.766    06 Jun 2022 21:59:56.211      372.44522322    
07 Jun 2022 06:10:00.515    07 Jun 2022 06:17:55.051      474.53580337    
07 Jun 2022 07:50:44.927    07 Jun 2022 07:51:29.987      45.059949090    
07 Jun 2022 19:37:26.680    07 Jun 2022 19:43:21.536      354.85622155    
07 Jun 2022 21:14:10.258    07 Jun 2022 21:21:16.439      426.18095947    
08 Jun 2022 05:31:07.917    08 Jun 2022 05:38:38.688      450.77153376    
08 Jun 2022 07:09:44.120    08 Jun 2022 07:14:32.856      288.73576603    
08 Jun 2022 18:59:25.026    08 Jun 2022 19:03:23.907      238.88096705    
08 Jun 2022 20:34:47.164    08 Jun 2022 20:42:27.744      460.58006786    
09 Jun 2022 04:52:21.541    09 Jun 2022 04:59:11.628      410.08729613    
09 Jun 2022 06:29:57.389    09 Jun 2022 06:36:19.139      381.74984485    
09 Jun 2022 19:55:32.703    09 Jun 2022 20:03:31.598      478.89489698    
10 Jun 2022 04:13:43.571    10 Jun 2022 04:19:31.364      347.79329969    
10 Jun 2022 05:50:28.516    10 Jun 2022 05:57:44.763      436.24640635    
10 Jun 2022 19:16:26.250    10 Jun 2022 19:24:28.320      482.07022803    
11 Jun 2022 03:35:20.779    11 Jun 2022 03:39:30.787      250.00761221    
11 Jun 2022 05:11:09.942    11 Jun 2022 05:18:56.992      467.05034338    
11 Jun 2022 18:37:27.963    11 Jun 2022 18:45:17.452      469.48874515    
11 Jun 2022 20:16:53.404    11 Jun 2022 20:21:07.315      253.91098981    
12 Jun 2022 04:31:58.739    12 Jun 2022 04:39:58.455      479.71523898    
12 Jun 2022 17:58:38.891    12 Jun 2022 18:05:57.647      438.75580074    
12 Jun 2022 19:36:51.820    12 Jun 2022 19:42:42.756      350.93614688    
13 Jun 2022 03:52:53.589    13 Jun 2022 04:00:50.162      476.57365944    
13 Jun 2022 17:20:01.696    13 Jun 2022 17:26:25.946      384.25037067    
13 Jun 2022 18:57:08.713    13 Jun 2022 19:04:01.729      413.01658773    
14 Jun 2022 03:13:54.058    14 Jun 2022 03:21:32.228      458.17033409    
14 Jun 2022 04:52:58.068    14 Jun 2022 04:56:53.712      235.64409282    
14 Jun 2022 16:41:43.687    14 Jun 2022 16:46:34.746      291.05922519    
14 Jun 2022 18:17:37.206    14 Jun 2022 18:25:10.787      453.58103371    
15 Jun 2022 02:35:00.510    15 Jun 2022 02:42:03.962      423.45211093    
15 Jun 2022 04:12:54.719    15 Jun 2022 04:18:47.636      352.91662799    
15 Jun 2022 16:04:39.744    15 Jun 2022 16:05:28.865      49.120908254    
15 Jun 2022 17:38:14.866    15 Jun 2022 17:46:12.036      477.17039039    
16 Jun 2022 01:56:14.507    16 Jun 2022 02:02:23.459      368.95245714    
16 Jun 2022 03:33:15.790    16 Jun 2022 03:40:14.456      418.66534915    
16 Jun 2022 16:59:00.746    16 Jun 2022 17:07:06.104      485.35770957    
17 Jun 2022 01:17:40.670    17 Jun 2022 01:22:25.754      285.08377292    
17 Jun 2022 02:53:49.094    17 Jun 2022 03:01:26.053      456.95921016    
17 Jun 2022 16:19:54.752    17 Jun 2022 16:27:52.771      478.01968862    
17 Jun 2022 17:59:47.314    17 Jun 2022 18:03:21.124      213.80998115    
18 Jun 2022 00:39:41.913    18 Jun 2022 00:41:47.584      125.67146084    
18 Jun 2022 02:14:30.622    18 Jun 2022 02:22:26.125      475.50346496    
18 Jun 2022 15:40:57.604    18 Jun 2022 15:48:31.006      453.40165176    
18 Jun 2022 17:19:31.276    18 Jun 2022 17:25:00.225      328.94890319    
19 Jun 2022 01:35:18.607    19 Jun 2022 01:43:16.124      477.51700388    
19 Jun 2022 15:02:11.311    19 Jun 2022 15:08:58.494      407.18232075    
19 Jun 2022 16:39:38.603    19 Jun 2022 16:46:18.128      399.52455073    
20 Jun 2022 00:56:12.341    20 Jun 2022 01:03:56.430      464.08878230    
20 Jun 2022 02:35:50.358    20 Jun 2022 02:38:39.689      169.33037838    
20 Jun 2022 14:23:41.027    20 Jun 2022 14:29:09.778      328.75087884    
20 Jun 2022 15:59:58.918    20 Jun 2022 16:07:24.878      445.95991859    
21 Jun 2022 00:17:11.919    21 Jun 2022 00:24:26.618      434.69903682    
21 Jun 2022 01:55:24.540    21 Jun 2022 02:00:47.125      322.58534260    
21 Jun 2022 13:45:47.393    21 Jun 2022 13:48:43.912      176.51951598    
21 Jun 2022 15:20:28.999    21 Jun 2022 15:28:23.369      474.36951291    
21 Jun 2022 23:38:18.456    21 Jun 2022 23:44:45.228      386.77180200    
22 Jun 2022 01:15:34.931    22 Jun 2022 01:22:15.750      400.81929734    
22 Jun 2022 14:41:07.565    22 Jun 2022 14:49:14.555      486.98957182    
22 Jun 2022 22:59:35.287    22 Jun 2022 23:04:48.576      313.28862364    
23 Jun 2022 00:36:00.008    23 Jun 2022 00:43:26.779      446.77121504    
23 Jun 2022 14:01:54.295    23 Jun 2022 14:09:58.440      484.14492508    
23 Jun 2022 15:42:15.745    23 Jun 2022 15:45:03.122      167.37690659    
23 Jun 2022 22:21:14.973    23 Jun 2022 22:24:23.751      188.77831969    
23 Jun 2022 23:56:34.303    24 Jun 2022 00:04:25.373      471.07048634    
24 Jun 2022 13:22:49.661    24 Jun 2022 13:30:34.241      464.58003045    
24 Jun 2022 15:01:42.505    24 Jun 2022 15:06:48.796      306.29096873    
