GMAT/Constellation/Contact/ContactLocator7.txt

Target: HSEYE7

Observer: Bahrain
Start Time (UTC)            Stop Time (UTC)               Duration (s)         
27 Apr 2022 14:53:28.120    27 Apr 2022 15:00:03.619      395.49924787    
27 Apr 2022 16:30:35.751    27 Apr 2022 16:37:59.509      443.75761586    
27 Apr 2022 23:09:01.846    27 Apr 2022 23:14:47.164      345.31770836    
28 Apr 2022 00:45:45.198    28 Apr 2022 00:53:44.535      479.33752307    
28 Apr 2022 14:17:08.342    28 Apr 2022 14:22:35.586      327.24350168    
28 Apr 2022 15:53:22.778    28 Apr 2022 16:01:10.903      468.12506032    
28 Apr 2022 22:32:30.729    28 Apr 2022 22:37:07.150      276.42086414    
29 Apr 2022 00:08:42.071    29 Apr 2022 00:16:53.712      491.64086172    
29 Apr 2022 13:41:11.596    29 Apr 2022 13:44:43.950      212.35381197    
29 Apr 2022 15:16:14.578    29 Apr 2022 15:24:18.050      483.47138971    
29 Apr 2022 21:56:15.216    29 Apr 2022 21:59:06.819      171.60271034    
29 Apr 2022 23:31:42.069    29 Apr 2022 23:39:56.061      493.99194909    
30 Apr 2022 14:39:11.003    30 Apr 2022 14:47:20.947      489.94479115    
30 Apr 2022 16:20:01.653    30 Apr 2022 16:22:45.598      163.94574529    
30 Apr 2022 22:54:44.728    30 Apr 2022 23:02:51.879      487.15094347    
01 May 2022 00:34:16.316    01 May 2022 00:37:57.669      221.35231791    
01 May 2022 14:02:12.137    01 May 2022 14:10:19.355      487.21794075    
01 May 2022 15:41:58.713    01 May 2022 15:46:29.607      270.89452806    
01 May 2022 22:17:49.839    01 May 2022 22:25:41.210      471.37055512    
01 May 2022 23:56:23.877    02 May 2022 00:01:57.015      333.13743282    
02 May 2022 13:25:18.331    02 May 2022 13:33:12.770      474.43927779    
02 May 2022 15:04:15.019    02 May 2022 15:09:55.420      340.40022787    
02 May 2022 21:40:57.432    02 May 2022 21:48:23.860      446.42858495    
02 May 2022 23:18:52.214    02 May 2022 23:25:32.515      400.30107979    
03 May 2022 12:48:30.304    03 May 2022 12:56:00.315      450.01152606    
03 May 2022 14:26:40.944    03 May 2022 14:33:12.569      391.62432798    
03 May 2022 21:04:07.835    03 May 2022 21:10:59.342      411.50697574    
03 May 2022 22:41:30.450    03 May 2022 22:48:54.890      444.44037247    
04 May 2022 12:11:49.439    04 May 2022 12:18:40.458      411.01917287    
04 May 2022 13:49:13.663    04 May 2022 13:56:23.763      430.09958700    
04 May 2022 20:27:21.885    04 May 2022 20:33:26.675      364.78943186    
04 May 2022 22:04:14.887    04 May 2022 22:12:07.676      472.78905603    
05 May 2022 11:35:18.587    05 May 2022 11:41:10.195      351.60742040    
05 May 2022 13:11:51.950    05 May 2022 13:19:30.101      458.15181710    
05 May 2022 19:50:41.539    05 May 2022 19:55:43.767      302.22843073    
05 May 2022 21:27:03.736    05 May 2022 21:35:12.506      488.77067197    
06 May 2022 10:59:05.333    06 May 2022 11:03:21.798      256.46495561    
06 May 2022 12:34:35.211    06 May 2022 12:42:32.038      476.82658631    
06 May 2022 19:14:12.482    06 May 2022 19:17:44.822      212.33960307    
06 May 2022 20:49:55.998    06 May 2022 20:58:10.219      494.22121133    
07 May 2022 11:57:23.206    07 May 2022 12:05:29.676      486.46951737    
07 May 2022 13:38:50.045    07 May 2022 13:40:23.242      93.196370755    
07 May 2022 20:12:51.104    07 May 2022 20:21:01.229      490.12459712    
07 May 2022 21:52:51.845    07 May 2022 21:55:33.069      161.22391303    
08 May 2022 11:20:15.946    08 May 2022 11:28:22.858      486.91172227    
08 May 2022 13:00:21.172    08 May 2022 13:04:19.126      237.95413643    
08 May 2022 19:35:48.769    08 May 2022 19:43:45.664      476.89532776    
08 May 2022 21:14:37.419    08 May 2022 21:19:41.784      304.36519745    
09 May 2022 10:43:13.702    09 May 2022 10:51:11.173      477.47107587    
09 May 2022 12:22:25.437    09 May 2022 12:27:42.999      317.56188772    
09 May 2022 18:58:48.955    09 May 2022 19:06:23.415      454.45953050    
09 May 2022 20:36:54.143    09 May 2022 20:43:16.334      382.19103827    
10 May 2022 10:06:17.082    10 May 2022 10:13:53.872      456.78966553    
10 May 2022 11:44:41.510    10 May 2022 11:50:56.116      374.60553293    
10 May 2022 18:21:51.908    10 May 2022 18:28:54.091      422.18241227    
10 May 2022 19:59:23.026    10 May 2022 20:06:35.561      432.53517654    
11 May 2022 09:29:27.258    11 May 2022 09:36:29.645      422.38732466    
11 May 2022 11:07:05.240    11 May 2022 11:14:02.536      417.29593329    
11 May 2022 17:44:58.312    11 May 2022 17:51:16.872      378.56023042    
11 May 2022 19:21:59.093    11 May 2022 19:29:44.302      465.20890013    
12 May 2022 08:52:46.569    12 May 2022 08:58:56.019      369.44939985    
12 May 2022 10:29:34.997    12 May 2022 10:37:03.780      448.78301922    
12 May 2022 17:08:09.758    12 May 2022 17:13:30.049      320.29140702    
12 May 2022 18:44:40.121    12 May 2022 18:52:44.632      484.51123520    
13 May 2022 08:16:20.678    13 May 2022 08:21:07.196      286.51786511    
13 May 2022 09:52:10.016    13 May 2022 10:00:00.490      470.47423474    
13 May 2022 16:31:30.497    13 May 2022 16:35:29.266      238.76918840    
13 May 2022 18:07:24.919    13 May 2022 18:15:37.601      492.68219270    
14 May 2022 07:40:36.485    14 May 2022 07:42:36.144      119.65939956    
14 May 2022 09:14:49.959    14 May 2022 09:22:52.878      482.91890798    
14 May 2022 15:55:23.837    14 May 2022 15:56:51.137      87.300456245    
14 May 2022 17:30:12.809    14 May 2022 17:38:23.741      490.93272490    
14 May 2022 19:10:57.168    14 May 2022 19:12:07.849      70.681901684    
15 May 2022 08:37:34.771    15 May 2022 08:45:40.866      486.09529012    
15 May 2022 10:17:57.538    15 May 2022 10:21:23.438      205.90012602    
15 May 2022 16:53:03.434    15 May 2022 17:01:03.263      479.82948096    
15 May 2022 18:32:06.044    15 May 2022 18:36:41.096      275.05202035    
16 May 2022 08:00:24.655    16 May 2022 08:08:24.117      479.46250511    
16 May 2022 09:39:49.470    16 May 2022 09:44:46.339      296.86898673    
16 May 2022 16:15:56.697    16 May 2022 16:23:36.121      459.42454487    
16 May 2022 17:54:11.088    16 May 2022 18:00:15.310      364.22165525    
17 May 2022 07:23:20.129    17 May 2022 07:31:01.974      461.84460567    
17 May 2022 09:01:56.123    17 May 2022 09:07:55.760      359.63664756    
17 May 2022 15:38:52.775    17 May 2022 15:46:01.996      429.22102923    
17 May 2022 17:16:31.054    17 May 2022 17:23:31.596      420.54134795    
18 May 2022 06:46:22.213    18 May 2022 06:53:33.282      431.06861275    
18 May 2022 08:24:11.435    18 May 2022 08:30:57.679      406.24404789    
18 May 2022 15:01:52.248    18 May 2022 15:08:20.174      387.92540983    
18 May 2022 16:38:59.284    18 May 2022 16:46:36.470      457.18608544    
19 May 2022 06:09:32.906    19 May 2022 06:15:55.905      382.99878258    
19 May 2022 07:46:33.288    19 May 2022 07:53:54.105      440.81690748    
19 May 2022 14:24:56.477    19 May 2022 14:30:29.167      332.69049173    
19 May 2022 16:01:33.060    19 May 2022 16:09:32.505      479.44482170    
20 May 2022 05:32:56.772    20 May 2022 05:38:05.140      308.36783963    
20 May 2022 07:09:00.724    20 May 2022 07:16:45.876      465.15173261    
20 May 2022 13:48:08.947    20 May 2022 13:52:25.380      256.43268392    
20 May 2022 15:24:10.976    20 May 2022 15:32:20.957      489.98090951    
21 May 2022 04:56:50.531    21 May 2022 04:59:44.127      173.59571590    
21 May 2022 06:31:33.299    21 May 2022 06:39:33.299      480.00042936    
21 May 2022 13:11:44.477    21 May 2022 13:13:53.901      129.42354048    
21 May 2022 14:46:52.239    21 May 2022 14:55:02.468      490.22951414    
22 May 2022 05:54:10.886    22 May 2022 06:02:16.361      485.47564860    
22 May 2022 07:34:49.781    22 May 2022 07:37:45.916      176.13506040    
22 May 2022 14:09:36.416    22 May 2022 14:17:37.314      480.89813967    
22 May 2022 15:48:52.267    22 May 2022 15:52:58.291      246.02350745    
23 May 2022 05:16:53.623    23 May 2022 05:24:54.777      481.15389071    
23 May 2022 06:56:29.418    23 May 2022 07:01:08.822      279.40334551    
23 May 2022 13:32:23.349    23 May 2022 13:40:05.495      462.14598957    
23 May 2022 15:10:45.747    23 May 2022 15:16:32.911      347.16332769    
24 May 2022 04:39:41.954    24 May 2022 04:47:27.952      465.99802310    
24 May 2022 06:18:27.346    24 May 2022 06:24:14.834      347.48820491    
24 May 2022 12:55:13.157    24 May 2022 13:02:26.738      433.58187675    
24 May 2022 14:32:57.374    24 May 2022 14:39:46.494      409.12003781    
25 May 2022 04:02:36.779    25 May 2022 04:09:54.833      438.05446175    
25 May 2022 05:40:34.936    25 May 2022 05:47:12.483      397.54771607    
25 May 2022 12:18:06.335    25 May 2022 12:24:40.393      394.05810891    
25 May 2022 13:55:18.345    25 May 2022 14:02:47.686      449.34115873    
26 May 2022 03:25:39.860    26 May 2022 03:32:13.505      393.64440007    
26 May 2022 05:02:49.539    26 May 2022 05:10:04.300      434.76183729    
26 May 2022 11:41:04.091    26 May 2022 11:46:45.109      341.01771880    
26 May 2022 13:17:45.399    26 May 2022 13:25:39.587      474.18865302    
27 May 2022 02:48:55.082    27 May 2022 02:54:19.929      324.84651867    
27 May 2022 04:25:09.997    27 May 2022 04:32:51.307      461.31034076    
27 May 2022 11:04:09.459    27 May 2022 11:08:37.721      268.26225885    
27 May 2022 12:40:16.908    27 May 2022 12:48:23.660      486.75169121    
28 May 2022 02:12:34.877    28 May 2022 02:16:01.520      206.64257038    
28 May 2022 03:47:35.768    28 May 2022 03:55:33.899      478.13152636    
28 May 2022 10:27:33.898    28 May 2022 10:30:06.661      152.76369973    
28 May 2022 12:02:51.965    28 May 2022 12:11:00.645      488.67936350    
29 May 2022 03:10:06.660    29 May 2022 03:18:12.114      485.45330632    
29 May 2022 04:50:59.577    29 May 2022 04:53:30.041      150.46479253    
29 May 2022 11:25:30.068    29 May 2022 11:33:30.875      480.80657000    
29 May 2022 13:04:58.133    29 May 2022 13:08:36.670      218.53707028    
30 May 2022 02:32:42.761    30 May 2022 02:40:45.706      482.94523837    
30 May 2022 04:12:27.175    30 May 2022 04:16:53.262      266.08730805    
30 May 2022 10:48:11.008    30 May 2022 10:55:54.391      463.38277721    
30 May 2022 12:26:40.085    30 May 2022 12:32:12.057      331.97193296    
31 May 2022 01:55:24.457    31 May 2022 02:03:14.130      469.67225445    
31 May 2022 03:34:17.010    31 May 2022 03:39:55.716      338.70636416    
31 May 2022 10:10:54.856    31 May 2022 10:18:10.954      436.09787598    
31 May 2022 11:48:43.791    31 May 2022 11:55:22.834      399.04319899    
01 Jun 2022 01:18:12.571    01 Jun 2022 01:25:36.404      443.83288356    
01 Jun 2022 02:56:17.404    01 Jun 2022 03:02:48.982      391.57850873    
01 Jun 2022 09:33:42.057    01 Jun 2022 09:40:19.962      397.90558289    
01 Jun 2022 11:10:57.861    01 Jun 2022 11:18:20.229      442.36701286    
02 Jun 2022 00:41:08.712    02 Jun 2022 00:47:50.762      402.05040331    
02 Jun 2022 02:18:25.206    02 Jun 2022 02:25:36.094      430.88870526    
02 Jun 2022 08:56:33.720    02 Jun 2022 09:02:20.155      346.43587457    
02 Jun 2022 10:33:18.487    02 Jun 2022 10:41:07.887      469.40047742    
03 Jun 2022 00:04:16.344    03 Jun 2022 00:09:53.583      337.23969287    
03 Jun 2022 01:40:39.089    03 Jun 2022 01:48:18.244      459.15419895    
03 Jun 2022 08:19:32.611    03 Jun 2022 08:24:08.633      276.02226787    
03 Jun 2022 09:55:43.836    03 Jun 2022 10:03:47.474      483.63780716    
03 Jun 2022 23:27:45.704    03 Jun 2022 23:31:34.480      228.77570005    
04 Jun 2022 01:02:58.437    04 Jun 2022 01:10:55.905      477.46845412    
04 Jun 2022 07:42:48.516    04 Jun 2022 07:45:35.499      166.98350825    
04 Jun 2022 09:18:12.907    04 Jun 2022 09:26:19.829      486.92227027    
05 Jun 2022 00:25:23.013    05 Jun 2022 00:33:29.163      486.14971266    
05 Jun 2022 02:06:26.621    05 Jun 2022 02:08:38.044      131.42285856    
05 Jun 2022 08:40:45.142    05 Jun 2022 08:48:45.341      480.19944916    
05 Jun 2022 10:20:23.635    05 Jun 2022 10:23:38.373      194.73807412    
05 Jun 2022 23:47:52.875    05 Jun 2022 23:55:57.811      484.93525536    
06 Jun 2022 01:27:43.235    06 Jun 2022 01:32:00.843      257.60716143    
06 Jun 2022 08:03:20.299    06 Jun 2022 08:11:04.092      463.79298074    
06 Jun 2022 09:41:54.455    06 Jun 2022 09:47:14.297      319.84221035    
06 Jun 2022 23:10:28.380    06 Jun 2022 23:18:21.339      472.95880654    
07 Jun 2022 00:49:25.746    07 Jun 2022 00:54:59.314      333.56831901    
07 Jun 2022 07:25:58.422    07 Jun 2022 07:33:15.877      437.45425410    
07 Jun 2022 09:03:50.760    07 Jun 2022 09:10:21.941      391.18104338    
07 Jun 2022 22:33:10.305    07 Jun 2022 22:40:38.820      448.51545504    
08 Jun 2022 00:11:19.541    08 Jun 2022 00:17:47.987      388.44593576    
08 Jun 2022 06:48:39.924    08 Jun 2022 06:55:20.131      400.20677363    
08 Jun 2022 08:25:58.356    08 Jun 2022 08:33:15.344      436.98803599    
08 Jun 2022 21:56:00.172    08 Jun 2022 22:02:48.585      408.41239197    
08 Jun 2022 23:33:21.081    08 Jun 2022 23:40:30.294      429.21342925    
09 Jun 2022 06:11:25.859    09 Jun 2022 06:17:15.658      349.79869612    
09 Jun 2022 07:48:12.936    09 Jun 2022 07:55:58.660      465.72484545    
09 Jun 2022 21:19:01.207    09 Jun 2022 21:24:47.260      346.05242482    
09 Jun 2022 22:55:28.921    09 Jun 2022 23:03:07.559      458.63781106    
10 Jun 2022 05:34:18.841    10 Jun 2022 05:38:59.720      280.87896929    
10 Jun 2022 07:10:32.498    10 Jun 2022 07:18:33.734      481.23604960    
10 Jun 2022 20:42:22.498    10 Jun 2022 20:46:25.615      243.11634408    
10 Jun 2022 22:17:42.393    10 Jun 2022 22:25:40.316      477.92307629    
11 Jun 2022 04:57:27.768    11 Jun 2022 05:00:23.314      175.54678501    
11 Jun 2022 06:32:55.963    11 Jun 2022 06:41:01.490      485.52696439    
11 Jun 2022 21:40:01.237    11 Jun 2022 21:48:08.686      487.44887643    
11 Jun 2022 23:21:10.900    11 Jun 2022 23:23:12.416      121.51616912    
12 Jun 2022 05:55:22.734    12 Jun 2022 06:03:22.366      479.63235966    
12 Jun 2022 07:35:08.763    12 Jun 2022 07:38:06.189      177.42649218    
12 Jun 2022 21:02:25.491    12 Jun 2022 21:10:32.486      486.99512273    
12 Jun 2022 22:42:19.011    12 Jun 2022 22:46:33.085      254.07399876    
13 Jun 2022 05:17:52.542    13 Jun 2022 05:25:36.474      463.93265856    
13 Jun 2022 06:56:29.933    13 Jun 2022 07:01:41.782      311.84913896    
13 Jun 2022 20:24:55.495    13 Jun 2022 20:32:51.229      475.73438744    
13 Jun 2022 22:03:55.359    13 Jun 2022 22:09:27.263      331.90331440    
14 Jun 2022 04:40:25.411    14 Jun 2022 04:47:43.634      438.22255454    
14 Jun 2022 06:18:19.789    14 Jun 2022 06:24:46.022      386.23223699    
14 Jun 2022 19:47:32.003    14 Jun 2022 19:55:04.014      452.01090983    
14 Jun 2022 21:25:43.466    14 Jun 2022 21:32:11.352      387.88533857    
15 Jun 2022 04:03:01.734    15 Jun 2022 04:09:43.303      401.56949727    
15 Jun 2022 05:40:21.667    15 Jun 2022 05:47:35.419      433.75273116    
15 Jun 2022 19:10:16.494    15 Jun 2022 19:17:09.214      412.71975960    
15 Jun 2022 20:47:39.574    15 Jun 2022 20:54:49.004      429.42977571    
16 Jun 2022 03:25:42.529    16 Jun 2022 03:31:34.318      351.78901108    
16 Jun 2022 05:02:30.875    16 Jun 2022 05:10:14.509      463.63470673    
16 Jun 2022 18:33:12.077    16 Jun 2022 18:39:03.567      351.49001508    
16 Jun 2022 20:09:42.170    16 Jun 2022 20:17:21.607      459.43739559    
17 Jun 2022 02:48:30.322    17 Jun 2022 02:53:14.021      283.69912411    
17 Jun 2022 04:24:45.284    17 Jun 2022 04:32:45.261      479.97703190    
17 Jun 2022 17:56:27.325    17 Jun 2022 18:00:38.352      251.02647896    
17 Jun 2022 19:31:50.554    17 Jun 2022 19:39:49.723      479.16909397    
18 Jun 2022 02:11:33.560    18 Jun 2022 02:14:33.854      180.29457880    
18 Jun 2022 03:47:03.752    18 Jun 2022 03:55:08.651      484.89913103    
18 Jun 2022 18:54:04.447    18 Jun 2022 19:02:13.480      489.03334499    
18 Jun 2022 20:35:15.144    18 Jun 2022 20:37:16.369      121.22560542    
19 Jun 2022 03:09:25.648    19 Jun 2022 03:17:25.144      479.49631194    
19 Jun 2022 04:49:15.275    19 Jun 2022 04:52:04.354      169.07857081    
19 Jun 2022 18:16:23.873    19 Jun 2022 18:24:32.699      488.82611354    
19 Jun 2022 19:56:17.968    19 Jun 2022 20:00:32.777      254.80906223    
20 Jun 2022 02:31:50.677    20 Jun 2022 02:39:34.862      464.18505673    
20 Jun 2022 04:10:29.345    20 Jun 2022 04:15:37.932      308.58722620    
20 Jun 2022 17:38:49.160    20 Jun 2022 17:46:46.889      477.72902685    
20 Jun 2022 19:17:49.406    20 Jun 2022 19:23:22.468      333.06225532    
21 Jun 2022 01:54:18.846    21 Jun 2022 02:01:37.630      438.78407772    
21 Jun 2022 03:32:13.903    21 Jun 2022 03:38:38.441      384.53835159    
21 Jun 2022 17:01:21.052    21 Jun 2022 17:08:55.143      454.09076395    
21 Jun 2022 18:39:32.755    21 Jun 2022 18:46:02.052      389.29778187    
22 Jun 2022 01:16:50.525    22 Jun 2022 01:23:32.905      402.38000132    
22 Jun 2022 02:54:10.872    22 Jun 2022 03:01:23.789      432.91688935    
22 Jun 2022 16:24:01.018    22 Jun 2022 16:30:55.825      414.80743750    
22 Jun 2022 18:01:24.219    22 Jun 2022 18:08:35.203      430.98438657    
23 Jun 2022 00:39:26.716    23 Jun 2022 00:45:19.527      352.81061211    
23 Jun 2022 02:16:15.356    23 Jun 2022 02:23:58.700      463.34389534    
23 Jun 2022 15:46:52.159    23 Jun 2022 15:52:45.668      353.50912000    
23 Jun 2022 17:23:22.269    23 Jun 2022 17:31:03.310      461.04090699    
24 Jun 2022 00:02:09.911    24 Jun 2022 00:06:54.852      284.94182853    
24 Jun 2022 01:38:25.151    24 Jun 2022 01:46:25.198      480.04708973    
24 Jun 2022 15:10:03.018    24 Jun 2022 15:14:15.957      252.93871744    
24 Jun 2022 16:45:26.193    24 Jun 2022 16:53:26.926      480.73305117    
24 Jun 2022 23:25:08.422    24 Jun 2022 23:28:10.439      182.01657019    
25 Jun 2022 01:00:39.077    25 Jun 2022 01:08:44.278      485.20114075    
25 Jun 2022 16:07:35.704    25 Jun 2022 16:15:46.170      490.46636189    
25 Jun 2022 17:48:43.190    25 Jun 2022 17:50:51.725      128.53521926    
26 Jun 2022 00:22:56.482    26 Jun 2022 00:30:56.409      479.92756495    
26 Jun 2022 02:02:45.201    26 Jun 2022 02:05:36.096      170.89570917    


Number of events : 245


Observer: Cape_Town
Start Time (UTC)            Stop Time (UTC)               Duration (s)         
27 Apr 2022 12:57:32.700    27 Apr 2022 13:04:43.476      430.77636712    
27 Apr 2022 14:34:59.581    27 Apr 2022 14:42:49.406      469.82583344    
28 Apr 2022 05:45:31.315    28 Apr 2022 05:53:20.050      468.73491858    
28 Apr 2022 07:23:32.065    28 Apr 2022 07:30:49.264      437.19874414    
28 Apr 2022 09:04:55.296    28 Apr 2022 09:06:54.416      119.12032395    
28 Apr 2022 12:20:42.539    28 Apr 2022 12:27:25.742      403.20319547    
28 Apr 2022 13:57:55.868    28 Apr 2022 14:06:01.175      485.30706768    
29 Apr 2022 05:08:49.168    29 Apr 2022 05:16:11.227      442.05818174    
29 Apr 2022 06:46:17.507    29 Apr 2022 06:53:57.090      459.58351950    
29 Apr 2022 08:27:10.809    29 Apr 2022 08:30:17.065      186.25679312    
29 Apr 2022 11:43:52.562    29 Apr 2022 11:50:03.739      371.17730174    
29 Apr 2022 13:20:54.213    29 Apr 2022 13:29:07.080      492.86699543    
30 Apr 2022 04:32:13.399    30 Apr 2022 04:38:56.015      402.61648509    
30 Apr 2022 06:09:05.579    30 Apr 2022 06:17:02.726      477.14705800    
30 Apr 2022 07:49:32.565    30 Apr 2022 07:53:33.191      240.62632194    
30 Apr 2022 11:07:02.774    30 Apr 2022 11:12:37.499      334.72505528    
30 Apr 2022 12:43:54.049    30 Apr 2022 12:52:07.597      493.54823293    
30 Apr 2022 14:23:22.643    30 Apr 2022 14:27:06.301      223.65849662    
01 May 2022 03:55:46.683    01 May 2022 04:01:31.649      344.96583879    
01 May 2022 05:31:56.423    01 May 2022 05:40:06.003      489.57983293    
01 May 2022 07:11:57.712    01 May 2022 07:16:45.850      288.13804372    
01 May 2022 10:30:13.277    01 May 2022 10:35:06.989      293.71257720    
01 May 2022 12:06:54.967    01 May 2022 12:15:03.048      488.08103768    
01 May 2022 13:45:36.934    01 May 2022 13:51:02.253      325.31917786    
02 May 2022 03:19:35.748    02 May 2022 03:23:51.311      255.56298624    
02 May 2022 04:54:50.220    02 May 2022 05:03:06.697      496.47724321    
02 May 2022 06:34:25.503    02 May 2022 06:39:55.960      330.45746565    
02 May 2022 09:53:24.359    02 May 2022 09:57:32.030      247.67047473    
02 May 2022 11:29:56.662    02 May 2022 11:37:53.659      476.99680013    
02 May 2022 13:08:08.636    02 May 2022 13:14:37.333      388.69686574    
03 May 2022 02:44:41.274    03 May 2022 02:44:54.233      12.959187781    
03 May 2022 04:17:47.208    03 May 2022 04:26:04.512      497.30427742    
03 May 2022 05:56:55.715    03 May 2022 06:03:03.875      368.16045342    
03 May 2022 09:16:36.761    03 May 2022 09:19:52.030      195.26930396    
03 May 2022 10:52:58.905    03 May 2022 11:00:39.598      460.69292149    
03 May 2022 12:30:48.650    03 May 2022 12:38:00.537      431.88691009    
04 May 2022 03:40:47.719    04 May 2022 03:48:59.053      491.33479317    
04 May 2022 05:19:28.316    04 May 2022 05:26:09.729      401.41343923    
04 May 2022 08:39:52.767    04 May 2022 08:42:04.895      132.12807187    
04 May 2022 10:16:01.523    04 May 2022 10:23:20.995      439.47114620    
04 May 2022 11:53:33.687    04 May 2022 12:01:15.059      461.37189305    
05 May 2022 03:03:52.226    05 May 2022 03:11:49.771      477.54566653    
05 May 2022 04:42:03.351    05 May 2022 04:49:13.543      430.19184252    
05 May 2022 06:23:37.366    05 May 2022 06:25:12.331      94.964661996    
05 May 2022 08:03:37.367    05 May 2022 08:03:45.864      8.4971570643    
05 May 2022 09:39:04.393    05 May 2022 09:45:57.952      413.55870031    
05 May 2022 11:16:22.072    05 May 2022 11:24:22.472      480.39963384    
06 May 2022 02:27:01.451    06 May 2022 02:34:35.870      454.41886391    
06 May 2022 04:04:40.908    06 May 2022 04:12:15.270      454.36210093    
06 May 2022 05:45:42.315    06 May 2022 05:48:31.746      169.43122053    
06 May 2022 09:02:07.437    06 May 2022 09:08:30.552      383.11480709    
06 May 2022 10:39:12.806    06 May 2022 10:47:23.684      490.87782176    
07 May 2022 01:50:16.568    07 May 2022 01:57:16.096      419.52773225    
07 May 2022 03:27:21.101    07 May 2022 03:35:14.812      473.71105804    
07 May 2022 05:07:55.686    07 May 2022 05:11:42.369      226.68332431    
07 May 2022 08:25:10.636    07 May 2022 08:30:58.855      348.21901656    
07 May 2022 10:02:05.231    07 May 2022 10:10:19.268      494.03745623    
07 May 2022 11:41:58.752    07 May 2022 11:44:47.666      168.91392488    
08 May 2022 01:13:39.718    08 May 2022 01:19:48.230      368.51161734    
08 May 2022 02:50:04.072    08 May 2022 02:58:12.021      487.94952845    
08 May 2022 04:30:12.879    08 May 2022 04:34:49.039      276.16027726    
08 May 2022 07:48:14.049    08 May 2022 07:53:22.876      308.82741802    
08 May 2022 09:24:58.884    08 May 2022 09:33:09.608      490.72381781    
08 May 2022 11:03:53.233    08 May 2022 11:08:50.974      297.74143629    
09 May 2022 00:37:15.707    09 May 2022 00:42:07.392      291.68566077    
09 May 2022 02:12:49.999    09 May 2022 02:21:06.698      496.69868922    
09 May 2022 03:52:32.863    09 May 2022 03:57:52.991      320.12800769    
09 May 2022 07:11:17.875    09 May 2022 07:15:42.531      264.65518917    
09 May 2022 08:47:53.431    09 May 2022 08:55:54.975      481.54360803    
09 May 2022 10:26:13.667    09 May 2022 10:32:24.872      371.20545488    
10 May 2022 00:01:23.223    10 May 2022 00:03:54.820      151.59639189    
10 May 2022 01:35:39.116    10 May 2022 01:43:58.575      499.45974627    
10 May 2022 03:14:55.344    10 May 2022 03:20:54.688      359.34444247    
10 May 2022 06:34:22.624    10 May 2022 06:37:57.469      214.84577724    
10 May 2022 08:10:48.621    10 May 2022 08:18:35.568      466.94686344    
10 May 2022 09:48:44.464    10 May 2022 09:55:44.864      420.39997625    
11 May 2022 00:58:31.734    11 May 2022 01:06:47.294      495.56082889    
11 May 2022 02:37:20.270    11 May 2022 02:43:54.316      394.04569542    
11 May 2022 05:57:29.699    11 May 2022 06:00:06.489      156.79020298    
11 May 2022 07:33:44.267    11 May 2022 07:41:11.542      447.27512940    
11 May 2022 09:11:21.195    11 May 2022 09:18:55.298      454.10254598    
12 May 2022 00:21:28.295    12 May 2022 00:29:32.360      484.06512580    
12 May 2022 01:59:47.688    12 May 2022 02:06:51.927      424.23821861    
12 May 2022 03:41:30.924    12 May 2022 03:42:45.028      74.103184172    
12 May 2022 05:20:45.389    12 May 2022 05:22:03.545      78.156775644    
12 May 2022 06:56:40.235    12 May 2022 07:03:43.024      422.78945767    
12 May 2022 08:34:01.797    12 May 2022 08:41:58.154      476.35713980    
12 May 2022 23:44:29.456    12 May 2022 23:52:13.059      463.60286975    
13 May 2022 01:22:17.691    13 May 2022 01:29:47.497      449.80519577    
13 May 2022 03:03:25.325    13 May 2022 03:06:01.438      156.11249122    
13 May 2022 06:19:36.435    13 May 2022 06:26:10.119      393.68320461    
13 May 2022 07:56:45.094    13 May 2022 08:04:54.530      489.43549907    
13 May 2022 23:07:36.255    13 May 2022 23:14:48.287      432.03161485    
14 May 2022 00:44:50.400    14 May 2022 00:52:40.946      470.54588964    
14 May 2022 02:25:30.835    14 May 2022 02:29:06.416      215.58069801    
14 May 2022 05:42:32.832    14 May 2022 05:48:32.910      360.07860698    
14 May 2022 07:19:30.337    14 May 2022 07:27:45.101      494.76364106    
14 May 2022 08:59:55.511    14 May 2022 09:01:37.388      101.87678252    
14 May 2022 22:30:50.518    14 May 2022 22:37:16.155      385.63666495    
15 May 2022 00:07:25.959    15 May 2022 00:15:32.143      486.18422861    
15 May 2022 01:47:40.595    15 May 2022 01:52:07.090      266.49457267    
15 May 2022 05:05:29.453    15 May 2022 05:10:51.451      321.99789608    
15 May 2022 06:42:17.012    15 May 2022 06:50:30.315      493.30281835    
15 May 2022 08:21:22.980    15 May 2022 08:25:55.558      272.57842905    
15 May 2022 21:54:16.059    15 May 2022 21:59:32.781      316.72147253    
15 May 2022 23:30:04.548    15 May 2022 23:38:20.906      496.35862681    
16 May 2022 01:09:53.315    16 May 2022 01:15:04.983      311.66802038    
16 May 2022 04:28:26.441    16 May 2022 04:33:05.722      279.28091482    
16 May 2022 06:05:04.749    16 May 2022 06:13:10.483      485.73417164    
16 May 2022 07:43:32.340    16 May 2022 07:49:28.493      356.15354843    
16 May 2022 21:18:04.761    16 May 2022 21:21:26.217      201.45587741    
16 May 2022 22:52:46.390    16 May 2022 23:01:06.986      500.59512409    
17 May 2022 00:32:08.640    17 May 2022 00:38:00.643      352.00295518    
17 May 2022 03:51:24.158    17 May 2022 03:55:15.517      231.35996863    
17 May 2022 05:27:53.274    17 May 2022 05:35:45.833      472.55864809    
17 May 2022 07:05:54.414    17 May 2022 07:12:45.293      410.87914553    
17 May 2022 22:15:31.786    17 May 2022 22:23:50.045      498.25926024    
17 May 2022 23:54:26.503    18 May 2022 00:00:54.287      387.78418021    
18 May 2022 03:14:23.556    18 May 2022 03:17:20.089      176.53300037    
18 May 2022 04:50:42.383    18 May 2022 04:58:16.538      454.15499081    
18 May 2022 06:28:23.383    18 May 2022 06:35:51.696      448.31246630    
18 May 2022 21:38:21.147    18 May 2022 21:46:29.620      488.47315422    
18 May 2022 23:16:46.949    18 May 2022 23:23:45.986      419.03707314    
19 May 2022 00:58:38.374    19 May 2022 00:59:33.609      55.234886357    
19 May 2022 02:37:27.989    19 May 2022 02:39:16.331      108.34158571    
19 May 2022 04:13:31.923    19 May 2022 04:20:42.737      430.81398981    
19 May 2022 05:50:56.762    19 May 2022 05:58:50.108      473.34623560    
19 May 2022 21:01:15.080    19 May 2022 21:09:05.046      469.96607578    
19 May 2022 22:39:10.071    19 May 2022 22:46:35.724      445.65383935    
20 May 2022 00:20:22.396    20 May 2022 00:22:47.810      145.41426263    
20 May 2022 03:36:21.792    20 May 2022 03:43:04.548      402.75638890    
20 May 2022 05:13:33.190    20 May 2022 05:21:41.807      488.61654134    
20 May 2022 20:24:14.531    20 May 2022 20:31:35.310      440.77931119    
20 May 2022 22:01:35.986    20 May 2022 22:09:23.427      467.44030776    
20 May 2022 23:42:20.837    20 May 2022 23:45:47.367      206.52996664    
21 May 2022 02:59:11.930    21 May 2022 03:05:22.065      370.13531163    
21 May 2022 04:36:11.822    21 May 2022 04:44:27.559      495.73699030    
21 May 2022 19:47:21.122    21 May 2022 19:53:58.717      397.59558438    
21 May 2022 21:24:04.838    21 May 2022 21:32:08.966      484.12790112    
21 May 2022 23:04:23.900    21 May 2022 23:08:42.358      258.45840625    
22 May 2022 02:22:02.340    22 May 2022 02:27:35.357      333.01693270    
22 May 2022 03:58:52.086    22 May 2022 04:07:07.863      495.77709016    
22 May 2022 05:38:08.414    22 May 2022 05:42:19.117      250.70216720    
22 May 2022 19:10:38.103    22 May 2022 19:16:11.939      333.83551355    
22 May 2022 20:46:36.797    22 May 2022 20:54:52.162      495.36556019    
22 May 2022 22:26:30.057    22 May 2022 22:31:34.547      304.48975578    
23 May 2022 01:44:53.117    23 May 2022 01:49:44.436      291.31867045    
23 May 2022 03:21:33.570    23 May 2022 03:29:43.056      489.48559844    
23 May 2022 05:00:07.351    23 May 2022 05:05:51.233      343.88246544    
23 May 2022 18:34:14.513    23 May 2022 18:38:05.860      231.34768306    
23 May 2022 20:09:12.074    23 May 2022 20:17:32.769      500.69494533    
23 May 2022 21:48:38.901    23 May 2022 21:54:24.536      345.63470272    
24 May 2022 01:07:44.534    24 May 2022 01:11:49.175      244.64112647    
24 May 2022 02:44:15.973    24 May 2022 02:52:13.381      477.40838510    
24 May 2022 04:22:21.445    24 May 2022 04:29:04.867      403.42218160    
24 May 2022 19:31:50.952    24 May 2022 19:40:10.458      499.50533450    
24 May 2022 21:10:50.350    24 May 2022 21:17:12.559      382.20951628    
25 May 2022 00:30:37.297    25 May 2022 00:33:49.054      191.75658915    
25 May 2022 02:06:59.066    25 May 2022 02:14:39.022      459.95582562    
25 May 2022 03:44:43.324    25 May 2022 03:52:07.300      443.97590042    
25 May 2022 18:54:33.820    25 May 2022 19:02:44.776      490.95620943    
25 May 2022 20:33:04.440    25 May 2022 20:39:58.689      414.24869261    
25 May 2022 22:15:05.141    25 May 2022 22:15:38.959      33.818261046    
25 May 2022 23:53:33.639    25 May 2022 23:55:42.073      128.43361236    
26 May 2022 01:29:42.678    26 May 2022 01:37:00.120      437.44265313    
26 May 2022 03:07:10.076    26 May 2022 03:15:01.346      471.26942254    
26 May 2022 18:17:21.243    26 May 2022 18:25:15.082      473.83915972    
26 May 2022 19:55:21.261    26 May 2022 20:02:42.908      441.64673255    
26 May 2022 21:36:37.271    26 May 2022 21:38:53.311      136.04024701    
27 May 2022 00:52:26.684    27 May 2022 00:59:16.794      410.10981160    
27 May 2022 02:29:40.168    27 May 2022 02:37:48.444      488.27663547    
27 May 2022 17:40:14.105    27 May 2022 17:47:40.415      446.30926478    
27 May 2022 19:17:40.928    27 May 2022 19:25:25.139      464.21045987    
27 May 2022 20:58:29.136    27 May 2022 21:01:47.742      198.60587621    
28 May 2022 00:15:11.011    28 May 2022 00:21:29.142      378.13067569    
28 May 2022 01:52:12.661    28 May 2022 02:00:29.440      496.77934628    
28 May 2022 17:03:13.902    28 May 2022 17:09:59.191      405.28841004    
28 May 2022 18:40:03.578    28 May 2022 18:48:05.251      481.67334103    
28 May 2022 20:20:25.954    28 May 2022 20:24:37.314      251.36010374    
28 May 2022 23:37:55.640    28 May 2022 23:43:37.237      341.59704451    
29 May 2022 01:14:46.929    29 May 2022 01:23:04.871      497.94183872    
29 May 2022 02:54:11.883    29 May 2022 02:58:04.611      232.72783582    
29 May 2022 16:26:23.562    29 May 2022 16:32:08.395      344.83362265    
29 May 2022 18:02:29.375    29 May 2022 18:10:43.064      493.68867518    
29 May 2022 19:42:25.960    29 May 2022 19:47:24.033      298.07265935    
29 May 2022 23:00:40.639    29 May 2022 23:05:41.107      300.46792806    
30 May 2022 00:37:22.528    30 May 2022 00:45:35.099      492.57076294    
30 May 2022 02:16:01.124    30 May 2022 02:21:35.570      334.44588416    
30 May 2022 15:49:50.724    30 May 2022 15:54:00.299      249.57498971    
30 May 2022 17:24:58.527    30 May 2022 17:33:18.332      499.80587728    
30 May 2022 19:04:28.697    30 May 2022 19:10:08.551      339.85420482    
30 May 2022 22:23:26.233    30 May 2022 22:27:40.662      254.42920894    
30 May 2022 23:59:59.132    31 May 2022 00:08:00.382      481.24937589    
31 May 2022 01:38:07.843    31 May 2022 01:44:45.748      397.90502622    
31 May 2022 16:47:31.304    31 May 2022 16:55:50.731      499.42691100    
31 May 2022 18:26:34.072    31 May 2022 18:32:51.120      377.04783574    
31 May 2022 21:46:13.015    31 May 2022 21:49:35.495      202.47938259    
31 May 2022 23:22:36.498    31 May 2022 23:30:20.911      464.41326065    
01 Jun 2022 01:00:23.097    01 Jun 2022 01:07:43.992      440.89536712    
01 Jun 2022 16:10:08.086    01 Jun 2022 16:18:19.817      491.73173894    
01 Jun 2022 17:48:42.122    01 Jun 2022 17:55:31.816      409.69463771    
01 Jun 2022 21:09:02.755    01 Jun 2022 21:11:24.061      141.30585665    
01 Jun 2022 22:45:14.442    01 Jun 2022 22:52:36.837      442.39486456    
02 Jun 2022 00:22:43.598    02 Jun 2022 00:30:33.491      469.89297940    
02 Jun 2022 15:32:49.421    02 Jun 2022 15:40:44.967      475.54626610    
02 Jun 2022 17:10:52.938    02 Jun 2022 17:18:10.627      437.68950887    
02 Jun 2022 18:52:12.120    02 Jun 2022 18:54:19.021      126.90086507    
02 Jun 2022 20:32:06.294    02 Jun 2022 20:32:55.796      49.502106209    
02 Jun 2022 22:07:52.834    02 Jun 2022 22:14:48.282      415.44835449    
02 Jun 2022 23:45:07.667    02 Jun 2022 23:53:15.829      488.16195060    
03 Jun 2022 14:55:36.161    03 Jun 2022 15:03:05.249      449.08784494    
03 Jun 2022 16:33:06.640    03 Jun 2022 16:40:47.478      460.83814173    
03 Jun 2022 18:13:57.453    03 Jun 2022 18:17:08.628      191.17560351    
03 Jun 2022 21:30:31.594    03 Jun 2022 21:36:55.352      383.75806137    
03 Jun 2022 23:07:34.296    03 Jun 2022 23:15:51.921      497.62488679    
04 Jun 2022 14:18:29.741    04 Jun 2022 14:25:19.148      409.40734138    
04 Jun 2022 15:55:23.370    04 Jun 2022 16:03:22.243      478.87314657    
04 Jun 2022 17:35:48.175    04 Jun 2022 17:39:52.978      244.80347314    
04 Jun 2022 20:53:10.702    04 Jun 2022 20:58:58.129      347.42675037    
04 Jun 2022 22:30:02.824    04 Jun 2022 22:38:22.348      499.52414475    
05 Jun 2022 00:09:34.201    05 Jun 2022 00:13:13.417      219.21544180    
05 Jun 2022 13:41:32.923    05 Jun 2022 13:47:23.818      350.89489660    
05 Jun 2022 15:17:43.297    05 Jun 2022 15:25:54.745      491.44807773    
05 Jun 2022 16:57:42.218    05 Jun 2022 17:02:34.397      292.17953287    
05 Jun 2022 20:15:50.220    05 Jun 2022 20:20:56.648      306.42792044    
05 Jun 2022 21:52:32.785    05 Jun 2022 22:00:47.498      494.71356464    
05 Jun 2022 23:31:14.668    05 Jun 2022 23:36:42.454      327.78636140    
06 Jun 2022 13:04:52.680    06 Jun 2022 13:09:12.206      259.52577969    
06 Jun 2022 14:40:06.631    06 Jun 2022 14:48:24.745      498.11428108    
06 Jun 2022 16:19:39.069    06 Jun 2022 16:25:13.612      334.54361516    
06 Jun 2022 19:38:30.367    06 Jun 2022 19:42:50.841      260.47385718    
06 Jun 2022 21:15:03.843    06 Jun 2022 21:23:07.649      483.80657667    
06 Jun 2022 22:53:14.620    06 Jun 2022 22:59:48.752      394.13159002    
07 Jun 2022 14:02:33.649    07 Jun 2022 14:10:51.927      498.27795041    
07 Jun 2022 15:41:38.625    07 Jun 2022 15:47:50.902      372.27632798    
07 Jun 2022 19:01:11.707    07 Jun 2022 19:04:40.337      208.63046759    
07 Jun 2022 20:37:35.748    07 Jun 2022 20:45:23.007      467.25866804    
07 Jun 2022 22:15:23.726    07 Jun 2022 22:22:42.554      438.82836120    
08 Jun 2022 13:25:04.728    08 Jun 2022 13:33:15.855      491.12669671    
08 Jun 2022 15:03:40.927    08 Jun 2022 15:10:26.357      405.43048612    
08 Jun 2022 18:23:55.882    08 Jun 2022 18:26:23.736      147.85377835    
08 Jun 2022 20:00:08.318    08 Jun 2022 20:07:33.733      445.41541968    
08 Jun 2022 21:37:38.401    08 Jun 2022 21:45:27.359      468.95852146    
09 Jun 2022 12:47:40.418    09 Jun 2022 12:55:35.918      475.49975597    
09 Jun 2022 14:25:46.071    09 Jun 2022 14:32:59.975      433.90413820    
09 Jun 2022 16:07:08.291    09 Jun 2022 16:09:05.706      117.41491710    
09 Jun 2022 17:46:51.761    09 Jun 2022 17:47:52.459      60.697306436    
09 Jun 2022 19:22:41.423    09 Jun 2022 19:29:39.962      418.53913246    
09 Jun 2022 20:59:56.858    09 Jun 2022 21:08:04.871      488.01324297    
10 Jun 2022 12:10:21.564    10 Jun 2022 12:17:51.203      449.63885156    
10 Jun 2022 13:47:54.185    10 Jun 2022 13:55:31.688      457.50322627    
10 Jun 2022 15:28:47.063    10 Jun 2022 15:31:51.118      184.05451585    
10 Jun 2022 18:45:14.987    10 Jun 2022 18:51:41.805      386.81794689    
10 Jun 2022 20:22:18.040    10 Jun 2022 20:30:36.064      498.02383259    
11 Jun 2022 11:33:09.579    11 Jun 2022 11:40:00.224      410.64489281    
11 Jun 2022 13:10:05.417    11 Jun 2022 13:18:01.377      475.95980113    
11 Jun 2022 14:50:31.929    11 Jun 2022 14:54:30.696      238.76648617    
11 Jun 2022 18:07:48.996    11 Jun 2022 18:13:39.350      350.35370813    
11 Jun 2022 19:44:41.262    11 Jun 2022 19:53:01.554      500.29245273    
11 Jun 2022 21:24:16.582    11 Jun 2022 21:27:47.035      210.45249930    
12 Jun 2022 10:56:07.167    12 Jun 2022 11:02:00.202      353.03506146    
12 Jun 2022 12:32:19.942    12 Jun 2022 12:40:28.868      488.92675673    
12 Jun 2022 14:12:20.359    12 Jun 2022 14:17:07.243      286.88384834    
12 Jun 2022 17:30:23.522    12 Jun 2022 17:35:32.634      309.11229062    
12 Jun 2022 19:07:06.044    12 Jun 2022 19:15:21.753      495.70872464    
12 Jun 2022 20:45:49.681    12 Jun 2022 20:51:13.351      323.67007445    
13 Jun 2022 10:19:21.055    13 Jun 2022 10:23:44.334      263.27885793    
13 Jun 2022 11:54:37.974    13 Jun 2022 12:02:53.929      495.95479300    
13 Jun 2022 13:34:11.750    13 Jun 2022 13:39:41.591      329.84115531    
13 Jun 2022 16:52:58.798    13 Jun 2022 16:57:21.583      262.78591842    
13 Jun 2022 18:29:32.042    13 Jun 2022 18:37:36.951      484.90844123    
13 Jun 2022 20:07:43.756    13 Jun 2022 20:14:15.564      391.80750976    
14 Jun 2022 09:43:41.044    14 Jun 2022 09:44:22.747      41.702765843    
14 Jun 2022 11:16:59.792    14 Jun 2022 11:25:16.241      496.44931481    
14 Jun 2022 12:56:05.971    14 Jun 2022 13:02:14.054      368.08219934    
14 Jun 2022 16:15:35.415    14 Jun 2022 16:19:05.805      210.39007507    
14 Jun 2022 17:51:59.004    14 Jun 2022 17:59:47.365      468.36109021    
14 Jun 2022 19:29:47.455    14 Jun 2022 19:37:04.942      437.48703310    
15 Jun 2022 10:39:25.776    15 Jun 2022 10:47:35.373      489.59661894    
15 Jun 2022 12:18:03.054    15 Jun 2022 12:24:44.739      401.68458793    
15 Jun 2022 15:38:15.100    15 Jun 2022 15:40:43.821      148.72107022    
15 Jun 2022 17:14:26.741    15 Jun 2022 17:21:53.161      446.42032615    
15 Jun 2022 18:51:56.986    15 Jun 2022 18:59:45.191      468.20574158    
16 Jun 2022 10:01:56.476    16 Jun 2022 10:09:50.709      474.23351799    
16 Jun 2022 11:40:03.092    16 Jun 2022 11:47:13.648      430.55686582    
16 Jun 2022 13:21:28.406    16 Jun 2022 13:23:15.998      107.59178088    
16 Jun 2022 15:01:07.414    16 Jun 2022 15:02:06.364      58.949382906    
16 Jun 2022 16:36:55.123    16 Jun 2022 16:43:54.475      419.35146869    
16 Jun 2022 18:14:10.484    16 Jun 2022 18:22:18.092      487.60772502    
17 Jun 2022 09:24:32.735    17 Jun 2022 09:32:01.332      448.59707518    
17 Jun 2022 11:02:06.207    17 Jun 2022 11:09:40.716      454.50923602    
17 Jun 2022 12:43:00.727    17 Jun 2022 12:45:58.175      177.44815301    
17 Jun 2022 15:59:24.075    17 Jun 2022 16:05:51.415      387.34008498    
17 Jun 2022 17:36:26.856    17 Jun 2022 17:44:44.653      497.79705098    
18 Jun 2022 08:47:15.968    18 Jun 2022 08:54:05.746      409.77852285    
18 Jun 2022 10:24:12.544    18 Jun 2022 10:32:05.819      473.27483216    
18 Jun 2022 12:04:40.154    18 Jun 2022 12:08:33.656      233.50206655    
18 Jun 2022 15:21:53.583    18 Jun 2022 15:27:44.060      350.47736341    
18 Jun 2022 16:58:45.389    18 Jun 2022 17:07:05.505      500.11576326    
18 Jun 2022 18:38:22.221    18 Jun 2022 18:41:48.385      206.16456396    
19 Jun 2022 08:10:08.885    19 Jun 2022 08:16:01.156      352.27131114    
19 Jun 2022 09:46:22.275    19 Jun 2022 09:54:28.780      486.50557915    
19 Jun 2022 11:26:23.463    19 Jun 2022 11:31:05.932      282.46847360    
19 Jun 2022 14:44:23.728    19 Jun 2022 14:49:32.432      308.70387683    
19 Jun 2022 16:21:05.590    19 Jun 2022 16:29:21.068      495.47710562    
19 Jun 2022 17:59:49.591    19 Jun 2022 18:05:11.269      321.67792950    
20 Jun 2022 07:33:18.250    20 Jun 2022 07:37:40.709      262.45866147    
20 Jun 2022 09:08:35.608    20 Jun 2022 09:16:49.357      493.74932254    
20 Jun 2022 10:48:09.913    20 Jun 2022 10:53:35.968      326.05526475    
20 Jun 2022 14:06:54.768    20 Jun 2022 14:11:16.422      261.65415938    
20 Jun 2022 15:43:27.101    20 Jun 2022 15:51:31.633      484.53112483    
20 Jun 2022 17:21:38.750    20 Jun 2022 17:28:09.336      390.58625431    
21 Jun 2022 06:57:35.903    21 Jun 2022 06:58:12.476      36.573534273    
21 Jun 2022 08:30:52.817    21 Jun 2022 08:39:07.223      494.40616525    
21 Jun 2022 10:09:59.319    21 Jun 2022 10:16:04.117      364.79763816    
21 Jun 2022 13:29:27.363    21 Jun 2022 13:32:55.558      208.19510515    
21 Jun 2022 15:05:49.658    21 Jun 2022 15:13:37.413      467.75528260    
21 Jun 2022 16:43:37.792    21 Jun 2022 16:50:54.395      436.60283138    
22 Jun 2022 07:53:14.280    22 Jun 2022 08:01:21.933      487.65326045    
22 Jun 2022 09:31:51.687    22 Jun 2022 09:38:30.499      398.81155923    
22 Jun 2022 12:52:03.499    22 Jun 2022 12:54:28.090      144.59108168    
22 Jun 2022 14:28:13.064    22 Jun 2022 14:35:38.570      445.50611837    
22 Jun 2022 16:05:42.811    22 Jun 2022 16:13:30.251      467.43991171    
23 Jun 2022 07:15:40.544    23 Jun 2022 07:23:32.855      472.31147300    
23 Jun 2022 08:53:47.094    23 Jun 2022 09:00:55.118      428.02351479    
23 Jun 2022 10:35:15.371    23 Jun 2022 10:36:53.661      98.290178936    
23 Jun 2022 12:14:56.274    23 Jun 2022 12:15:41.200      44.925918686    
23 Jun 2022 13:50:37.183    23 Jun 2022 13:57:35.230      418.04671063    
23 Jun 2022 15:27:51.895    23 Jun 2022 15:35:58.715      486.82066243    
24 Jun 2022 06:38:12.460    24 Jun 2022 06:45:39.048      446.58849060    
24 Jun 2022 08:15:45.651    24 Jun 2022 08:23:17.903      452.25200626    
24 Jun 2022 09:56:41.288    24 Jun 2022 09:59:33.339      172.05114980    
24 Jun 2022 13:13:01.935    24 Jun 2022 13:19:27.489      385.55378406    
24 Jun 2022 14:50:03.921    24 Jun 2022 14:58:20.808      496.88656256    
25 Jun 2022 06:00:51.463    25 Jun 2022 06:07:38.979      407.51540397    
25 Jun 2022 07:37:47.492    25 Jun 2022 07:45:38.725      471.23283490    
25 Jun 2022 09:18:15.542    25 Jun 2022 09:22:05.147      229.60520043    
25 Jun 2022 12:35:27.311    25 Jun 2022 12:41:15.410      348.09901746    
25 Jun 2022 14:12:18.161    25 Jun 2022 14:20:37.161      498.99975423    
25 Jun 2022 15:51:54.260    25 Jun 2022 15:55:20.158      205.89834005    
26 Jun 2022 05:23:40.331    26 Jun 2022 05:29:29.767      349.43566342    
26 Jun 2022 06:59:52.780    26 Jun 2022 07:07:57.397      484.61637319    
26 Jun 2022 08:39:54.000    26 Jun 2022 08:44:33.475      279.47495735    
26 Jun 2022 11:57:53.405    26 Jun 2022 11:59:27.995      94.589676918    


Number of events : 344


Observer: Hawaii
Start Time (UTC)            Stop Time (UTC)               Duration (s)         
27 Apr 2022 13:50:25.269    27 Apr 2022 13:56:57.738      392.46946428    
27 Apr 2022 15:27:42.943    27 Apr 2022 15:34:52.856      429.91371243    
28 Apr 2022 04:54:43.537    28 Apr 2022 05:02:53.642      490.10515352    
28 Apr 2022 13:13:54.072    28 Apr 2022 13:19:23.928      329.85608935    
28 Apr 2022 14:50:29.767    28 Apr 2022 14:58:14.894      465.12705367    
29 Apr 2022 04:17:48.493    29 Apr 2022 04:25:53.552      485.05890279    
29 Apr 2022 05:58:08.478    29 Apr 2022 06:01:19.618      191.14062111    
29 Apr 2022 12:37:36.409    29 Apr 2022 12:41:31.973      235.56407037    
29 Apr 2022 14:13:22.467    29 Apr 2022 14:21:27.986      485.51872226    
30 Apr 2022 03:40:59.334    30 Apr 2022 03:48:47.279      467.94464802    
30 Apr 2022 05:20:07.000    30 Apr 2022 05:25:09.561      302.56110344    
30 Apr 2022 13:36:19.750    30 Apr 2022 13:44:33.217      493.46750986    
01 May 2022 03:04:17.003    01 May 2022 03:11:33.676      436.67214521    
01 May 2022 04:42:26.750    01 May 2022 04:48:39.297      372.54768445    
01 May 2022 12:59:20.951    01 May 2022 13:07:31.038      490.08658435    
02 May 2022 02:27:43.522    02 May 2022 02:34:10.521      386.99873574    
02 May 2022 04:04:57.472    02 May 2022 04:11:58.869      421.39720763    
02 May 2022 12:22:25.831    02 May 2022 12:30:21.472      475.64091330    
02 May 2022 14:01:44.718    02 May 2022 14:05:47.644      242.92682841    
03 May 2022 01:51:23.729    03 May 2022 01:56:32.777      309.04710665    
03 May 2022 03:27:35.982    03 May 2022 03:35:11.243      455.26062974    
03 May 2022 11:45:34.541    03 May 2022 11:53:04.146      449.60444060    
03 May 2022 13:23:52.348    03 May 2022 13:29:41.794      349.44614572    
04 May 2022 01:15:36.628    04 May 2022 01:18:21.240      164.61271732    
04 May 2022 02:50:20.879    04 May 2022 02:58:17.606      476.72680373    
04 May 2022 11:08:47.761    04 May 2022 11:15:38.156      410.39490894    
04 May 2022 12:46:19.668    04 May 2022 12:53:13.603      413.93479526    
05 May 2022 02:13:11.522    05 May 2022 02:21:18.388      486.86588259    
05 May 2022 10:32:07.163    05 May 2022 10:38:01.604      354.44130854    
05 May 2022 12:08:57.071    05 May 2022 12:16:32.479      455.40820960    
06 May 2022 01:36:07.736    06 May 2022 01:44:13.558      485.82202635    
06 May 2022 03:17:07.077    06 May 2022 03:19:04.964      117.88699542    
06 May 2022 09:55:37.140    06 May 2022 10:00:09.870      272.73049238    
06 May 2022 11:31:41.131    06 May 2022 11:39:41.648      480.51705707    
07 May 2022 00:59:09.756    07 May 2022 01:07:02.683      472.92769658    
07 May 2022 02:38:39.245    07 May 2022 02:43:07.200      267.95439615    
07 May 2022 09:19:38.160    07 May 2022 09:21:42.265      124.10454996    
07 May 2022 10:54:30.205    07 May 2022 11:02:42.552      492.34693407    
08 May 2022 00:22:18.327    08 May 2022 00:29:44.822      446.49477034    
08 May 2022 02:00:46.262    08 May 2022 02:06:35.705      349.44301131    
08 May 2022 10:17:23.447    08 May 2022 10:25:35.837      492.38987791    
08 May 2022 23:45:35.080    08 May 2022 23:52:18.156      403.07572621    
09 May 2022 01:23:06.669    09 May 2022 01:29:51.734      405.06473706    
09 May 2022 09:40:20.491    09 May 2022 09:48:21.664      481.17277011    
09 May 2022 11:20:06.211    09 May 2022 11:23:17.097      190.88562538    
09 May 2022 23:09:03.712    09 May 2022 23:14:38.801      335.08891967    
10 May 2022 00:45:35.834    10 May 2022 00:52:59.715      443.88077923    
10 May 2022 09:03:21.375    10 May 2022 09:10:59.791      458.41634556    
10 May 2022 10:41:54.626    10 May 2022 10:47:17.698      323.07198155    
10 May 2022 22:32:55.853    10 May 2022 22:36:34.939      219.08514050    
11 May 2022 00:08:11.891    11 May 2022 00:16:01.312      469.42067760    
11 May 2022 08:26:26.616    11 May 2022 08:33:29.490      422.87415219    
11 May 2022 10:04:10.676    11 May 2022 10:10:48.117      397.44129439    
11 May 2022 23:30:53.987    11 May 2022 23:38:57.180      483.19384111    
12 May 2022 07:49:37.561    12 May 2022 07:55:49.203      371.64223460    
12 May 2022 09:26:38.812    12 May 2022 09:34:03.713      444.90103087    
12 May 2022 22:53:41.814    12 May 2022 23:01:47.434      485.61996266    
13 May 2022 07:12:57.589    13 May 2022 07:17:55.339      297.74994026    
13 May 2022 08:49:14.510    13 May 2022 08:57:08.822      474.31221463    
13 May 2022 22:16:35.492    13 May 2022 22:24:31.764      476.27178080    
13 May 2022 23:56:25.353    14 May 2022 00:00:19.328      233.97564262    
14 May 2022 06:36:38.952    14 May 2022 06:39:35.435      176.48297141    
14 May 2022 08:11:55.736    14 May 2022 08:20:05.293      489.55671239    
14 May 2022 21:39:35.621    14 May 2022 21:47:09.384      453.76323292    
14 May 2022 23:18:19.256    14 May 2022 23:23:47.468      328.21241427    
15 May 2022 07:34:41.453    15 May 2022 07:42:53.971      492.51746190    
15 May 2022 21:02:43.563    15 May 2022 21:09:38.750      415.18640880    
15 May 2022 22:40:29.722    15 May 2022 22:47:00.170      390.44823832    
16 May 2022 06:57:31.177    16 May 2022 07:05:35.143      483.96662220    
16 May 2022 08:37:48.943    16 May 2022 08:39:55.202      126.25891805    
16 May 2022 20:26:02.327    16 May 2022 20:31:56.670      354.34321293    
16 May 2022 22:02:50.072    16 May 2022 22:10:03.910      433.83849312    
17 May 2022 06:20:24.844    17 May 2022 06:28:08.673      463.82898185    
17 May 2022 07:59:12.197    17 May 2022 08:04:08.843      296.64657922    
17 May 2022 19:49:40.314    17 May 2022 19:53:54.560      254.24587126    
17 May 2022 21:25:17.892    17 May 2022 21:33:00.904      463.01116606    
18 May 2022 05:43:22.854    18 May 2022 05:50:33.954      431.10046482    
18 May 2022 07:21:17.211    18 May 2022 07:27:38.354      381.14288275    
18 May 2022 20:47:52.097    18 May 2022 20:55:52.035      479.93753051    
19 May 2022 05:06:26.338    19 May 2022 05:12:49.642      383.30415648    
19 May 2022 06:43:36.652    19 May 2022 06:50:50.878      434.22681517    
19 May 2022 20:10:32.245    19 May 2022 20:18:37.545      485.30046284    
20 May 2022 04:29:38.098    20 May 2022 04:34:52.719      314.62089237    
20 May 2022 06:06:04.621    20 May 2022 06:13:52.122      467.50026959    
20 May 2022 19:33:18.348    20 May 2022 19:41:17.227      478.87866322    
20 May 2022 21:13:26.853    20 May 2022 21:16:48.980      202.12699879    
21 May 2022 03:53:07.169    21 May 2022 03:56:33.929      206.76032805    
21 May 2022 05:28:38.648    21 May 2022 05:36:44.361      485.71337740    
21 May 2022 18:56:10.885    21 May 2022 19:03:50.403      459.51857317    
21 May 2022 20:35:07.695    21 May 2022 20:40:17.710      310.01493138    
22 May 2022 04:51:17.492    22 May 2022 04:59:28.634      491.14209908    
22 May 2022 18:19:11.021    22 May 2022 18:26:15.713      424.69201977    
22 May 2022 19:57:08.958    22 May 2022 20:03:27.340      378.38230880    
23 May 2022 04:14:00.551    23 May 2022 04:22:05.337      484.78587790    
23 May 2022 17:42:21.312    23 May 2022 17:48:30.404      369.09117753    
23 May 2022 19:19:21.252    23 May 2022 19:26:27.049      425.79693577    
24 May 2022 03:36:47.669    24 May 2022 03:44:34.409      466.73974358    
24 May 2022 05:15:47.761    24 May 2022 05:20:18.803      271.04203342    
24 May 2022 17:05:48.417    24 May 2022 17:10:27.618      279.20128024    
24 May 2022 18:41:41.561    24 May 2022 18:49:19.631      458.06951928    
25 May 2022 02:59:39.148    25 May 2022 03:06:55.327      436.17862483    
25 May 2022 04:37:42.098    25 May 2022 04:43:47.869      365.77174648    
25 May 2022 16:30:15.712    25 May 2022 16:31:23.777      68.064318504    
25 May 2022 18:04:08.567    25 May 2022 18:12:06.190      477.62289152    
26 May 2022 02:22:35.971    26 May 2022 02:29:06.879      390.90845855    
26 May 2022 03:59:53.444    26 May 2022 04:06:57.476      424.03140238    
26 May 2022 17:26:41.699    26 May 2022 17:34:47.077      485.37737634    
27 May 2022 01:45:40.583    27 May 2022 01:51:06.385      325.80206820    
27 May 2022 03:22:14.253    27 May 2022 03:29:54.960      460.70674817    
27 May 2022 16:49:20.877    27 May 2022 16:57:22.158      481.28175602    
27 May 2022 18:29:45.707    27 May 2022 18:32:39.823      174.11673688    
28 May 2022 01:09:00.412    28 May 2022 01:12:46.182      225.77034835    
28 May 2022 02:44:41.589    28 May 2022 02:52:43.046      481.45699112    
28 May 2022 16:12:06.483    28 May 2022 16:19:50.840      464.35774866    
28 May 2022 17:51:13.776    28 May 2022 17:56:09.534      295.75843904    
29 May 2022 02:07:14.017    29 May 2022 02:15:22.957      488.93995351    
29 May 2022 15:34:59.543    29 May 2022 15:42:11.886      432.34248717    
29 May 2022 17:13:06.554    29 May 2022 17:19:15.965      369.41173158    
30 May 2022 01:29:50.822    30 May 2022 01:37:55.183      484.36107069    
30 May 2022 14:58:02.319    30 May 2022 15:04:22.828      380.50898801    
30 May 2022 16:35:11.398    30 May 2022 16:42:11.534      420.13538021    
31 May 2022 00:52:31.776    31 May 2022 01:00:19.732      467.95623580    
31 May 2022 02:31:42.962    31 May 2022 02:35:50.530      247.56803771    
31 May 2022 14:21:20.451    31 May 2022 14:26:17.815      297.36436569    
31 May 2022 15:57:24.720    31 May 2022 16:04:59.604      454.88422833    
01 Jun 2022 00:15:17.109    01 Jun 2022 00:22:36.142      439.03214391    
01 Jun 2022 01:53:26.913    01 Jun 2022 01:59:19.167      352.25398543    
01 Jun 2022 13:45:20.240    01 Jun 2022 13:47:30.340      130.10001130    
01 Jun 2022 15:19:44.993    01 Jun 2022 15:27:41.476      476.48328199    
01 Jun 2022 23:38:07.709    01 Jun 2022 23:44:43.290      395.58108898    
02 Jun 2022 01:15:30.591    02 Jun 2022 01:22:25.670      415.07831746    
02 Jun 2022 14:42:11.548    02 Jun 2022 14:50:17.599      486.05097426    
02 Jun 2022 23:01:05.811    02 Jun 2022 23:06:38.706      332.89471575    
03 Jun 2022 00:37:44.598    03 Jun 2022 00:45:19.227      454.62921720    
03 Jun 2022 14:04:44.238    03 Jun 2022 14:12:47.905      483.66751304    
03 Jun 2022 15:45:21.968    03 Jun 2022 15:47:54.255      152.28770653    
03 Jun 2022 22:24:17.977    03 Jun 2022 22:28:15.590      237.61325584    
04 Jun 2022 00:00:05.549    04 Jun 2022 00:08:03.009      477.46008185    
04 Jun 2022 13:27:23.383    04 Jun 2022 13:35:11.862      468.47878187    
04 Jun 2022 15:06:38.192    04 Jun 2022 15:11:24.324      286.13276108    
04 Jun 2022 23:22:31.836    04 Jun 2022 23:30:38.416      486.57985297    
05 Jun 2022 12:50:09.926    05 Jun 2022 12:57:28.322      438.39641354    
05 Jun 2022 14:28:23.259    05 Jun 2022 14:34:27.084      363.82499394    
05 Jun 2022 22:45:02.658    05 Jun 2022 22:53:06.031      483.37257179    
06 Jun 2022 12:13:05.947    06 Jun 2022 12:19:35.002      389.05446884    
06 Jun 2022 13:50:21.252    06 Jun 2022 13:57:18.231      416.97852686    
06 Jun 2022 22:07:37.732    06 Jun 2022 22:15:25.919      468.18709824    
06 Jun 2022 23:46:57.734    06 Jun 2022 23:50:45.926      228.19237554    
07 Jun 2022 11:36:16.510    07 Jun 2022 11:41:26.637      310.12721137    
07 Jun 2022 13:12:28.115    07 Jun 2022 13:20:01.606      453.49134399    
07 Jun 2022 21:30:17.246    07 Jun 2022 21:37:37.670      440.42448417    
07 Jun 2022 23:08:31.994    07 Jun 2022 23:14:13.692      341.69778106    
08 Jun 2022 11:00:02.128    08 Jun 2022 11:02:42.515      160.38743032    
08 Jun 2022 12:34:42.170    08 Jun 2022 12:42:38.669      476.49977758    
08 Jun 2022 20:53:02.031    08 Jun 2022 20:59:40.226      398.19477081    
08 Jun 2022 22:30:28.598    08 Jun 2022 22:37:16.794      408.19672539    
09 Jun 2022 11:57:02.678    09 Jun 2022 12:05:09.947      487.26829315    
09 Jun 2022 20:15:54.208    09 Jun 2022 20:21:31.239      337.03062610    
09 Jun 2022 21:52:36.303    09 Jun 2022 22:00:06.275      449.97196463    
10 Jun 2022 11:19:29.451    10 Jun 2022 11:27:35.419      485.96774794    
10 Jun 2022 13:00:15.347    10 Jun 2022 13:02:34.511      139.16430344    
10 Jun 2022 19:38:59.882    10 Jun 2022 19:43:04.372      244.49004822    
10 Jun 2022 21:14:51.338    10 Jun 2022 21:22:45.701      474.36316330    
11 Jun 2022 10:42:02.775    11 Jun 2022 10:49:54.597      471.82196933    
11 Jun 2022 12:21:21.986    11 Jun 2022 12:26:03.336      281.35031367    
11 Jun 2022 20:37:11.950    11 Jun 2022 20:45:16.621      484.67151930    
12 Jun 2022 10:04:43.544    12 Jun 2022 10:12:06.387      442.84230983    
12 Jun 2022 11:43:00.487    12 Jun 2022 11:49:02.013      361.52540843    
12 Jun 2022 19:59:37.272    12 Jun 2022 20:07:39.695      482.42264012    
13 Jun 2022 09:27:33.746    13 Jun 2022 09:34:08.603      394.85631860    
13 Jun 2022 11:04:52.525    13 Jun 2022 11:11:48.651      416.12522104    
13 Jun 2022 19:22:06.981    13 Jun 2022 19:29:55.029      468.04848472    
13 Jun 2022 21:01:32.793    13 Jun 2022 21:05:07.815      215.02266128    
14 Jun 2022 08:50:38.147    14 Jun 2022 08:55:56.281      318.13343304    
14 Jun 2022 10:26:53.745    14 Jun 2022 10:34:27.390      453.64459137    
14 Jun 2022 18:44:41.235    14 Jun 2022 18:52:02.246      441.01107102    
14 Jun 2022 20:22:58.905    14 Jun 2022 20:28:33.920      335.01518397    
15 Jun 2022 08:14:14.831    15 Jun 2022 08:17:11.136      176.30533017    
15 Jun 2022 09:49:02.375    15 Jun 2022 09:56:59.785      477.40951697    
15 Jun 2022 18:07:20.833    15 Jun 2022 18:14:00.318      399.48455208    
15 Jun 2022 19:44:49.423    15 Jun 2022 19:51:33.439      404.01581145    
16 Jun 2022 09:11:17.632    16 Jun 2022 09:19:26.402      488.76931033    
16 Jun 2022 17:30:07.835    16 Jun 2022 17:35:46.952      339.11661515    
16 Jun 2022 19:06:51.630    16 Jun 2022 19:14:18.884      447.25344846    
17 Jun 2022 08:33:39.300    17 Jun 2022 08:41:47.242      487.94221105    
17 Jun 2022 10:14:28.021    17 Jun 2022 10:16:43.757      135.73622564    
17 Jun 2022 16:53:08.138    17 Jun 2022 16:57:16.012      247.87445735    
17 Jun 2022 18:29:01.467    17 Jun 2022 18:36:54.101      472.63406008    
18 Jun 2022 07:56:07.644    18 Jun 2022 08:04:01.829      474.18519328    
18 Jun 2022 09:35:28.318    18 Jun 2022 09:40:09.194      280.87578239    
18 Jun 2022 17:51:17.075    18 Jun 2022 17:59:20.736      483.66022990    
19 Jun 2022 07:18:43.534    19 Jun 2022 07:26:09.076      445.54205127    
19 Jun 2022 08:57:01.590    19 Jun 2022 09:03:03.543      361.95305963    
19 Jun 2022 17:13:37.535    19 Jun 2022 17:21:39.485      481.95018178    
20 Jun 2022 06:41:28.926    20 Jun 2022 06:48:06.819      397.89275732    
20 Jun 2022 08:18:48.680    20 Jun 2022 08:25:45.730      417.04950251    
20 Jun 2022 16:36:02.491    20 Jun 2022 16:43:50.475      467.98472431    
20 Jun 2022 18:15:30.569    20 Jun 2022 18:19:00.133      209.56396371    
21 Jun 2022 06:04:28.500    21 Jun 2022 06:09:50.162      321.66180764    
21 Jun 2022 07:40:45.126    21 Jun 2022 07:48:19.985      454.85923004    
21 Jun 2022 15:58:32.078    21 Jun 2022 16:05:53.332      441.25351432    
21 Jun 2022 17:36:50.625    21 Jun 2022 17:42:23.309      332.68375928    
22 Jun 2022 05:27:59.705    22 Jun 2022 05:31:01.439      181.73485086    
22 Jun 2022 07:02:49.115    22 Jun 2022 07:10:47.886      478.77027201    
22 Jun 2022 15:21:07.080    22 Jun 2022 15:27:47.027      399.94681226    
22 Jun 2022 16:58:36.106    22 Jun 2022 17:05:18.951      402.84464689    
