GMAT/Constellation/Contact/ContactLocator2.txt

Target: HSEYE2

Observer: Bahrain
Start Time (UTC)            Stop Time (UTC)               Duration (s)         
27 Apr 2022 17:11:51.871    27 Apr 2022 17:19:18.035      446.16342281    
27 Apr 2022 18:49:52.124    27 Apr 2022 18:55:50.090      357.96667667    
28 Apr 2022 08:17:24.273    28 Apr 2022 08:25:04.130      459.85652144    
28 Apr 2022 09:55:38.167    28 Apr 2022 10:01:54.530      376.36337016    
28 Apr 2022 16:32:10.242    28 Apr 2022 16:38:58.280      408.03873113    
28 Apr 2022 18:09:28.000    28 Apr 2022 18:16:30.179      422.17862344    
29 Apr 2022 07:37:52.070    29 Apr 2022 07:44:49.139      417.06832282    
29 Apr 2022 09:15:09.985    29 Apr 2022 09:22:16.683      426.69818440    
29 Apr 2022 15:52:34.168    29 Apr 2022 15:58:27.015      352.84745655    
29 Apr 2022 17:29:14.842    29 Apr 2022 17:36:54.994      460.15146050    
30 Apr 2022 06:58:34.429    30 Apr 2022 07:04:19.666      345.23746526    
30 Apr 2022 08:34:50.600    30 Apr 2022 08:42:31.734      461.13337751    
30 Apr 2022 15:13:07.332    30 Apr 2022 15:17:40.338      273.00610947    
30 Apr 2022 16:49:08.771    30 Apr 2022 16:57:08.153      479.38150072    
01 May 2022 06:19:46.431    01 May 2022 06:23:20.387      213.95589353    
01 May 2022 07:54:38.898    01 May 2022 08:02:40.576      481.67802442    
01 May 2022 14:34:06.372    01 May 2022 14:36:21.427      135.05505791    
01 May 2022 16:09:07.963    01 May 2022 16:17:11.215      483.25210152    
02 May 2022 07:14:34.524    02 May 2022 07:22:43.324      488.79988751    
02 May 2022 08:54:58.232    02 May 2022 08:58:06.043      187.81114466    
02 May 2022 15:29:11.519    02 May 2022 15:37:04.807      473.28789787    
02 May 2022 17:08:13.669    02 May 2022 17:12:18.202      244.53311182    
03 May 2022 06:34:37.677    03 May 2022 06:42:39.528      481.85016975    
03 May 2022 08:13:49.992    03 May 2022 08:18:51.549      301.55661815    
03 May 2022 14:49:19.145    03 May 2022 14:56:48.956      449.81132849    
03 May 2022 16:27:20.186    03 May 2022 16:33:19.215      359.02924509    
04 May 2022 05:54:49.196    04 May 2022 06:02:28.096      458.89993842    
04 May 2022 07:33:03.535    04 May 2022 07:39:17.513      373.97807487    
04 May 2022 14:09:31.135    04 May 2022 14:16:23.099      411.96371707    
04 May 2022 15:46:49.447    04 May 2022 15:53:53.522      424.07517352    
05 May 2022 05:15:11.001    05 May 2022 05:22:06.853      415.85252965    
05 May 2022 06:52:28.970    05 May 2022 06:59:33.654      424.68378738    
05 May 2022 13:29:48.720    05 May 2022 13:35:45.751      357.03091649    
05 May 2022 15:06:29.911    05 May 2022 15:14:12.396      462.48490470    
06 May 2022 04:35:47.625    06 May 2022 04:41:31.007      343.38178294    
06 May 2022 06:12:03.399    06 May 2022 06:19:42.657      459.25792940    
06 May 2022 12:50:15.470    06 May 2022 12:54:53.111      277.64180338    
06 May 2022 14:26:17.616    06 May 2022 14:34:19.526      481.90968744    
07 May 2022 03:56:54.695    07 May 2022 04:00:24.674      209.97869032    
07 May 2022 05:31:45.668    07 May 2022 05:39:45.436      479.76818170    
07 May 2022 12:11:07.046    07 May 2022 12:13:29.324      142.27845686    
07 May 2022 13:46:10.701    07 May 2022 13:54:16.493      485.79149883    
08 May 2022 04:51:35.410    08 May 2022 04:59:42.102      486.69231747    
08 May 2022 06:31:58.922    08 May 2022 06:35:03.906      184.98409584    
08 May 2022 13:06:08.251    08 May 2022 13:14:03.929      475.67838260    
08 May 2022 14:45:08.722    08 May 2022 14:49:18.500      249.77781123    
09 May 2022 04:11:32.828    09 May 2022 04:19:32.186      479.35819442    
09 May 2022 05:50:44.194    09 May 2022 05:55:43.918      299.72326144    
09 May 2022 12:26:09.958    09 May 2022 12:33:41.854      451.89590687    
09 May 2022 14:04:09.827    09 May 2022 14:10:12.894      363.06607568    
10 May 2022 03:31:38.785    10 May 2022 03:39:14.552      455.76727933    
10 May 2022 05:09:51.711    10 May 2022 05:16:04.040      372.32912863    
10 May 2022 11:46:16.123    10 May 2022 11:53:09.690      413.56764621    
10 May 2022 13:23:33.365    10 May 2022 13:30:40.920      427.55507411    
11 May 2022 02:51:55.281    11 May 2022 02:58:46.929      411.64785144    
11 May 2022 04:29:11.295    11 May 2022 04:36:14.262      422.96794286    
11 May 2022 11:06:27.997    11 May 2022 11:12:25.918      357.92081121    
11 May 2022 12:43:08.084    11 May 2022 12:50:53.548      465.46378710    
12 May 2022 02:12:27.116    12 May 2022 02:18:04.246      337.12970460    
12 May 2022 03:48:39.997    12 May 2022 03:56:17.306      457.30881756    
12 May 2022 10:26:49.246    12 May 2022 10:31:26.629      277.38300813    
12 May 2022 12:02:50.072    12 May 2022 12:10:54.406      484.33386743    
13 May 2022 01:33:31.674    13 May 2022 01:36:48.847      197.17361494    
13 May 2022 03:08:16.652    13 May 2022 03:16:14.082      477.43014557    
13 May 2022 09:47:36.333    13 May 2022 09:49:55.165      138.83163796    
13 May 2022 11:22:37.485    13 May 2022 11:30:45.047      487.56289588    
14 May 2022 02:28:00.899    14 May 2022 02:36:04.685      483.78641139    
14 May 2022 04:08:21.828    14 May 2022 04:11:27.062      185.23320275    
14 May 2022 10:42:29.419    14 May 2022 10:50:26.083      476.66374332    
14 May 2022 12:21:25.448    14 May 2022 12:25:45.074      259.62589796    
15 May 2022 01:47:52.966    15 May 2022 01:55:48.611      475.64533548    
15 May 2022 03:27:01.536    15 May 2022 03:32:01.071      299.53513916    
15 May 2022 10:02:25.592    15 May 2022 10:09:57.507      451.91483625    
15 May 2022 11:40:22.471    15 May 2022 11:46:31.674      369.20281537    
16 May 2022 01:07:53.777    16 May 2022 01:15:24.658      450.88020911    
16 May 2022 02:46:03.504    16 May 2022 02:52:15.245      371.74133258    
16 May 2022 09:22:26.344    16 May 2022 09:29:18.698      412.35348217    
16 May 2022 10:59:40.952    16 May 2022 11:06:52.875      431.92382022    
17 May 2022 00:28:05.484    17 May 2022 00:34:50.402      404.91762932    
17 May 2022 02:05:17.606    17 May 2022 02:12:19.518      421.91185921    
17 May 2022 08:42:33.031    17 May 2022 08:48:28.036      355.00510647    
17 May 2022 10:19:10.400    17 May 2022 10:26:58.889      468.48932012    
17 May 2022 23:48:33.359    17 May 2022 23:54:00.299      326.94004043    
18 May 2022 01:24:40.911    18 May 2022 01:32:16.591      455.68004289    
18 May 2022 08:02:49.659    18 May 2022 08:07:21.283      271.62476450    
18 May 2022 09:38:47.064    18 May 2022 09:46:53.184      486.11975752    
18 May 2022 23:09:38.279    18 May 2022 23:12:33.206      174.92745813    
19 May 2022 00:44:12.272    19 May 2022 00:52:07.359      475.08673989    
19 May 2022 07:23:35.840    19 May 2022 07:25:38.638      122.79847646    
19 May 2022 08:58:29.168    19 May 2022 09:06:37.250      488.08183732    
20 May 2022 00:03:51.359    20 May 2022 00:11:51.888      480.52994268    
20 May 2022 01:44:07.202    20 May 2022 01:47:16.522      189.32015063    
20 May 2022 08:18:15.857    20 May 2022 08:26:11.658      475.80095222    
20 May 2022 09:57:05.195    20 May 2022 10:01:37.758      272.56315586    
20 May 2022 23:23:38.449    20 May 2022 23:31:29.629      471.18001131    
21 May 2022 01:02:42.366    21 May 2022 01:07:43.932      301.56638914    
21 May 2022 07:38:06.899    21 May 2022 07:45:36.358      449.45957334    
21 May 2022 09:15:59.156    21 May 2022 09:22:15.780      376.62472461    
21 May 2022 22:43:34.567    21 May 2022 22:50:59.288      444.72094107    
22 May 2022 00:21:39.331    22 May 2022 00:27:52.072      372.74162293    
22 May 2022 06:58:02.719    22 May 2022 07:04:50.655      407.93596879    
22 May 2022 08:35:13.223    22 May 2022 08:42:29.799      436.57682977    
22 May 2022 22:03:42.085    22 May 2022 22:10:18.224      396.13846249    
22 May 2022 23:40:48.413    22 May 2022 23:47:50.437      422.02413386    
23 May 2022 06:18:04.863    23 May 2022 06:23:52.751      347.88786045    
23 May 2022 07:54:37.932    23 May 2022 08:02:29.006      471.07368739    
23 May 2022 21:24:07.001    23 May 2022 21:29:20.176      313.17453001    
23 May 2022 23:00:06.770    23 May 2022 23:07:41.641      454.87103532    
24 May 2022 05:38:17.987    24 May 2022 05:42:37.770      259.78299327    
24 May 2022 07:14:09.771    24 May 2022 07:22:16.637      486.86516153    
24 May 2022 20:45:16.914    24 May 2022 20:47:37.282      140.36784153    
24 May 2022 22:19:33.303    24 May 2022 22:27:26.534      473.23135177    
25 May 2022 04:59:10.087    25 May 2022 05:00:37.543      87.456533778    
25 May 2022 06:33:47.067    25 May 2022 06:41:54.087      487.02002579    
25 May 2022 21:39:07.728    25 May 2022 21:47:05.139      477.41128000    
25 May 2022 23:19:15.928    25 May 2022 23:22:33.909      197.98181910    
26 May 2022 05:53:29.033    26 May 2022 06:01:21.864      472.83120212    
26 May 2022 07:32:09.979    26 May 2022 07:36:57.225      287.24581265    
26 May 2022 20:58:50.393    26 May 2022 21:06:36.839      466.44527852    
26 May 2022 22:37:47.806    26 May 2022 22:42:54.234      306.42796413    
27 May 2022 05:13:15.512    27 May 2022 05:20:39.849      444.33703712    
27 May 2022 06:51:01.769    27 May 2022 06:57:26.406      384.63754890    
27 May 2022 20:18:42.450    27 May 2022 20:26:00.212      437.76275392    
27 May 2022 21:56:40.528    27 May 2022 22:02:56.390      375.86229789    
28 May 2022 04:33:07.051    28 May 2022 04:39:47.226      400.17504824    
28 May 2022 06:10:12.144    28 May 2022 06:17:33.194      441.04963071    
28 May 2022 19:38:46.569    28 May 2022 19:45:12.317      385.74829116    
28 May 2022 21:15:45.243    28 May 2022 21:22:49.033      423.78942616    
29 May 2022 03:53:05.486    29 May 2022 03:58:41.913      336.42715107    
29 May 2022 05:29:32.761    29 May 2022 05:37:25.657      472.89564523    
29 May 2022 18:59:09.794    29 May 2022 19:04:05.844      296.05041562    
29 May 2022 20:34:59.272    29 May 2022 20:42:34.606      455.33410362    
30 May 2022 03:13:16.573    30 May 2022 03:17:17.935      241.36261472    
30 May 2022 04:49:00.386    30 May 2022 04:57:06.748      486.36142571    
30 May 2022 18:20:35.755    30 May 2022 18:21:56.892      81.136539078    
30 May 2022 19:54:21.585    30 May 2022 20:02:13.877      472.29179271    
31 May 2022 04:08:33.466    31 May 2022 04:16:37.733      484.26658663    
31 May 2022 05:48:50.580    31 May 2022 05:50:23.176      92.596723849    
31 May 2022 19:13:51.960    31 May 2022 19:21:46.797      474.83627102    
31 May 2022 20:53:50.122    31 May 2022 20:57:21.565      211.44349108    
01 Jun 2022 03:28:11.296    01 Jun 2022 03:35:59.027      467.73094847    
01 Jun 2022 05:06:42.641    01 Jun 2022 05:11:45.307      302.66653437    
01 Jun 2022 18:33:30.828    01 Jun 2022 18:41:12.650      461.82138927    
01 Jun 2022 20:12:19.950    01 Jun 2022 20:17:34.455      314.50513661    
02 Jun 2022 02:47:53.810    02 Jun 2022 02:55:10.408      436.59835984    
02 Jun 2022 04:25:32.944    02 Jun 2022 04:32:05.718      392.77318736    
02 Jun 2022 17:53:19.497    02 Jun 2022 18:00:29.842      430.34457976    
02 Jun 2022 19:31:09.217    02 Jun 2022 19:37:30.679      381.46158073    
03 Jun 2022 02:07:41.717    03 Jun 2022 02:14:10.887      389.16931904    
03 Jun 2022 03:44:40.255    03 Jun 2022 03:52:05.358      445.10336519    
03 Jun 2022 17:13:21.033    03 Jun 2022 17:19:35.021      373.98734767    
03 Jun 2022 18:50:10.205    03 Jun 2022 18:57:17.737      427.53195012    
04 Jun 2022 01:27:37.273    04 Jun 2022 01:32:57.945      320.67171733    
04 Jun 2022 03:03:57.321    04 Jun 2022 03:11:51.184      473.86334109    
04 Jun 2022 16:33:43.994    04 Jun 2022 16:38:19.340      275.34663943    
04 Jun 2022 18:09:20.463    04 Jun 2022 18:16:57.821      457.35804689    
05 Jun 2022 00:47:48.092    05 Jun 2022 00:51:23.737      215.64490946    
05 Jun 2022 02:23:21.205    05 Jun 2022 02:31:25.833      484.62850285    
05 Jun 2022 17:28:39.061    05 Jun 2022 17:36:31.578      472.51714667    
06 Jun 2022 01:42:50.487    06 Jun 2022 01:50:50.420      479.93272799    
06 Jun 2022 03:22:38.746    06 Jun 2022 03:25:06.136      147.38999403    
06 Jun 2022 16:48:05.853    06 Jun 2022 16:55:58.859      473.00556656    
06 Jun 2022 18:27:51.862    06 Jun 2022 18:31:41.295      229.43279705    
07 Jun 2022 01:02:24.557    07 Jun 2022 01:10:05.243      460.68583040    
07 Jun 2022 02:40:45.420    07 Jun 2022 02:46:03.769      318.34930644    
07 Jun 2022 16:07:41.378    07 Jun 2022 16:15:18.822      457.44392326    
07 Jun 2022 17:46:20.469    07 Jun 2022 17:51:46.377      325.90825476    
08 Jun 2022 00:22:03.465    08 Jun 2022 00:29:09.947      426.48202748    
08 Jun 2022 01:59:34.537    08 Jun 2022 02:06:15.437      400.89966523    
08 Jun 2022 15:27:27.151    08 Jun 2022 15:34:29.651      422.49997775    
08 Jun 2022 17:05:06.817    08 Jun 2022 17:11:36.486      389.66845163    
08 Jun 2022 23:41:48.141    08 Jun 2022 23:48:03.305      375.16399934    
09 Jun 2022 01:18:39.079    09 Jun 2022 01:26:07.855      448.77661712    
09 Jun 2022 14:47:26.768    09 Jun 2022 14:53:27.441      360.67301163    
09 Jun 2022 16:24:04.467    09 Jun 2022 16:31:17.817      433.35042370    
09 Jun 2022 23:01:41.462    09 Jun 2022 23:06:42.164      300.70267583    
10 Jun 2022 00:37:52.816    10 Jun 2022 00:45:46.940      474.12418791    
10 Jun 2022 14:07:51.104    10 Jun 2022 14:12:01.019      249.91439204    
10 Jun 2022 15:43:11.259    10 Jun 2022 15:50:52.253      460.99367266    
10 Jun 2022 22:21:54.412    10 Jun 2022 22:24:55.304      180.89208486    
10 Jun 2022 23:57:13.117    11 Jun 2022 00:05:15.008      481.89054905    
11 Jun 2022 15:02:26.397    11 Jun 2022 15:10:20.293      473.89620087    
11 Jun 2022 16:43:45.267    11 Jun 2022 16:44:48.087      62.820237677    
11 Jun 2022 23:16:38.711    11 Jun 2022 23:24:33.007      474.29640678    
12 Jun 2022 00:56:03.833    12 Jun 2022 00:59:13.706      189.87304287    
12 Jun 2022 14:21:49.843    12 Jun 2022 14:29:41.670      471.82740237    
12 Jun 2022 16:01:21.878    12 Jun 2022 16:05:33.162      251.28416244    
12 Jun 2022 22:36:09.105    12 Jun 2022 22:43:41.111      452.00563552    
13 Jun 2022 00:14:18.756    13 Jun 2022 00:19:53.088      334.33215074    
13 Jun 2022 13:41:22.279    13 Jun 2022 13:48:55.388      453.10906383    
13 Jun 2022 15:19:49.604    13 Jun 2022 15:25:30.031      340.42731357    
13 Jun 2022 21:55:44.503    13 Jun 2022 22:02:38.802      414.29946179    
13 Jun 2022 23:33:06.654    13 Jun 2022 23:39:55.860      409.20637466    
14 Jun 2022 13:01:05.500    14 Jun 2022 13:07:59.346      413.84537554    
14 Jun 2022 14:38:33.302    14 Jun 2022 14:45:13.631      400.32929108    
14 Jun 2022 21:15:26.139    14 Jun 2022 21:21:24.543      358.40385274    
14 Jun 2022 22:52:08.447    14 Jun 2022 22:59:40.788      452.34094947    
15 Jun 2022 12:21:03.856    15 Jun 2022 12:26:48.885      345.02911577    
15 Jun 2022 13:57:27.807    15 Jun 2022 14:04:48.875      441.06738264    
15 Jun 2022 20:35:17.836    15 Jun 2022 20:39:54.241      276.40509526    
15 Jun 2022 22:11:18.849    15 Jun 2022 22:19:12.844      473.99535166    
16 Jun 2022 11:41:32.084    16 Jun 2022 11:45:08.966      216.88234335    
16 Jun 2022 13:16:31.298    16 Jun 2022 13:24:17.304      466.00672100    
16 Jun 2022 19:55:37.748    16 Jun 2022 19:57:49.511      131.76276977    
16 Jun 2022 21:30:35.539    16 Jun 2022 21:38:34.028      478.48937809    
17 Jun 2022 12:35:43.141    17 Jun 2022 12:43:39.256      476.11454342    
17 Jun 2022 14:16:25.329    17 Jun 2022 14:18:38.123      132.79394251    
17 Jun 2022 20:49:57.415    17 Jun 2022 20:57:45.123      467.70853327    
17 Jun 2022 22:29:01.651    17 Jun 2022 22:32:49.052      227.40056952    
18 Jun 2022 11:55:03.441    18 Jun 2022 12:02:54.322      470.88103291    
18 Jun 2022 13:34:19.935    18 Jun 2022 13:38:55.989      276.05390368    
18 Jun 2022 20:09:24.128    18 Jun 2022 20:16:46.162      442.03347859    
18 Jun 2022 21:47:21.916    18 Jun 2022 21:53:12.804      350.88896787    
19 Jun 2022 11:14:33.076    19 Jun 2022 11:22:01.322      448.24673510    
19 Jun 2022 12:52:46.886    19 Jun 2022 12:58:44.393      357.50681602    
19 Jun 2022 19:28:56.080    19 Jun 2022 19:35:36.435      400.35515910    
19 Jun 2022 21:06:08.497    19 Jun 2022 21:13:06.503      418.00655073    
20 Jun 2022 10:34:14.219    20 Jun 2022 10:40:57.780      403.56099377    
20 Jun 2022 12:11:28.174    20 Jun 2022 12:18:21.135      412.96072276    
20 Jun 2022 18:48:34.932    20 Jun 2022 18:54:13.992      339.06076119    
20 Jun 2022 20:25:07.551    20 Jun 2022 20:32:43.685      456.13345524    
21 Jun 2022 09:54:12.327    21 Jun 2022 09:59:37.944      325.61635111    
21 Jun 2022 11:30:19.790    21 Jun 2022 11:37:49.975      450.18524582    
21 Jun 2022 18:08:25.986    21 Jun 2022 18:12:33.272      247.28574757    
21 Jun 2022 19:44:14.650    21 Jun 2022 19:52:08.470      473.82044942    
22 Jun 2022 09:14:49.685    22 Jun 2022 09:17:39.234      169.54886819    
22 Jun 2022 10:49:20.261    22 Jun 2022 10:57:12.111      471.85005897    
22 Jun 2022 17:29:17.528    22 Jun 2022 17:29:45.779      28.251081111    
22 Jun 2022 19:03:27.788    22 Jun 2022 19:11:22.551      474.76313064    
23 Jun 2022 10:08:29.145    23 Jun 2022 10:16:27.696      478.55138836    
23 Jun 2022 11:48:43.811    23 Jun 2022 11:51:47.985      184.17357135    
23 Jun 2022 18:22:46.044    23 Jun 2022 18:30:26.534      460.48972970    
23 Jun 2022 20:01:30.643    23 Jun 2022 20:05:53.055      262.41225977    
24 Jun 2022 09:27:46.717    24 Jun 2022 09:35:36.159      469.44198482    
24 Jun 2022 11:06:46.356    24 Jun 2022 11:11:48.868      302.51129387    
24 Jun 2022 17:42:09.236    24 Jun 2022 17:49:20.291      431.05441077    
24 Jun 2022 19:19:54.616    24 Jun 2022 19:26:02.821      368.20570972    
25 Jun 2022 08:47:14.105    25 Jun 2022 08:54:36.075      441.97040090    
25 Jun 2022 10:25:12.678    25 Jun 2022 10:31:28.897      376.21919126    
25 Jun 2022 17:01:38.015    25 Jun 2022 17:08:02.872      384.85779420    
25 Jun 2022 18:38:39.936    25 Jun 2022 18:45:47.456      427.52043998    
26 Jun 2022 08:06:54.007    26 Jun 2022 08:13:24.448      390.44098724    
26 Jun 2022 09:43:51.949    26 Jun 2022 09:50:58.690      426.74097768    


Number of events : 243


Observer: Cape_Town
Start Time (UTC)            Stop Time (UTC)               Duration (s)         
27 Apr 2022 22:13:54.628    27 Apr 2022 22:16:03.013      128.38478537    
27 Apr 2022 23:47:55.164    27 Apr 2022 23:55:59.317      484.15345891    
28 Apr 2022 01:27:03.164    28 Apr 2022 01:32:40.365      337.20092447    
28 Apr 2022 04:46:03.739    28 Apr 2022 04:49:21.204      197.46420442    
28 Apr 2022 06:22:11.514    28 Apr 2022 06:29:53.496      461.98137696    
28 Apr 2022 07:59:54.649    28 Apr 2022 08:06:52.148      417.49844709    
28 Apr 2022 23:08:01.795    28 Apr 2022 23:16:00.691      478.89631425    
29 Apr 2022 00:46:35.812    29 Apr 2022 00:52:55.608      379.79689484    
29 Apr 2022 04:06:35.897    29 Apr 2022 04:08:26.225      110.32795280    
29 Apr 2022 05:42:22.179    29 Apr 2022 05:49:38.391      436.21209377    
29 Apr 2022 07:19:42.623    29 Apr 2022 07:27:18.347      455.72440526    
29 Apr 2022 22:28:14.565    29 Apr 2022 22:35:56.857      462.29174385    
30 Apr 2022 00:06:12.515    30 Apr 2022 00:13:08.038      415.52335062    
30 Apr 2022 05:02:33.745    30 Apr 2022 05:09:16.941      403.19564202    
30 Apr 2022 06:39:36.150    30 Apr 2022 06:47:34.168      478.01767853    
30 Apr 2022 21:48:34.804    30 Apr 2022 21:55:46.361      431.55706847    
30 Apr 2022 23:25:53.366    30 Apr 2022 23:33:17.646      444.27913473    
01 May 2022 01:06:44.645    01 May 2022 01:09:14.600      149.95524773    
01 May 2022 04:22:46.161    01 May 2022 04:28:49.233      363.07224015    
01 May 2022 05:59:33.431    01 May 2022 06:07:41.270      487.83865285    
01 May 2022 21:09:04.992    01 May 2022 21:15:26.594      381.60156281    
01 May 2022 22:45:38.544    01 May 2022 22:53:24.278      465.73452812    
02 May 2022 00:25:53.789    02 May 2022 00:29:37.957      224.16797132    
02 May 2022 03:42:59.567    02 May 2022 03:48:15.232      315.66522323    
02 May 2022 05:19:33.385    02 May 2022 05:27:40.603      487.21827110    
02 May 2022 06:58:37.601    02 May 2022 07:02:41.537      243.93570382    
02 May 2022 20:29:50.872    02 May 2022 20:34:51.677      300.80422552    
02 May 2022 22:05:28.300    02 May 2022 22:13:27.660      479.35932189    
02 May 2022 23:45:10.415    02 May 2022 23:49:54.507      284.09166592    
03 May 2022 03:03:14.473    03 May 2022 03:07:34.603      260.12909504    
03 May 2022 04:39:35.306    03 May 2022 04:47:32.758      477.45117870    
03 May 2022 06:17:50.067    03 May 2022 06:23:40.240      350.17279512    
03 May 2022 19:51:17.372    03 May 2022 19:53:36.545      139.17274140    
03 May 2022 21:25:22.991    03 May 2022 21:33:27.372      484.38082358    
03 May 2022 23:04:31.989    03 May 2022 23:10:07.097      335.10779813    
04 May 2022 02:23:32.406    04 May 2022 02:26:46.072      193.66620997    
04 May 2022 03:59:38.716    04 May 2022 04:07:18.117      459.40131715    
04 May 2022 05:37:22.097    04 May 2022 05:44:14.928      412.83096619    
04 May 2022 20:45:23.132    04 May 2022 20:53:22.804      479.67179159    
04 May 2022 22:23:57.891    04 May 2022 22:30:16.571      378.67949777    
05 May 2022 01:43:59.936    05 May 2022 01:45:43.406      103.46982043    
05 May 2022 03:19:43.291    05 May 2022 03:26:56.941      433.64999994    
05 May 2022 04:57:03.583    05 May 2022 05:04:35.550      451.96716069    
05 May 2022 20:05:29.522    05 May 2022 20:13:13.044      463.52190371    
05 May 2022 21:43:28.005    05 May 2022 21:50:23.194      415.18904250    
06 May 2022 02:39:48.838    06 May 2022 02:46:29.399      400.56049393    
06 May 2022 04:16:50.839    06 May 2022 04:24:45.643      474.80358034    
06 May 2022 19:25:43.485    06 May 2022 19:32:56.633      433.14812615    
06 May 2022 21:03:02.399    06 May 2022 21:10:26.977      444.57791228    
06 May 2022 22:43:54.566    06 May 2022 22:46:22.383      147.81683679    
07 May 2022 01:59:55.301    07 May 2022 02:05:55.575      360.27386750    
07 May 2022 03:36:41.982    07 May 2022 03:44:46.933      484.95119617    
07 May 2022 18:46:07.494    07 May 2022 18:52:30.956      383.46181348    
07 May 2022 20:22:41.236    07 May 2022 20:30:27.771      466.53516091    
07 May 2022 22:02:56.684    07 May 2022 22:06:40.530      223.84596700    
08 May 2022 01:20:02.819    08 May 2022 01:25:15.419      312.60036546    
08 May 2022 02:56:35.888    08 May 2022 03:04:40.401      484.51253901    
08 May 2022 04:35:40.839    08 May 2022 04:39:39.546      238.70722780    
08 May 2022 18:06:47.271    08 May 2022 18:11:50.145      302.87438157    
08 May 2022 19:42:24.762    08 May 2022 19:50:25.299      480.53672542    
08 May 2022 21:22:06.730    08 May 2022 21:26:51.502      284.77208839    
09 May 2022 00:40:11.922    09 May 2022 00:44:28.567      256.64580606    
09 May 2022 02:16:31.826    09 May 2022 02:24:26.647      474.82130713    
09 May 2022 03:54:46.387    09 May 2022 04:00:33.383      346.99598236    
09 May 2022 17:28:07.383    09 May 2022 17:30:29.479      142.09622528    
09 May 2022 19:02:13.327    09 May 2022 19:10:19.135      485.80722904    
09 May 2022 20:41:21.914    09 May 2022 20:46:58.397      336.48242512    
10 May 2022 00:00:24.225    10 May 2022 00:03:33.646      189.42117698    
10 May 2022 01:36:29.297    10 May 2022 01:44:06.061      456.76488066    
10 May 2022 03:14:12.169    10 May 2022 03:21:02.552      410.38294933    
10 May 2022 18:22:07.450    10 May 2022 18:30:08.657      481.20785875    
10 May 2022 20:00:41.555    10 May 2022 20:07:02.116      380.56026923    
10 May 2022 23:20:47.084    10 May 2022 23:22:23.633      96.549624356    
11 May 2022 00:56:27.963    11 May 2022 01:03:38.903      430.93976268    
11 May 2022 02:33:47.607    11 May 2022 02:41:17.463      449.85606994    
11 May 2022 17:42:07.932    11 May 2022 17:49:52.936      465.00394939    
11 May 2022 19:20:05.512    11 May 2022 19:27:02.941      417.42882617    
12 May 2022 00:16:27.622    12 May 2022 00:23:05.342      397.71962565    
12 May 2022 01:53:28.904    12 May 2022 02:01:21.743      472.83851167    
12 May 2022 17:02:16.121    12 May 2022 17:09:30.485      434.36378196    
12 May 2022 18:39:33.844    12 May 2022 18:47:00.887      447.04358740    
12 May 2022 20:20:24.285    12 May 2022 20:22:56.878      152.59325425    
12 May 2022 23:36:28.209    12 May 2022 23:42:25.462      357.25225343    
13 May 2022 01:13:14.138    13 May 2022 01:21:17.154      483.01571551    
13 May 2022 16:22:34.540    13 May 2022 16:28:58.629      384.08923099    
13 May 2022 17:59:06.711    13 May 2022 18:06:55.806      469.09489576    
13 May 2022 19:39:20.557    13 May 2022 19:43:08.919      228.36178784    
13 May 2022 22:56:29.863    13 May 2022 23:01:39.211      309.34861094    
14 May 2022 00:33:02.162    14 May 2022 00:41:04.688      482.52559954    
14 May 2022 02:12:05.340    14 May 2022 02:16:05.260      239.92004748    
14 May 2022 15:43:09.073    14 May 2022 15:48:11.329      302.25660084    
14 May 2022 17:18:44.361    14 May 2022 17:26:47.412      483.05128631    
14 May 2022 18:58:24.633    14 May 2022 19:03:13.957      289.32419041    
14 May 2022 22:16:33.120    14 May 2022 22:20:46.216      253.09607772    
14 May 2022 23:52:52.231    15 May 2022 00:00:44.953      472.72172651    
15 May 2022 01:31:05.328    15 May 2022 01:36:52.954      347.62631301    
15 May 2022 15:04:25.801    15 May 2022 15:06:42.354      136.55235290    
15 May 2022 16:38:27.153    15 May 2022 16:46:35.274      488.12089615    
15 May 2022 18:17:33.871    15 May 2022 18:23:14.944      341.07281273    
15 May 2022 21:36:39.657    15 May 2022 21:39:45.051      185.39387000    
15 May 2022 23:12:43.840    15 May 2022 23:20:18.345      454.50457401    
16 May 2022 00:50:25.418    16 May 2022 00:57:16.086      410.66859264    
16 May 2022 15:58:15.619    16 May 2022 16:06:18.754      483.13521452    
16 May 2022 17:36:47.626    16 May 2022 17:43:12.751      385.12504846    
16 May 2022 20:56:57.448    16 May 2022 20:58:28.085      90.637872450    
16 May 2022 22:32:36.648    16 May 2022 22:39:45.129      428.48111861    
17 May 2022 00:09:55.131    17 May 2022 00:17:24.968      449.83758753    
17 May 2022 15:18:10.591    17 May 2022 15:25:56.897      466.30603352    
17 May 2022 16:56:05.776    17 May 2022 17:03:07.652      421.87635441    
17 May 2022 18:37:50.550    17 May 2022 18:38:26.171      35.620800115    
17 May 2022 21:52:30.448    17 May 2022 21:59:05.484      395.03533342    
17 May 2022 23:29:30.692    17 May 2022 23:37:23.210      472.51750657    
18 May 2022 14:38:13.470    18 May 2022 14:45:28.167      434.69679854    
18 May 2022 16:15:28.390    18 May 2022 16:22:59.654      451.26361926    
18 May 2022 17:56:14.769    18 May 2022 17:58:58.037      163.26822904    
18 May 2022 21:12:25.176    18 May 2022 21:18:19.503      354.32673180    
18 May 2022 22:49:10.187    18 May 2022 22:57:12.567      482.38035886    
19 May 2022 13:58:26.905    19 May 2022 14:04:49.771      382.86651364    
19 May 2022 15:34:55.646    19 May 2022 15:42:48.605      472.95913878    
19 May 2022 17:15:06.188    19 May 2022 17:19:03.196      237.00732911    
19 May 2022 20:32:20.970    19 May 2022 20:37:27.150      306.17981181    
19 May 2022 22:08:52.476    19 May 2022 22:16:54.034      481.55863071    
19 May 2022 23:47:51.320    19 May 2022 23:51:59.329      248.00857891    
20 May 2022 13:18:57.182    20 May 2022 13:23:55.278      298.09661598    
20 May 2022 14:54:27.804    20 May 2022 15:02:34.213      486.40906960    
20 May 2022 16:34:04.880    20 May 2022 16:39:01.986      297.10601207    
20 May 2022 19:52:18.372    20 May 2022 19:56:28.065      249.69255942    
20 May 2022 21:28:36.819    20 May 2022 21:36:28.223      471.40456941    
20 May 2022 23:06:47.157    20 May 2022 23:12:39.555      352.39723111    
21 May 2022 12:40:14.788    21 May 2022 12:42:14.058      119.26969166    
21 May 2022 14:14:05.244    21 May 2022 14:22:16.034      490.78955592    
21 May 2022 15:53:08.661    21 May 2022 15:58:56.916      348.25520060    
21 May 2022 19:12:19.085    21 May 2022 19:15:20.817      181.73203894    
21 May 2022 20:48:22.714    21 May 2022 20:55:55.535      452.82064788    
21 May 2022 22:26:02.192    21 May 2022 22:32:56.143      413.95136754    
22 May 2022 13:33:48.529    22 May 2022 13:41:53.411      484.88158844    
22 May 2022 15:12:17.001    22 May 2022 15:18:48.753      391.75222975    
22 May 2022 18:32:31.491    22 May 2022 18:33:57.391      85.899520561    
22 May 2022 20:08:09.825    22 May 2022 20:15:16.244      426.41936563    
22 May 2022 21:45:26.620    22 May 2022 21:52:58.737      452.11692885    
23 May 2022 12:53:38.539    23 May 2022 13:01:25.348      466.80931861    
23 May 2022 14:31:29.827    23 May 2022 14:38:37.733      427.90545380    
23 May 2022 16:12:57.374    23 May 2022 16:14:11.464      74.090372119    
23 May 2022 19:27:57.948    23 May 2022 19:34:30.542      392.59439885    
23 May 2022 21:04:56.816    23 May 2022 21:12:50.808      473.99180612    
24 May 2022 12:13:36.765    24 May 2022 12:20:50.229      433.46408011    
24 May 2022 13:50:47.239    24 May 2022 13:58:23.843      456.60428979    
24 May 2022 15:31:27.858    24 May 2022 15:34:25.743      177.88533820    
24 May 2022 18:47:47.019    24 May 2022 18:53:38.539      351.52008212    
24 May 2022 20:24:30.919    24 May 2022 20:32:34.064      483.14425251    
25 May 2022 11:33:46.063    25 May 2022 11:40:05.058      378.99442704    
25 May 2022 13:10:09.430    25 May 2022 13:18:06.916      477.48564372    
25 May 2022 14:50:15.237    25 May 2022 14:54:23.804      248.56726534    
25 May 2022 18:07:37.176    25 May 2022 18:12:40.217      303.04173538    
25 May 2022 19:44:07.819    25 May 2022 19:52:09.479      481.65948323    
25 May 2022 21:23:00.108    25 May 2022 21:27:22.473      262.36463097    
26 May 2022 10:54:13.438    26 May 2022 10:59:02.693      289.25433563    
26 May 2022 12:29:36.685    26 May 2022 12:37:46.645      489.95960669    
26 May 2022 14:09:09.226    26 May 2022 14:14:16.349      307.12314493    
26 May 2022 17:27:28.957    26 May 2022 17:31:35.240      246.28274180    
26 May 2022 19:03:46.791    26 May 2022 19:11:37.657      470.86617462    
26 May 2022 20:41:53.185    26 May 2022 20:47:54.298      361.11297448    
27 May 2022 10:15:40.953    27 May 2022 10:17:00.929      79.975963687    
27 May 2022 11:49:09.407    27 May 2022 11:57:22.562      493.15519009    
27 May 2022 13:28:08.199    27 May 2022 13:34:05.334      357.13538906    
27 May 2022 16:47:24.075    27 May 2022 16:50:22.190      178.11479657    
27 May 2022 18:23:27.343    27 May 2022 18:30:58.999      451.65585964    
27 May 2022 20:01:03.965    27 May 2022 20:08:04.051      420.08560837    
28 May 2022 11:08:48.194    28 May 2022 11:16:53.975      485.78066700    
28 May 2022 12:47:11.775    28 May 2022 12:53:51.380      399.60466308    
28 May 2022 16:07:31.237    28 May 2022 16:08:52.747      81.509865168    
28 May 2022 17:43:09.142    28 May 2022 17:50:13.781      424.63856817    
28 May 2022 19:20:23.738    28 May 2022 19:28:00.282      456.54437542    
29 May 2022 10:28:33.990    29 May 2022 10:36:19.822      465.83291951    
29 May 2022 12:06:19.937    29 May 2022 12:13:34.656      434.71898648    
29 May 2022 13:47:34.558    29 May 2022 13:49:18.742      104.18407519    
29 May 2022 17:02:51.986    29 May 2022 17:09:22.199      390.21245266    
29 May 2022 18:39:49.124    29 May 2022 18:47:46.214      477.08999390    
30 May 2022 09:48:28.408    30 May 2022 09:55:38.355      429.94752681    
30 May 2022 11:25:32.814    30 May 2022 11:33:15.117      462.30244272    
30 May 2022 13:06:06.653    30 May 2022 13:09:20.948      194.29505544    
30 May 2022 16:22:35.810    30 May 2022 16:28:24.373      348.56262859    
30 May 2022 17:59:18.355    30 May 2022 18:07:23.460      485.10483300    
30 May 2022 19:39:51.767    30 May 2022 19:40:40.164      48.397155642    
31 May 2022 09:08:34.619    31 May 2022 09:14:46.258      371.63913790    
31 May 2022 10:44:50.619    31 May 2022 10:52:52.562      481.94371368    
31 May 2022 12:24:50.600    31 May 2022 12:29:12.194      261.59339383    
31 May 2022 15:42:20.745    31 May 2022 15:47:20.296      299.55008891    
31 May 2022 17:18:50.359    31 May 2022 17:26:52.946      482.58697707    
31 May 2022 18:57:34.490    31 May 2022 19:02:15.968      281.47816012    
01 Jun 2022 08:29:00.815    01 Jun 2022 08:33:35.189      274.37353441    
01 Jun 2022 10:04:13.651    01 Jun 2022 10:12:26.655      493.00391665    
01 Jun 2022 11:43:40.539    01 Jun 2022 11:48:58.747      318.20786276    
01 Jun 2022 15:02:07.331    01 Jun 2022 15:06:09.641      242.31083522    
01 Jun 2022 16:38:24.431    01 Jun 2022 16:46:15.250      470.81938380    
01 Jun 2022 18:16:25.891    01 Jun 2022 18:22:38.937      373.04627137    
02 Jun 2022 09:23:42.338    02 Jun 2022 09:31:56.886      494.54786635    
02 Jun 2022 11:02:35.341    02 Jun 2022 11:08:42.048      366.70703046    
02 Jun 2022 14:21:57.304    02 Jun 2022 14:24:50.973      173.66888237    
02 Jun 2022 15:58:00.088    02 Jun 2022 16:05:30.757      450.66897415    
02 Jun 2022 17:35:33.173    02 Jun 2022 17:42:41.696      428.52282120    
03 Jun 2022 08:43:17.319    03 Jun 2022 08:51:22.503      485.18394171    
03 Jun 2022 10:21:34.766    03 Jun 2022 10:28:22.555      407.78937087    
03 Jun 2022 13:42:00.017    03 Jun 2022 13:43:15.340      75.322953821    
03 Jun 2022 15:17:36.999    03 Jun 2022 15:24:39.733      422.73364017    
03 Jun 2022 16:54:48.890    03 Jun 2022 17:02:31.519      462.62947902    
04 Jun 2022 08:02:59.615    04 Jun 2022 08:10:42.346      462.73151056    
04 Jun 2022 09:40:38.849    04 Jun 2022 09:48:00.363      441.51345306    
04 Jun 2022 11:21:42.477    04 Jun 2022 11:23:52.240      129.76314743    
04 Jun 2022 14:37:14.962    04 Jun 2022 14:43:42.369      387.40728846    
04 Jun 2022 16:14:09.969    04 Jun 2022 16:22:11.303      481.33462833    
05 Jun 2022 07:22:51.014    05 Jun 2022 07:29:54.474      423.45974485    
05 Jun 2022 08:59:47.744    05 Jun 2022 09:07:35.374      467.62979797    
05 Jun 2022 10:40:14.250    05 Jun 2022 10:43:45.011      210.76084730    
05 Jun 2022 13:56:53.910    05 Jun 2022 14:02:38.784      344.87447406    
05 Jun 2022 15:33:34.755    05 Jun 2022 15:41:42.530      487.77483021    
05 Jun 2022 17:13:28.709    05 Jun 2022 17:15:40.954      132.24534423    
06 Jun 2022 06:42:55.153    06 Jun 2022 06:48:55.083      359.92969188    
06 Jun 2022 08:19:01.679    06 Jun 2022 08:27:07.349      485.66993378    
06 Jun 2022 09:58:55.016    06 Jun 2022 10:03:29.837      274.82152503    
06 Jun 2022 13:16:33.979    06 Jun 2022 13:21:28.970      294.99083074    
06 Jun 2022 14:53:02.231    06 Jun 2022 15:01:06.060      483.82953282    
06 Jun 2022 16:31:37.210    06 Jun 2022 16:36:40.748      303.53805700    
07 Jun 2022 06:03:22.231    07 Jun 2022 06:07:33.804      251.57227444    
07 Jun 2022 07:38:20.972    07 Jun 2022 07:46:35.905      494.93392498    
07 Jun 2022 09:17:41.262    07 Jun 2022 09:23:10.614      329.35240099    
07 Jun 2022 12:36:15.728    07 Jun 2022 12:40:12.581      236.85243500    
07 Jun 2022 14:12:31.716    07 Jun 2022 14:20:22.433      470.71692258    
07 Jun 2022 15:50:27.453    07 Jun 2022 15:56:54.610      387.15669354    
08 Jun 2022 06:57:46.080    08 Jun 2022 07:06:00.483      494.40343191    
08 Jun 2022 08:36:32.242    08 Jun 2022 08:42:48.372      376.12954115    
08 Jun 2022 11:56:01.022    08 Jun 2022 11:58:48.065      167.04250197    
08 Jun 2022 13:32:02.742    08 Jun 2022 13:39:32.008      449.26591805    
08 Jun 2022 15:09:31.670    08 Jun 2022 15:16:50.119      438.44847459    
09 Jun 2022 06:17:17.698    09 Jun 2022 06:25:20.252      482.55378662    
09 Jun 2022 07:55:27.835    09 Jun 2022 08:02:23.425      415.58975510    
09 Jun 2022 11:16:01.087    09 Jun 2022 11:17:04.608      63.520336663    
09 Jun 2022 12:51:34.987    09 Jun 2022 12:58:35.038      420.05075704    
09 Jun 2022 14:28:43.649    09 Jun 2022 14:36:33.296      469.64695661    
10 Jun 2022 05:36:56.960    10 Jun 2022 05:44:33.922      456.96143116    
10 Jun 2022 07:14:28.124    10 Jun 2022 07:21:55.796      447.67179134    
10 Jun 2022 08:55:21.974    10 Jun 2022 08:57:53.518      151.54457475    
10 Jun 2022 12:11:08.258    10 Jun 2022 12:17:31.706      383.44800440    
10 Jun 2022 13:48:00.655    10 Jun 2022 13:56:06.689      486.03447176    
11 Jun 2022 04:56:45.906    11 Jun 2022 05:03:39.281      413.37519981    
11 Jun 2022 06:33:33.286    11 Jun 2022 06:41:25.339      472.05244673    
11 Jun 2022 08:13:52.126    11 Jun 2022 08:17:38.351      226.22522606    
11 Jun 2022 11:30:42.501    11 Jun 2022 11:36:22.123      339.62159852    
11 Jun 2022 13:07:21.168    11 Jun 2022 13:15:31.636      490.46803534    
11 Jun 2022 14:46:50.375    11 Jun 2022 14:49:57.605      187.23003517    
12 Jun 2022 04:16:48.891    12 Jun 2022 04:22:31.800      342.90927808    
12 Jun 2022 05:52:43.572    12 Jun 2022 06:00:51.772      488.19996400    
12 Jun 2022 07:32:29.591    12 Jun 2022 07:37:17.013      287.42251564    
12 Jun 2022 10:50:17.882    12 Jun 2022 10:55:06.264      288.38153811    
12 Jun 2022 12:26:44.237    12 Jun 2022 12:34:48.925      484.68785175    
12 Jun 2022 14:05:09.493    12 Jun 2022 14:10:36.405      326.91151325    
13 Jun 2022 03:37:19.769    13 Jun 2022 03:40:57.442      217.67201826    
13 Jun 2022 05:11:59.328    13 Jun 2022 05:20:14.668      495.34068103    
13 Jun 2022 06:51:12.164    13 Jun 2022 06:56:52.072      339.90804398    
13 Jun 2022 10:09:55.043    13 Jun 2022 10:13:43.721      228.67841759    
13 Jun 2022 11:46:09.220    13 Jun 2022 11:53:59.054      469.83363427    
13 Jun 2022 13:23:58.591    13 Jun 2022 13:30:40.935      402.34395904    
14 Jun 2022 04:31:21.058    14 Jun 2022 04:39:33.408      492.35031491    
14 Jun 2022 06:09:59.376    14 Jun 2022 06:16:24.266      384.89018565    
14 Jun 2022 09:29:36.190    14 Jun 2022 09:32:12.624      156.43360225    
14 Jun 2022 11:05:35.676    14 Jun 2022 11:13:02.362      446.68567531    
14 Jun 2022 12:42:59.857    14 Jun 2022 12:50:28.814      448.95748958    
15 Jun 2022 03:50:49.541    15 Jun 2022 03:58:47.070      477.52888366    
15 Jun 2022 05:28:51.198    15 Jun 2022 05:35:53.797      422.59991309    
15 Jun 2022 07:10:21.389    15 Jun 2022 07:11:29.255      67.866344447    
15 Jun 2022 08:49:39.393    15 Jun 2022 08:50:15.345      35.952147329    
15 Jun 2022 10:25:03.307    15 Jun 2022 10:31:59.091      415.78381020    
15 Jun 2022 12:02:08.182    15 Jun 2022 12:10:04.959      476.77605192    
16 Jun 2022 03:10:26.072    16 Jun 2022 03:17:54.195      448.12218117    
16 Jun 2022 04:47:47.756    16 Jun 2022 04:55:20.630      452.87381911    
16 Jun 2022 06:28:32.556    16 Jun 2022 06:31:22.655      170.09901577    
16 Jun 2022 09:44:31.944    16 Jun 2022 09:50:49.416      377.47207750    
16 Jun 2022 11:21:21.171    16 Jun 2022 11:29:31.578      490.40660594    
17 Jun 2022 02:30:13.064    17 Jun 2022 02:36:52.200      399.13612527    
17 Jun 2022 04:06:49.259    17 Jun 2022 04:14:44.578      475.31873704    
17 Jun 2022 05:47:00.121    17 Jun 2022 05:51:00.454      240.33376481    
17 Jun 2022 09:04:01.570    17 Jun 2022 09:09:33.436      331.86544968    
17 Jun 2022 10:40:37.452    17 Jun 2022 10:48:49.869      492.41727887    
17 Jun 2022 12:19:46.364    17 Jun 2022 12:23:39.423      233.05974189    
18 Jun 2022 01:50:16.004    18 Jun 2022 01:55:35.425      319.42035399    
18 Jun 2022 03:25:55.988    18 Jun 2022 03:34:05.323      489.33514474    
18 Jun 2022 05:05:34.044    18 Jun 2022 05:10:33.148      299.10407915    
18 Jun 2022 08:23:32.423    18 Jun 2022 08:28:11.087      278.66346067    
18 Jun 2022 09:59:56.152    18 Jun 2022 10:08:00.552      484.39963697    
18 Jun 2022 11:38:11.385    18 Jun 2022 11:44:01.641      350.25618270    
19 Jun 2022 01:10:56.560    19 Jun 2022 01:13:42.026      165.46564281    
19 Jun 2022 02:45:08.331    19 Jun 2022 02:53:22.393      494.06275501    
19 Jun 2022 04:24:12.872    19 Jun 2022 04:30:02.543      349.67029426    
19 Jun 2022 07:43:05.331    19 Jun 2022 07:46:41.814      216.48302382    
19 Jun 2022 09:19:16.684    19 Jun 2022 09:27:04.091      467.40655499    
19 Jun 2022 10:56:59.171    19 Jun 2022 11:03:56.727      417.55524811    
20 Jun 2022 02:04:26.858    20 Jun 2022 02:12:35.103      488.24523728    
20 Jun 2022 03:42:56.323    20 Jun 2022 03:49:29.181      392.85794537    
20 Jun 2022 07:02:43.298    20 Jun 2022 07:05:02.993      139.69508442    
20 Jun 2022 08:38:38.644    20 Jun 2022 08:46:00.805      442.16080641    
20 Jun 2022 10:15:57.536    20 Jun 2022 10:23:36.683      459.14704468    
21 Jun 2022 01:23:52.463    21 Jun 2022 01:31:42.417      469.95455181    
21 Jun 2022 03:01:44.438    21 Jun 2022 03:08:53.186      428.74860358    
21 Jun 2022 04:43:00.647    21 Jun 2022 04:44:37.530      96.882384445    
21 Jun 2022 07:58:01.771    21 Jun 2022 08:04:50.927      409.15567840    
21 Jun 2022 09:35:02.305    21 Jun 2022 09:43:05.502      483.19718172    
22 Jun 2022 00:43:26.670    22 Jun 2022 00:50:42.657      435.98691551    
22 Jun 2022 02:20:37.381    22 Jun 2022 02:28:14.479      457.09766024    
22 Jun 2022 04:01:13.447    22 Jun 2022 04:04:19.670      186.22351214    
22 Jun 2022 07:17:25.940    22 Jun 2022 07:23:34.622      368.68199806    
22 Jun 2022 08:54:11.403    22 Jun 2022 09:02:25.088      493.68523147    
23 Jun 2022 00:03:12.434    23 Jun 2022 00:09:32.705      380.27073242    
23 Jun 2022 01:39:35.390    23 Jun 2022 01:47:32.838      477.44761429    
23 Jun 2022 03:19:37.891    23 Jun 2022 03:23:51.158      253.26663132    
23 Jun 2022 06:36:51.197    23 Jun 2022 06:42:11.961      320.76346837    
23 Jun 2022 08:13:23.606    23 Jun 2022 08:21:36.503      492.89682799    
23 Jun 2022 09:52:14.746    23 Jun 2022 09:56:47.606      272.85988497    
23 Jun 2022 23:23:17.116    23 Jun 2022 23:28:05.029      287.91365566    
24 Jun 2022 00:58:38.780    24 Jun 2022 01:06:47.907      489.12647810    
24 Jun 2022 02:38:08.211    24 Jun 2022 02:43:18.207      309.99518351    
24 Jun 2022 05:56:17.908    24 Jun 2022 06:00:42.793      264.88463748    
24 Jun 2022 07:32:38.127    24 Jun 2022 07:40:40.400      482.27296908    
24 Jun 2022 09:10:43.236    24 Jun 2022 09:16:55.707      372.47051006    
24 Jun 2022 22:44:31.335    24 Jun 2022 22:45:28.847      57.511568209    
25 Jun 2022 00:17:47.989    25 Jun 2022 00:25:59.161      491.17158368    
25 Jun 2022 01:56:43.392    25 Jun 2022 02:02:42.173      358.78102550    
25 Jun 2022 05:15:47.260    25 Jun 2022 05:19:06.245      198.98470104    
25 Jun 2022 06:51:54.432    25 Jun 2022 06:59:37.207      462.77509594    
25 Jun 2022 08:29:29.654    25 Jun 2022 08:36:41.503      431.84903436    
25 Jun 2022 23:37:03.668    25 Jun 2022 23:45:05.830      482.16139568    
26 Jun 2022 01:15:23.266    26 Jun 2022 01:22:03.466      400.20001101    
26 Jun 2022 04:35:24.155    26 Jun 2022 04:37:17.838      113.68295811    
26 Jun 2022 06:11:12.162    26 Jun 2022 06:18:27.223      435.06102943    
26 Jun 2022 07:48:25.306    26 Jun 2022 07:56:13.512      468.20681656    


Number of events : 334


Observer: Hawaii
Start Time (UTC)            Stop Time (UTC)               Duration (s)         
27 Apr 2022 21:21:23.970    27 Apr 2022 21:27:11.341      347.37092470    
27 Apr 2022 22:57:51.908    27 Apr 2022 23:05:15.095      443.18658225    
28 Apr 2022 07:14:45.341    28 Apr 2022 07:22:11.352      446.01115643    
28 Apr 2022 08:53:10.470    28 Apr 2022 08:58:13.220      302.74957996    
28 Apr 2022 20:42:41.410    28 Apr 2022 20:46:09.294      207.88355264    
28 Apr 2022 22:17:37.841    28 Apr 2022 22:25:31.809      473.96774450    
29 Apr 2022 06:35:07.426    29 Apr 2022 06:41:49.206      401.78009039    
29 Apr 2022 08:12:32.152    29 Apr 2022 08:19:05.475      393.32341540    
29 Apr 2022 21:37:32.762    29 Apr 2022 21:45:40.467      487.70524291    
30 Apr 2022 05:55:39.080    30 Apr 2022 06:01:11.727      332.64653074    
30 Apr 2022 07:32:11.227    30 Apr 2022 07:39:36.807      445.57928767    
30 Apr 2022 20:57:36.274    30 Apr 2022 21:05:41.121      484.84724632    
30 Apr 2022 22:37:55.670    30 Apr 2022 22:40:44.773      169.10331168    
01 May 2022 05:16:30.228    01 May 2022 05:20:08.607      218.37862496    
01 May 2022 06:52:00.503    01 May 2022 06:59:54.072      473.56884397    
01 May 2022 20:17:48.893    01 May 2022 20:25:32.916      464.02257490    
01 May 2022 21:56:37.709    01 May 2022 22:01:47.553      309.84485146    
02 May 2022 06:11:57.176    02 May 2022 06:19:59.728      482.55233257    
02 May 2022 19:38:12.403    02 May 2022 19:45:13.732      421.32920483    
02 May 2022 21:15:51.447    02 May 2022 21:22:20.817      389.37019523    
03 May 2022 05:32:00.055    03 May 2022 05:39:54.613      474.55833833    
03 May 2022 07:12:21.606    03 May 2022 07:13:47.361      85.755245481    
03 May 2022 18:58:51.451    03 May 2022 19:04:38.589      347.13845135    
03 May 2022 20:35:20.224    03 May 2022 20:42:40.864      440.64027427    
04 May 2022 04:52:08.926    04 May 2022 04:59:38.573      449.64619033    
04 May 2022 06:30:35.004    04 May 2022 06:35:38.632      303.62720765    
04 May 2022 18:20:02.991    04 May 2022 18:23:30.196      207.20445786    
04 May 2022 19:54:59.795    04 May 2022 20:02:51.569      471.77429935    
05 May 2022 04:12:24.607    05 May 2022 04:19:10.408      405.80119172    
05 May 2022 05:49:49.994    05 May 2022 05:56:25.213      395.21948362    
05 May 2022 19:14:48.555    05 May 2022 19:22:54.171      485.61654316    
06 May 2022 03:32:49.850    06 May 2022 03:38:26.973      337.12309599    
06 May 2022 05:09:22.682    06 May 2022 05:16:50.651      447.96900105    
06 May 2022 18:34:46.084    06 May 2022 18:42:48.730      482.64568665    
06 May 2022 20:15:06.695    06 May 2022 20:17:50.229      163.53327110    
07 May 2022 02:53:34.211    07 May 2022 02:57:18.313      224.10176896    
07 May 2022 04:29:05.742    07 May 2022 04:37:01.917      476.17541018    
07 May 2022 17:54:52.903    07 May 2022 18:02:34.365      461.46131308    
07 May 2022 19:33:41.330    07 May 2022 19:38:48.330      306.99998250    
08 May 2022 03:48:56.327    08 May 2022 03:57:01.500      485.17325039    
08 May 2022 17:15:10.848    08 May 2022 17:22:08.887      418.03878627    
08 May 2022 18:52:48.815    08 May 2022 18:59:15.896      387.08152862    
09 May 2022 03:08:53.224    09 May 2022 03:16:50.238      477.01463472    
09 May 2022 04:49:07.862    09 May 2022 04:50:49.429      101.56694306    
09 May 2022 16:35:44.767    09 May 2022 16:41:27.096      342.32854138    
09 May 2022 18:12:11.622    09 May 2022 18:19:30.070      438.44789184    
10 May 2022 02:28:56.214    10 May 2022 02:36:27.968      451.75327349    
10 May 2022 04:07:20.433    10 May 2022 04:12:29.514      309.08177347    
10 May 2022 15:56:53.056    10 May 2022 16:00:10.243      197.18635313    
10 May 2022 17:31:45.396    10 May 2022 17:39:34.820      469.42430612    
11 May 2022 01:49:06.128    11 May 2022 01:55:53.461      407.33314566    
11 May 2022 03:26:30.007    11 May 2022 03:33:09.528      399.52104479    
11 May 2022 16:51:28.503    11 May 2022 16:59:31.397      482.89373713    
12 May 2022 01:09:25.776    12 May 2022 01:15:03.498      337.72233994    
12 May 2022 02:45:57.074    12 May 2022 02:53:28.617      451.54305693    
12 May 2022 16:11:20.530    12 May 2022 16:19:19.837      479.30712600    
12 May 2022 17:51:38.755    12 May 2022 17:54:21.974      163.21919648    
13 May 2022 00:30:05.023    13 May 2022 00:33:47.804      222.78135486    
13 May 2022 02:05:34.496    13 May 2022 02:13:33.553      479.05687590    
13 May 2022 15:31:22.040    13 May 2022 15:38:59.204      457.16448465    
13 May 2022 17:10:07.718    13 May 2022 17:15:14.144      306.42557277    
14 May 2022 01:25:19.478    14 May 2022 01:33:26.762      487.28400136    
14 May 2022 14:51:34.992    14 May 2022 14:58:27.176      412.18395891    
14 May 2022 16:29:09.624    14 May 2022 16:35:35.746      386.12204032    
15 May 2022 00:45:10.838    15 May 2022 00:53:09.043      478.20586242    
15 May 2022 02:25:12.670    15 May 2022 02:27:20.908      128.23775714    
15 May 2022 14:12:04.648    15 May 2022 14:17:38.135      333.48645810    
15 May 2022 15:48:26.935    15 May 2022 15:55:43.925      436.99007939    
16 May 2022 00:05:08.396    16 May 2022 00:12:40.187      451.79044136    
16 May 2022 01:43:28.216    16 May 2022 01:48:46.170      317.95389738    
16 May 2022 13:33:12.538    16 May 2022 13:36:10.189      177.65059294    
16 May 2022 15:07:55.304    16 May 2022 15:15:42.634      467.33012995    
16 May 2022 23:25:13.064    16 May 2022 23:31:58.884      405.81985643    
17 May 2022 01:02:33.354    17 May 2022 01:09:18.774      405.42053377    
17 May 2022 14:27:33.120    17 May 2022 14:35:33.098      479.97776333    
17 May 2022 22:45:27.872    17 May 2022 22:51:01.695      333.82336346    
18 May 2022 00:21:55.406    18 May 2022 00:29:31.036      455.62973733    
18 May 2022 13:47:20.014    18 May 2022 13:55:15.311      475.29716705    
18 May 2022 15:27:32.078    18 May 2022 15:30:21.125      169.04764348    
18 May 2022 22:06:03.808    18 May 2022 22:09:37.224      213.41576180    
18 May 2022 23:41:27.672    18 May 2022 23:49:29.290      481.61781648    
19 May 2022 13:07:16.635    19 May 2022 13:14:48.252      451.61660247    
19 May 2022 14:45:57.200    19 May 2022 14:51:05.895      308.69452043    
19 May 2022 23:01:07.492    19 May 2022 23:09:15.832      488.33995803    
20 May 2022 12:27:25.148    20 May 2022 12:34:09.401      404.25239014    
20 May 2022 14:04:54.213    20 May 2022 14:11:21.222      387.00913035    
20 May 2022 22:20:53.763    20 May 2022 22:28:51.386      477.62313826    
21 May 2022 00:00:40.227    21 May 2022 00:03:18.793      158.56609703    
21 May 2022 11:47:51.471    21 May 2022 11:53:12.484      321.01341295    
21 May 2022 13:24:06.533    21 May 2022 13:31:23.298      436.76526826    
21 May 2022 21:40:46.393    21 May 2022 21:48:15.663      449.27007181    
21 May 2022 23:18:59.605    21 May 2022 23:24:28.673      329.06737028    
22 May 2022 11:09:03.215    22 May 2022 11:11:29.537      146.32254326    
22 May 2022 12:43:29.957    22 May 2022 12:51:15.939      465.98158252    
22 May 2022 21:00:46.440    22 May 2022 21:07:27.208      400.76749970    
22 May 2022 22:38:01.184    22 May 2022 22:44:53.338      412.15381675    
23 May 2022 12:03:02.948    23 May 2022 12:11:00.300      477.35253617    
23 May 2022 20:20:57.350    23 May 2022 20:26:22.178      324.82802746    
23 May 2022 21:57:18.882    23 May 2022 22:04:58.513      459.63035213    
24 May 2022 11:22:45.211    24 May 2022 11:30:36.304      471.09316809    
24 May 2022 13:02:47.449    24 May 2022 13:05:48.852      181.40298785    
24 May 2022 19:41:32.459    24 May 2022 19:44:46.832      194.37269879    
24 May 2022 21:16:46.588    24 May 2022 21:24:49.950      483.36145204    
25 May 2022 10:42:37.526    25 May 2022 10:50:02.809      445.28342765    
25 May 2022 12:21:10.639    25 May 2022 12:26:24.982      314.34352545    
25 May 2022 20:36:21.832    25 May 2022 20:44:29.754      487.92246695    
26 May 2022 10:02:42.337    26 May 2022 10:09:17.012      394.67507995    
26 May 2022 11:40:03.638    26 May 2022 11:46:33.865      390.22769473    
26 May 2022 19:56:03.626    26 May 2022 20:03:58.540      474.91392035    
26 May 2022 21:35:33.696    26 May 2022 21:38:42.832      189.13613559    
27 May 2022 09:23:06.530    27 May 2022 09:28:11.675      305.14529689    
27 May 2022 10:59:11.666    27 May 2022 11:06:29.889      438.22249293    
27 May 2022 19:15:52.002    27 May 2022 19:23:15.894      443.89215735    
27 May 2022 20:53:56.794    27 May 2022 20:59:38.136      341.34202270    
28 May 2022 08:44:31.311    28 May 2022 08:46:05.236      93.925776437    
28 May 2022 10:18:30.792    28 May 2022 10:26:16.594      465.80188782    
28 May 2022 18:35:48.243    28 May 2022 18:42:20.134      391.89118242    
28 May 2022 20:12:55.672    28 May 2022 20:19:54.735      419.06305715    
29 May 2022 09:37:59.596    29 May 2022 09:45:55.016      475.42061519    
29 May 2022 17:55:56.455    29 May 2022 18:01:06.750      310.29552135    
29 May 2022 19:32:09.754    29 May 2022 19:39:52.839      463.08490837    
30 May 2022 08:57:37.887    30 May 2022 09:05:24.964      467.07713456    
30 May 2022 10:37:27.183    30 May 2022 10:40:46.899      199.71603256    
30 May 2022 17:16:34.662    30 May 2022 17:19:17.309      162.64662836    
30 May 2022 18:51:33.581    30 May 2022 18:59:37.543      483.96180522    
31 May 2022 08:17:26.608    31 May 2022 08:24:45.124      438.51640918    
31 May 2022 09:55:50.067    31 May 2022 10:01:13.655      323.58898456    
31 May 2022 18:11:04.906    31 May 2022 18:19:10.717      485.81088271    
01 Jun 2022 07:37:28.578    01 Jun 2022 07:43:52.305      383.72727830    
01 Jun 2022 09:14:39.988    01 Jun 2022 09:21:16.023      396.03529342    
01 Jun 2022 17:30:42.879    01 Jun 2022 17:38:32.821      469.94244384    
01 Jun 2022 19:09:56.198    01 Jun 2022 19:13:34.681      218.48238810    
02 Jun 2022 06:57:52.079    02 Jun 2022 07:02:37.857      285.77780707    
02 Jun 2022 08:33:44.464    02 Jun 2022 08:41:06.078      441.61336168    
02 Jun 2022 16:50:27.688    02 Jun 2022 16:57:43.266      435.57873967    
02 Jun 2022 18:28:22.603    02 Jun 2022 18:34:16.588      353.98421015    
03 Jun 2022 07:52:59.941    03 Jun 2022 08:00:46.965      467.02351668    
03 Jun 2022 16:10:20.933    03 Jun 2022 16:16:40.036      379.10335071    
03 Jun 2022 17:47:19.439    03 Jun 2022 17:54:25.168      425.72893422    
04 Jun 2022 07:12:25.157    04 Jun 2022 07:20:19.541      474.38441740    
04 Jun 2022 15:30:27.754    04 Jun 2022 15:35:17.565      289.81126217    
04 Jun 2022 17:06:30.487    04 Jun 2022 17:14:16.255      465.76758530    
05 Jun 2022 06:32:00.057    05 Jun 2022 06:39:43.462      463.40531500    
05 Jun 2022 08:11:34.003    05 Jun 2022 08:15:16.827      222.82418681    
05 Jun 2022 14:51:17.240    05 Jun 2022 14:53:06.337      109.09701500    
05 Jun 2022 16:25:50.943    05 Jun 2022 16:33:54.266      483.32323559    
06 Jun 2022 05:51:45.792    06 Jun 2022 05:58:57.185      431.39296412    
06 Jun 2022 07:29:57.533    06 Jun 2022 07:35:33.838      336.30584314    
06 Jun 2022 15:45:18.802    06 Jun 2022 15:53:20.807      482.00547122    
07 Jun 2022 05:11:45.685    07 Jun 2022 05:17:56.995      371.31000760    
07 Jun 2022 06:48:45.061    07 Jun 2022 06:55:29.485      404.42438083    
07 Jun 2022 15:04:53.378    07 Jun 2022 15:12:36.153      462.77575067    
07 Jun 2022 16:43:49.784    07 Jun 2022 16:47:56.078      246.29456563    
08 Jun 2022 04:32:10.112    08 Jun 2022 04:36:32.127      262.01577857    
08 Jun 2022 06:07:46.494    08 Jun 2022 06:15:13.433      446.93926853    
08 Jun 2022 14:24:35.065    08 Jun 2022 14:31:39.485      424.42051903    
08 Jun 2022 16:02:18.867    08 Jun 2022 16:08:25.518      366.65054094    
09 Jun 2022 05:26:58.734    09 Jun 2022 05:34:48.353      469.61915708    
09 Jun 2022 13:44:25.913    09 Jun 2022 13:50:28.317      362.40438017    
09 Jun 2022 15:21:13.938    09 Jun 2022 15:28:25.995      432.05745615    
10 Jun 2022 04:46:20.721    10 Jun 2022 04:54:14.883      474.16152677    
10 Jun 2022 13:04:32.730    10 Jun 2022 13:08:55.397      262.66612017    
10 Jun 2022 14:40:22.193    10 Jun 2022 14:48:09.914      467.72097631    
11 Jun 2022 04:05:52.580    11 Jun 2022 04:13:32.488      459.90737927    
11 Jun 2022 05:45:09.338    11 Jun 2022 05:49:18.773      249.43485204    
11 Jun 2022 13:59:39.463    11 Jun 2022 14:07:41.036      481.57391490    
12 Jun 2022 03:25:35.740    12 Jun 2022 03:32:39.332      423.59214455    
12 Jun 2022 05:03:33.760    12 Jun 2022 05:09:25.822      352.06197342    
12 Jun 2022 13:19:04.006    12 Jun 2022 13:27:00.691      476.68525453    
13 Jun 2022 02:45:34.226    13 Jun 2022 02:51:30.991      356.76509051    
13 Jun 2022 04:22:19.241    13 Jun 2022 04:29:14.348      415.10678648    
13 Jun 2022 12:38:35.335    13 Jun 2022 12:46:08.943      453.60756872    
13 Jun 2022 14:17:14.592    13 Jun 2022 14:21:47.540      272.94807946    
14 Jun 2022 02:06:01.805    14 Jun 2022 02:09:53.298      231.49313936    
14 Jun 2022 03:41:17.888    14 Jun 2022 03:48:51.810      453.92157639    
14 Jun 2022 11:58:14.120    14 Jun 2022 12:05:04.684      410.56475124    
14 Jun 2022 13:35:45.630    14 Jun 2022 13:42:05.050      379.42034790    
15 Jun 2022 03:00:27.107    15 Jun 2022 03:08:20.373      473.26599282    
15 Jun 2022 11:18:03.060    15 Jun 2022 11:23:44.771      341.71164671    
15 Jun 2022 12:54:38.941    15 Jun 2022 13:01:57.178      438.23701426    
16 Jun 2022 02:19:46.083    16 Jun 2022 02:27:40.429      474.34569583    
16 Jun 2022 04:00:45.562    16 Jun 2022 04:01:59.906      74.344312667    
16 Jun 2022 10:38:11.835    16 Jun 2022 10:41:59.075      227.23988090    
16 Jun 2022 12:13:44.428    16 Jun 2022 12:21:33.618      469.18947349    
17 Jun 2022 01:39:15.169    17 Jun 2022 01:46:51.213      456.04452775    
17 Jun 2022 03:18:13.252    17 Jun 2022 03:22:51.550      278.29871429    
17 Jun 2022 11:32:58.535    17 Jun 2022 11:40:57.518      478.98307638    
18 Jun 2022 00:58:56.173    18 Jun 2022 01:05:50.517      414.34461217    
18 Jun 2022 02:36:38.436    18 Jun 2022 02:42:48.581      370.14516906    
18 Jun 2022 10:52:19.805    18 Jun 2022 11:00:09.924      470.11926878    
18 Jun 2022 12:32:56.312    18 Jun 2022 12:33:41.023      44.711532968    
19 Jun 2022 00:18:54.138    19 Jun 2022 00:24:32.903      338.76517997    
19 Jun 2022 01:55:22.091    19 Jun 2022 02:02:29.592      427.50076189    
19 Jun 2022 10:11:47.987    19 Jun 2022 10:19:10.661      442.67345073    
19 Jun 2022 11:50:09.755    19 Jun 2022 11:55:08.742      298.98759448    
19 Jun 2022 23:39:29.099    19 Jun 2022 23:42:37.941      188.84210021    
20 Jun 2022 01:14:18.196    20 Jun 2022 01:22:00.179      461.98334807    
20 Jun 2022 09:31:24.119    20 Jun 2022 09:37:58.257      394.13798394    
20 Jun 2022 11:08:42.155    20 Jun 2022 11:15:14.692      392.53696165    
21 Jun 2022 00:33:24.666    21 Jun 2022 00:41:22.003      477.33770523    
21 Jun 2022 08:51:11.864    21 Jun 2022 08:56:28.611      316.74726417    
21 Jun 2022 10:27:33.721    21 Jun 2022 10:34:58.267      444.54529955    
21 Jun 2022 23:52:40.967    22 Jun 2022 00:00:35.187      474.21964573    
22 Jun 2022 01:32:55.413    22 Jun 2022 01:35:34.229      158.81609159    
22 Jun 2022 08:11:26.481    22 Jun 2022 08:14:26.015      179.53360834    
22 Jun 2022 09:46:36.529    22 Jun 2022 09:54:26.992      470.46337336    
22 Jun 2022 23:12:07.740    22 Jun 2022 23:19:38.688      450.94815093    
23 Jun 2022 00:50:45.885    23 Jun 2022 00:55:53.988      308.10303425    
23 Jun 2022 09:05:47.605    23 Jun 2022 09:13:43.439      475.83399306    
23 Jun 2022 22:31:47.306    23 Jun 2022 22:38:29.792      402.48540177    
24 Jun 2022 00:09:11.711    24 Jun 2022 00:15:41.247      389.53634582    
24 Jun 2022 08:25:05.792    24 Jun 2022 08:32:48.354      462.56159189    
24 Jun 2022 10:04:45.120    24 Jun 2022 10:07:18.569      153.44905956    
24 Jun 2022 21:51:46.260    24 Jun 2022 21:57:01.513      315.25335788    
24 Jun 2022 23:27:53.877    24 Jun 2022 23:35:14.597      440.71991796    
25 Jun 2022 07:44:31.122    25 Jun 2022 07:51:41.281      430.15890196    
25 Jun 2022 09:22:35.046    25 Jun 2022 09:27:59.797      324.75095743    
25 Jun 2022 21:12:40.109    25 Jun 2022 21:14:37.954      117.84532866    
