GMAT/Constellation/Contact/ContactLocator3.txt

Target: HSEYE3

Observer: Bahrain
Start Time (UTC)            Stop Time (UTC)               Duration (s)         
27 Apr 2022 12:08:22.948    27 Apr 2022 12:12:10.357      227.40901974    
27 Apr 2022 18:43:03.742    27 Apr 2022 18:50:51.745      468.00279119    
27 Apr 2022 20:21:49.241    27 Apr 2022 20:26:27.206      277.96457276    
28 Apr 2022 09:48:36.273    28 Apr 2022 09:56:35.910      479.63787726    
28 Apr 2022 11:27:34.437    28 Apr 2022 11:32:58.923      324.48568277    
28 Apr 2022 18:03:23.164    28 Apr 2022 18:10:44.903      441.73936998    
28 Apr 2022 19:41:14.607    28 Apr 2022 19:47:30.361      375.75416034    
29 Apr 2022 09:09:00.654    29 Apr 2022 09:16:33.529      452.87442701    
29 Apr 2022 10:47:02.844    29 Apr 2022 10:53:32.551      389.70763871    
29 Apr 2022 17:23:46.915    29 Apr 2022 17:30:28.004      401.08990133    
29 Apr 2022 19:00:58.062    29 Apr 2022 19:08:11.340      433.27718965    
30 Apr 2022 08:29:35.647    30 Apr 2022 08:36:20.782      405.13481438    
30 Apr 2022 10:06:41.753    30 Apr 2022 10:13:57.490      435.73638849    
30 Apr 2022 16:44:16.481    30 Apr 2022 16:49:59.327      342.84588795    
30 Apr 2022 18:20:51.251    30 Apr 2022 18:28:38.245      466.99340343    
01 May 2022 07:50:26.642    01 May 2022 07:55:52.040      325.39731909    
01 May 2022 09:26:28.984    01 May 2022 09:34:15.721      466.73699295    
01 May 2022 16:04:56.219    01 May 2022 16:09:14.307      258.08745674    
01 May 2022 17:40:50.957    01 May 2022 17:48:54.038      483.08082246    
02 May 2022 07:11:55.320    02 May 2022 07:14:45.386      170.06656114    
02 May 2022 08:46:23.651    02 May 2022 08:54:27.905      484.25323080    
02 May 2022 15:26:10.117    02 May 2022 15:27:48.788      98.671386950    
02 May 2022 17:00:55.615    02 May 2022 17:09:00.022      484.40784422    
03 May 2022 08:06:25.536    03 May 2022 08:14:34.029      488.49287443    
03 May 2022 09:46:32.855    03 May 2022 09:50:09.799      216.94372371    
03 May 2022 16:21:04.466    03 May 2022 16:28:56.696      472.23038091    
03 May 2022 17:59:53.401    03 May 2022 18:04:27.162      273.76114681    
04 May 2022 07:26:34.948    04 May 2022 07:34:33.538      478.58966421    
04 May 2022 09:05:36.046    04 May 2022 09:10:53.835      317.78858383    
04 May 2022 15:41:17.312    04 May 2022 15:48:43.997      446.68495771    
04 May 2022 17:19:10.887    04 May 2022 17:25:25.774      374.88662299    
05 May 2022 06:46:52.871    05 May 2022 06:54:25.204      452.33326588    
05 May 2022 08:24:57.330    05 May 2022 08:31:21.959      384.62932626    
05 May 2022 15:01:34.550    05 May 2022 15:08:21.272      406.72207223    
05 May 2022 16:38:47.384    05 May 2022 16:46:01.404      434.02010486    
06 May 2022 06:07:21.501    06 May 2022 06:14:06.584      405.08311763    
06 May 2022 07:44:29.542    06 May 2022 07:51:41.163      431.62089080    
06 May 2022 14:21:57.581    06 May 2022 14:27:46.881      349.30026666    
06 May 2022 15:58:33.990    06 May 2022 16:06:22.694      468.70421347    
07 May 2022 05:28:06.179    07 May 2022 05:33:32.089      325.90978048    
07 May 2022 07:04:10.332    07 May 2022 07:11:53.592      463.26003440    
07 May 2022 13:42:30.481    07 May 2022 13:46:56.533      266.05211191    
07 May 2022 15:18:27.342    07 May 2022 15:26:32.744      485.40190724    
08 May 2022 04:49:28.234    08 May 2022 04:52:20.142      171.90782398    
08 May 2022 06:23:58.750    08 May 2022 06:31:59.958      481.20819821    
08 May 2022 13:03:33.687    08 May 2022 13:05:29.617      115.92987436    
08 May 2022 14:38:25.813    08 May 2022 14:46:32.911      487.09786936    
09 May 2022 05:43:54.545    09 May 2022 05:52:00.266      485.72026575    
09 May 2022 07:24:04.559    09 May 2022 07:27:32.889      208.33040541    
09 May 2022 13:58:28.609    09 May 2022 14:06:23.715      475.10595530    
09 May 2022 15:37:18.291    09 May 2022 15:41:52.430      274.13852419    
10 May 2022 05:03:58.016    10 May 2022 05:11:53.957      475.94082335    
10 May 2022 06:43:00.279    10 May 2022 06:48:12.474      312.19561854    
10 May 2022 13:18:35.509    10 May 2022 13:26:05.104      449.59464823    
10 May 2022 14:56:29.376    10 May 2022 15:02:45.641      376.26569542    
11 May 2022 04:24:10.148    11 May 2022 04:31:39.784      449.63607673    
11 May 2022 06:02:15.097    11 May 2022 06:08:35.290      380.19352000    
11 May 2022 12:38:46.895    11 May 2022 12:45:36.428      409.53274712    
11 May 2022 14:15:59.806    11 May 2022 14:23:15.604      435.79836324    
12 May 2022 03:44:33.173    12 May 2022 03:51:15.250      402.07667806    
12 May 2022 05:21:41.185    12 May 2022 05:28:48.976      427.79155505    
12 May 2022 11:59:04.155    12 May 2022 12:04:56.044      351.88970331    
12 May 2022 13:35:40.518    12 May 2022 13:43:31.109      470.59145429    
13 May 2022 03:05:12.584    13 May 2022 03:10:34.597      322.01238535    
13 May 2022 04:41:16.048    13 May 2022 04:48:55.802      459.75435285    
13 May 2022 11:19:31.350    13 May 2022 11:23:59.664      268.31405209    
13 May 2022 12:55:28.097    13 May 2022 13:03:35.293      487.19589174    
14 May 2022 02:26:31.111    14 May 2022 02:29:14.833      163.72147354    
14 May 2022 04:00:58.688    14 May 2022 04:08:56.516      477.82751693    
14 May 2022 10:40:28.727    14 May 2022 10:42:26.854      118.12634768    
14 May 2022 12:15:20.893    14 May 2022 12:23:29.522      488.62866157    
15 May 2022 03:20:48.835    15 May 2022 03:28:51.120      482.28572801    
15 May 2022 05:00:59.497    15 May 2022 05:04:21.801      202.30357385    
15 May 2022 11:35:18.103    15 May 2022 11:43:14.312      476.20970453    
15 May 2022 13:14:06.088    15 May 2022 13:18:44.175      278.08734732    
16 May 2022 02:40:46.791    16 May 2022 02:48:39.042      472.25130151    
16 May 2022 04:19:48.495    16 May 2022 04:24:56.731      308.23603305    
16 May 2022 10:55:19.509    16 May 2022 11:02:49.599      450.09088655    
16 May 2022 12:33:11.949    16 May 2022 12:39:31.111      379.16145113    
17 May 2022 02:00:53.576    17 May 2022 02:08:18.988      445.41208630    
17 May 2022 03:38:57.322    17 May 2022 03:45:14.236      376.91336749    
17 May 2022 10:15:25.515    17 May 2022 10:22:14.703      409.18844703    
17 May 2022 11:52:36.972    17 May 2022 11:59:54.993      438.02032080    
18 May 2022 01:21:11.522    18 May 2022 01:27:48.351      396.82903691    
18 May 2022 02:58:17.661    18 May 2022 03:05:22.436      424.77441975    
18 May 2022 09:35:37.579    18 May 2022 09:41:27.907      350.32860894    
18 May 2022 11:12:12.271    18 May 2022 11:20:04.428      472.15632837    
19 May 2022 00:41:46.479    19 May 2022 00:47:01.014      314.53588918    
19 May 2022 02:17:46.922    19 May 2022 02:25:23.687      456.76553979    
19 May 2022 08:56:00.018    19 May 2022 09:00:24.667      264.64896498    
19 May 2022 10:31:54.472    19 May 2022 10:40:02.508      488.03687145    
20 May 2022 00:03:04.619    20 May 2022 00:05:30.536      145.91693699    
20 May 2022 01:37:24.081    20 May 2022 01:45:18.758      474.67717443    
20 May 2022 08:16:56.023    20 May 2022 08:18:41.610      105.58685437    
20 May 2022 09:51:41.943    20 May 2022 09:59:50.580      488.63705678    
21 May 2022 00:57:08.873    21 May 2022 01:05:07.647      478.77466183    
21 May 2022 02:37:17.847    21 May 2022 02:40:37.958      200.11098837    
21 May 2022 09:11:33.904    21 May 2022 09:19:29.139      475.23564933    
21 May 2022 10:50:18.043    21 May 2022 10:55:02.701      284.65835089    
22 May 2022 00:17:01.628    22 May 2022 00:24:49.752      468.12463190    
22 May 2022 01:56:00.983    22 May 2022 02:01:07.708      306.72563149    
22 May 2022 08:31:30.169    22 May 2022 08:38:58.091      447.92165263    
22 May 2022 10:09:19.610    22 May 2022 10:15:42.605      382.99517386    
22 May 2022 23:37:03.432    22 May 2022 23:44:23.715      440.28216857    
23 May 2022 01:15:04.281    23 May 2022 01:21:19.776      375.49414679    
23 May 2022 07:51:31.208    23 May 2022 07:58:16.696      405.48769576    
23 May 2022 09:28:39.777    23 May 2022 09:36:00.039      440.26128600    
23 May 2022 22:57:16.788    23 May 2022 23:03:46.765      389.97641900    
24 May 2022 00:34:19.242    24 May 2022 00:41:22.465      423.22342076    
24 May 2022 07:11:38.638    24 May 2022 07:17:23.090      344.45265415    
24 May 2022 08:48:10.101    24 May 2022 08:56:03.176      473.07505610    
24 May 2022 22:17:48.119    24 May 2022 22:22:52.214      304.09448440    
24 May 2022 23:53:43.248    25 May 2022 00:01:18.163      454.91498436    
25 May 2022 06:31:57.342    25 May 2022 06:36:12.171      254.82896726    
25 May 2022 08:07:47.318    25 May 2022 08:15:55.001      487.68304177    
25 May 2022 21:39:10.511    25 May 2022 21:41:06.716      116.20477668    
25 May 2022 23:13:15.283    25 May 2022 23:21:07.636      472.35335758    
26 May 2022 05:52:59.731    26 May 2022 05:54:11.361      71.630137274    
26 May 2022 07:27:29.856    26 May 2022 07:35:36.813      486.95697606    
26 May 2022 09:08:14.711    26 May 2022 09:08:55.188      40.477489284    
26 May 2022 22:32:55.104    26 May 2022 22:40:50.866      475.76193331    
27 May 2022 00:12:59.731    27 May 2022 00:16:22.823      203.09189373    
27 May 2022 06:47:16.977    27 May 2022 06:55:09.070      472.09295427    
27 May 2022 08:25:55.458    27 May 2022 08:30:48.556      293.09854129    
27 May 2022 21:52:43.090    27 May 2022 22:00:27.207      464.11762662    
27 May 2022 23:31:38.220    27 May 2022 23:36:46.734      308.51378156    
28 May 2022 06:07:08.555    28 May 2022 06:14:31.628      443.07259958    
28 May 2022 07:44:53.611    28 May 2022 07:51:20.993      387.38178631    
28 May 2022 21:12:40.423    28 May 2022 21:19:55.211      434.78771977    
28 May 2022 22:50:36.669    28 May 2022 22:56:53.289      376.61970238    
29 May 2022 05:27:05.163    29 May 2022 05:33:43.653      398.48975010    
29 May 2022 07:04:09.555    29 May 2022 07:11:31.850      442.29467242    
29 May 2022 20:32:49.838    29 May 2022 20:39:11.878      382.03948099    
29 May 2022 22:09:46.819    29 May 2022 22:16:50.549      423.72921885    
30 May 2022 04:47:08.668    30 May 2022 04:52:43.034      334.36577433    
30 May 2022 06:23:35.456    30 May 2022 06:31:28.690      473.23409894    
30 May 2022 19:53:18.591    30 May 2022 19:58:09.689      291.09832897    
30 May 2022 21:29:06.112    30 May 2022 21:36:40.842      454.72964477    
31 May 2022 04:07:24.936    31 May 2022 04:11:23.695      238.75913074    
31 May 2022 05:43:08.217    31 May 2022 05:51:14.336      486.11857536    
31 May 2022 19:14:56.622    31 May 2022 19:15:58.442      61.820487957    
31 May 2022 20:48:33.565    31 May 2022 20:56:24.900      471.33446569    
01 Jun 2022 05:02:46.341    01 Jun 2022 05:10:50.006      483.66415515    
01 Jun 2022 06:43:01.128    01 Jun 2022 06:44:38.912      97.784551210    
01 Jun 2022 20:08:08.973    01 Jun 2022 20:16:02.659      473.68549240    
01 Jun 2022 21:48:06.524    01 Jun 2022 21:51:38.484      211.96042369    
02 Jun 2022 04:22:29.151    02 Jun 2022 04:30:16.097      466.94595537    
02 Jun 2022 06:01:00.521    02 Jun 2022 06:06:03.396      302.87498570    
02 Jun 2022 19:27:52.777    02 Jun 2022 19:35:33.407      460.63069749    
02 Jun 2022 21:06:41.802    02 Jun 2022 21:11:55.939      314.13661712    
03 Jun 2022 03:42:16.593    03 Jun 2022 03:49:32.386      435.79354343    
03 Jun 2022 05:19:56.101    03 Jun 2022 05:26:28.251      392.14935122    
03 Jun 2022 18:47:46.278    03 Jun 2022 18:54:55.566      429.28731992    
03 Jun 2022 20:25:36.238    03 Jun 2022 20:31:56.956      380.71862151    
04 Jun 2022 03:02:09.375    04 Jun 2022 03:08:37.894      388.51965889    
04 Jun 2022 04:39:08.477    04 Jun 2022 04:46:32.592      444.11484272    
04 Jun 2022 18:07:52.514    04 Jun 2022 18:14:05.822      373.30791154    
04 Jun 2022 19:44:42.255    04 Jun 2022 19:51:48.901      426.64553620    
05 Jun 2022 02:22:09.727    05 Jun 2022 02:27:30.142      320.41500761    
05 Jun 2022 03:58:30.519    05 Jun 2022 04:06:23.265      472.74620774    
05 Jun 2022 17:28:19.907    05 Jun 2022 17:32:55.475      275.56863581    
05 Jun 2022 19:03:57.439    05 Jun 2022 19:11:33.941      456.50200427    
06 Jun 2022 01:42:25.118    06 Jun 2022 01:46:01.439      216.32105119    
06 Jun 2022 03:17:59.326    06 Jun 2022 03:26:02.881      483.55523305    
06 Jun 2022 18:23:20.869    06 Jun 2022 18:31:12.725      471.85659528    
07 Jun 2022 02:37:33.494    07 Jun 2022 02:45:32.553      479.05892244    
07 Jun 2022 04:17:26.449    07 Jun 2022 04:19:44.161      137.71180585    
07 Jun 2022 17:42:52.396    07 Jun 2022 17:50:45.121      472.72418796    
07 Jun 2022 19:22:40.354    07 Jun 2022 19:26:26.915      226.56086596    
08 Jun 2022 01:57:12.413    08 Jun 2022 02:04:52.589      460.17562584    
08 Jun 2022 03:35:35.522    08 Jun 2022 03:40:49.304      313.78150187    
08 Jun 2022 17:02:32.540    08 Jun 2022 17:10:10.318      457.77798935    
08 Jun 2022 18:41:13.625    08 Jun 2022 18:46:37.317      323.69254685    
09 Jun 2022 01:16:56.122    09 Jun 2022 01:24:02.658      426.53601029    
09 Jun 2022 02:54:29.109    09 Jun 2022 03:01:06.493      397.38344103    
09 Jun 2022 16:22:22.756    09 Jun 2022 16:29:26.565      423.80900398    
09 Jun 2022 18:00:04.747    09 Jun 2022 18:06:32.620      387.87280626    
10 Jun 2022 00:36:45.508    10 Jun 2022 00:43:01.584      376.07602542    
10 Jun 2022 02:13:38.348    10 Jun 2022 02:21:04.295      445.94728444    
10 Jun 2022 15:42:26.480    10 Jun 2022 15:48:30.134      363.65391354    
10 Jun 2022 17:19:07.152    10 Jun 2022 17:26:19.161      432.00880266    
10 Jun 2022 23:56:43.313    11 Jun 2022 00:01:46.361      303.04808279    
11 Jun 2022 01:32:56.857    11 Jun 2022 01:40:48.789      471.93192460    
11 Jun 2022 15:02:53.827    11 Jun 2022 15:07:10.616      256.78889332    
11 Jun 2022 16:38:18.649    11 Jun 2022 16:45:58.863      460.21395419    
11 Jun 2022 23:16:59.711    11 Jun 2022 23:20:06.582      186.87134797    
12 Jun 2022 00:52:21.959    12 Jun 2022 01:00:22.344      480.38541866    
12 Jun 2022 15:57:38.420    12 Jun 2022 16:05:32.259      473.83871024    
12 Jun 2022 17:39:11.392    12 Jun 2022 17:39:48.040      36.647199257    
13 Jun 2022 00:11:52.357    13 Jun 2022 00:19:45.946      473.58870751    
13 Jun 2022 01:51:25.619    13 Jun 2022 01:54:18.549      172.93057228    
13 Jun 2022 15:17:06.396    13 Jun 2022 15:24:59.117      472.72101394    
13 Jun 2022 16:56:42.613    13 Jun 2022 17:00:48.620      246.00699772    
13 Jun 2022 23:31:27.532    13 Jun 2022 23:38:59.801      452.26893467    
14 Jun 2022 01:09:41.399    14 Jun 2022 01:15:07.391      325.99192334    
14 Jun 2022 14:36:43.204    14 Jun 2022 14:44:18.507      455.30290722    
14 Jun 2022 16:15:14.555    14 Jun 2022 16:20:51.389      336.83472311    
14 Jun 2022 22:51:07.637    14 Jun 2022 22:58:03.444      415.80761910    
15 Jun 2022 00:28:33.228    15 Jun 2022 00:35:16.656      403.42793557    
15 Jun 2022 13:56:30.511    15 Jun 2022 14:03:28.457      417.94656344    
15 Jun 2022 15:34:02.779    15 Jun 2022 15:40:40.585      397.80548096    
15 Jun 2022 22:10:53.802    15 Jun 2022 22:16:55.451      361.64881478    
15 Jun 2022 23:47:39.466    15 Jun 2022 23:55:07.673      448.20687287    
16 Jun 2022 13:16:32.303    16 Jun 2022 13:22:24.679      352.37653462    
16 Jun 2022 14:53:01.860    16 Jun 2022 15:00:21.387      439.52734183    
16 Jun 2022 21:30:49.500    16 Jun 2022 21:35:32.075      282.57455517    
16 Jun 2022 23:06:54.501    16 Jun 2022 23:14:45.744      471.24343853    
17 Jun 2022 12:37:01.320    17 Jun 2022 12:40:54.133      232.81231063    
17 Jun 2022 14:12:09.898    17 Jun 2022 14:19:55.423      465.52546355    
17 Jun 2022 20:51:09.921    17 Jun 2022 20:53:37.895      147.97336820    
17 Jun 2022 22:26:15.903    17 Jun 2022 22:34:12.983      477.08038698    
18 Jun 2022 13:31:26.211    18 Jun 2022 13:39:23.081      476.87007424    
18 Jun 2022 15:12:18.458    18 Jun 2022 15:14:14.925      116.46669817    
18 Jun 2022 21:45:42.507    18 Jun 2022 21:53:30.238      467.73078785    
18 Jun 2022 23:24:56.938    18 Jun 2022 23:28:23.467      206.52886117    
19 Jun 2022 12:50:50.845    19 Jun 2022 12:58:44.016      473.17128873    
19 Jun 2022 14:30:13.535    19 Jun 2022 14:34:42.564      269.02861521    
19 Jun 2022 21:05:13.905    19 Jun 2022 21:12:37.601      443.69662399    
19 Jun 2022 22:43:17.644    19 Jun 2022 22:48:57.507      339.86335220    
20 Jun 2022 12:10:24.578    20 Jun 2022 12:17:57.149      452.57141021    
20 Jun 2022 13:48:44.424    20 Jun 2022 13:54:37.265      352.84097430    
20 Jun 2022 20:24:50.405    20 Jun 2022 20:31:34.458      404.05343603    
20 Jun 2022 22:02:07.774    20 Jun 2022 22:08:58.486      410.71184106    
21 Jun 2022 11:30:09.365    21 Jun 2022 11:37:00.225      410.86053047    
21 Jun 2022 13:07:30.025    21 Jun 2022 13:14:19.926      409.90098214    
21 Jun 2022 19:44:33.459    21 Jun 2022 19:50:19.064      345.60562108    
21 Jun 2022 21:21:11.045    21 Jun 2022 21:28:42.381      451.33503716    
22 Jun 2022 10:50:09.985    22 Jun 2022 10:55:48.168      338.18327336    
22 Jun 2022 12:26:26.026    22 Jun 2022 12:33:54.616      448.58948810    
22 Jun 2022 19:04:27.608    22 Jun 2022 19:08:46.617      259.00886783    
22 Jun 2022 20:40:22.613    22 Jun 2022 20:48:13.727      471.11425402    
23 Jun 2022 10:10:43.716    23 Jun 2022 10:14:03.408      199.69120212    
23 Jun 2022 11:45:30.852    23 Jun 2022 11:53:22.640      471.78888669    
23 Jun 2022 18:24:59.961    23 Jun 2022 18:26:29.787      89.826021530    
23 Jun 2022 19:59:40.319    23 Jun 2022 20:07:34.373      474.05405338    
24 Jun 2022 11:04:43.987    24 Jun 2022 11:12:44.229      480.24208748    
24 Jun 2022 12:45:09.296    24 Jun 2022 12:47:57.824      168.52809477    
24 Jun 2022 19:19:03.149    24 Jun 2022 19:26:45.019      461.86936005    
24 Jun 2022 20:57:59.220    24 Jun 2022 21:01:58.994      239.77392514    
25 Jun 2022 10:24:05.620    25 Jun 2022 10:31:58.898      473.27826895    
25 Jun 2022 12:03:13.332    25 Jun 2022 12:08:07.452      294.12011497    
25 Jun 2022 18:38:30.830    25 Jun 2022 18:45:45.630      434.80078359    
25 Jun 2022 20:16:23.666    25 Jun 2022 20:22:19.284      355.61806143    
26 Jun 2022 09:43:36.728    26 Jun 2022 09:51:05.380      448.65169921    
26 Jun 2022 11:21:43.349    26 Jun 2022 11:27:53.999      370.64982899    


Number of events : 245


Observer: Cape_Town
Start Time (UTC)            Stop Time (UTC)               Duration (s)         
27 Apr 2022 23:43:59.443    27 Apr 2022 23:48:30.308      270.86512833    
28 Apr 2022 01:19:19.799    28 Apr 2022 01:27:20.787      480.98824681    
28 Apr 2022 02:58:53.811    28 Apr 2022 03:03:52.322      298.51123542    
28 Apr 2022 06:17:11.745    28 Apr 2022 06:21:20.866      249.12115177    
28 Apr 2022 07:53:31.207    28 Apr 2022 08:01:26.853      475.64626273    
28 Apr 2022 09:31:38.338    28 Apr 2022 09:37:48.061      369.72352423    
29 Apr 2022 00:39:26.901    29 Apr 2022 00:47:30.413      483.51228135    
29 Apr 2022 02:18:28.176    29 Apr 2022 02:24:14.670      346.49399637    
29 Apr 2022 05:37:41.028    29 Apr 2022 05:40:42.144      181.11643803    
29 Apr 2022 07:13:45.774    29 Apr 2022 07:21:21.776      456.00244420    
29 Apr 2022 08:51:24.389    29 Apr 2022 08:58:29.390      425.00149839    
29 Apr 2022 23:59:39.395    30 Apr 2022 00:07:35.614      476.21912789    
30 Apr 2022 01:38:06.560    30 Apr 2022 01:44:34.073      387.51296833    
30 Apr 2022 04:58:22.377    30 Apr 2022 04:59:46.872      84.494866454    
30 Apr 2022 06:34:01.345    30 Apr 2022 06:41:10.297      428.95206003    
30 Apr 2022 08:11:18.467    30 Apr 2022 08:18:58.013      459.54620296    
30 Apr 2022 23:19:58.148    30 Apr 2022 23:27:35.410      457.26149334    
01 May 2022 00:57:48.939    01 May 2022 01:04:50.686      421.74750528    
01 May 2022 02:39:22.605    01 May 2022 02:40:20.552      57.946373674    
01 May 2022 05:54:17.763    01 May 2022 06:00:52.571      394.80820323    
01 May 2022 07:31:17.599    01 May 2022 07:39:16.761      479.16121708    
01 May 2022 22:40:24.628    01 May 2022 22:47:28.217      423.58895136    
02 May 2022 00:17:35.424    02 May 2022 00:25:04.471      449.04686655    
02 May 2022 01:58:19.150    02 May 2022 02:01:05.960      166.80906649    
02 May 2022 05:14:35.004    02 May 2022 05:20:28.671      353.66769608    
02 May 2022 06:51:20.190    02 May 2022 06:59:27.096      486.90609749    
02 May 2022 22:01:01.639    02 May 2022 22:07:11.104      369.46456272    
02 May 2022 23:37:26.206    02 May 2022 23:45:15.255      469.04845352    
03 May 2022 01:17:35.244    03 May 2022 01:21:32.139      236.89569851    
03 May 2022 04:34:53.248    03 May 2022 04:39:58.533      305.28413672    
03 May 2022 06:11:25.259    03 May 2022 06:19:29.875      484.61632604    
03 May 2022 07:50:19.321    03 May 2022 07:54:44.744      265.42269469    
03 May 2022 21:21:56.068    03 May 2022 21:26:37.053      280.98555976    
03 May 2022 22:57:21.554    03 May 2022 23:05:22.744      481.19038908    
04 May 2022 00:36:57.863    04 May 2022 00:41:52.488      294.62440338    
04 May 2022 03:55:13.096    04 May 2022 03:59:21.744      248.64792209    
04 May 2022 05:31:32.159    04 May 2022 05:39:25.638      473.47854793    
04 May 2022 07:09:41.393    04 May 2022 07:15:42.463      361.07050432    
04 May 2022 20:43:50.502    04 May 2022 20:45:03.349      72.846595861    
04 May 2022 22:17:21.841    04 May 2022 22:25:26.501      484.65955151    
04 May 2022 23:56:25.159    05 May 2022 00:02:09.149      343.98958302    
05 May 2022 03:15:36.367    05 May 2022 03:18:36.752      180.38490533    
05 May 2022 04:51:40.449    05 May 2022 04:59:14.741      454.29198401    
05 May 2022 06:29:20.179    05 May 2022 06:36:19.029      418.85069126    
05 May 2022 21:37:27.619    05 May 2022 21:45:25.886      478.26770043    
05 May 2022 23:15:56.669    05 May 2022 23:22:22.799      386.13023877    
06 May 2022 02:36:12.166    06 May 2022 02:37:34.800      82.634666073    
06 May 2022 04:11:49.832    06 May 2022 04:18:57.429      427.59642875    
06 May 2022 05:49:07.528    06 May 2022 05:56:42.447      454.91886403    
06 May 2022 20:57:39.737    06 May 2022 21:05:19.938      460.20053675    
06 May 2022 22:35:32.329    06 May 2022 22:42:33.644      421.31462378    
07 May 2022 00:17:11.438    07 May 2022 00:17:58.146      46.708363504    
07 May 2022 03:32:00.137    07 May 2022 03:38:33.863      393.72556508    
07 May 2022 05:09:00.216    07 May 2022 05:16:55.792      475.57610526    
07 May 2022 20:17:59.627    07 May 2022 20:25:07.099      427.47190939    
07 May 2022 21:55:12.230    07 May 2022 22:02:41.663      449.43232607    
07 May 2022 23:35:57.471    07 May 2022 23:38:41.720      164.24896955    
08 May 2022 02:52:11.327    08 May 2022 02:58:04.121      352.79365479    
08 May 2022 04:28:56.543    08 May 2022 04:37:00.623      484.07991054    
08 May 2022 19:38:30.009    08 May 2022 19:44:44.517      374.50785568    
08 May 2022 21:14:56.552    08 May 2022 21:22:46.693      470.14100442    
08 May 2022 22:55:06.601    08 May 2022 22:59:02.614      236.01273772    
09 May 2022 02:12:23.568    09 May 2022 02:17:28.141      304.57289661    
09 May 2022 03:48:55.474    09 May 2022 03:56:57.837      482.36345246    
09 May 2022 05:27:52.192    09 May 2022 05:32:08.468      256.27558264    
09 May 2022 18:59:17.447    09 May 2022 19:04:05.484      288.03624131    
09 May 2022 20:34:45.552    09 May 2022 20:42:48.442      482.88971916    
09 May 2022 22:14:22.630    09 May 2022 22:19:17.402      294.77221771    
10 May 2022 01:32:37.439    10 May 2022 01:36:45.519      248.08026147    
10 May 2022 03:08:56.328    10 May 2022 03:16:47.996      471.66882158    
10 May 2022 04:47:06.612    10 May 2022 04:53:02.277      355.66494592    
10 May 2022 18:20:57.516    10 May 2022 18:22:34.285      96.769836021    
10 May 2022 19:54:39.599    10 May 2022 20:02:46.471      486.87166767    
10 May 2022 21:33:43.513    10 May 2022 21:39:28.422      344.90992794    
11 May 2022 00:52:54.728    11 May 2022 00:55:54.724      179.99618001    
11 May 2022 02:28:58.637    11 May 2022 02:36:31.468      452.83062318    
11 May 2022 04:06:38.812    11 May 2022 04:13:33.917      415.10480940    
11 May 2022 19:14:39.235    11 May 2022 19:22:40.138      480.90276994    
11 May 2022 20:53:08.736    11 May 2022 20:59:36.400      387.66467051    
12 May 2022 00:13:24.404    12 May 2022 00:14:47.126      82.721822045    
12 May 2022 01:49:02.086    12 May 2022 01:56:08.500      426.41454205    
12 May 2022 03:26:19.929    12 May 2022 03:33:52.092      452.16274685    
12 May 2022 18:34:45.302    12 May 2022 18:42:28.475      463.17277187    
12 May 2022 20:12:38.215    12 May 2022 20:19:41.555      423.33923278    
12 May 2022 21:54:14.177    12 May 2022 21:55:08.875      54.697696678    
13 May 2022 01:09:06.482    13 May 2022 01:15:39.259      392.77710726    
13 May 2022 02:46:06.559    13 May 2022 02:54:00.043      473.48375403    
13 May 2022 17:54:59.222    13 May 2022 18:02:09.926      430.70345902    
13 May 2022 19:32:12.033    13 May 2022 19:39:43.869      451.83559174    
13 May 2022 21:12:56.372    13 May 2022 21:15:44.439      168.06726350    
14 May 2022 00:29:11.771    14 May 2022 00:35:03.830      352.05817422    
14 May 2022 02:05:56.927    14 May 2022 02:13:59.386      482.45903602    
14 May 2022 17:15:23.695    14 May 2022 17:21:41.642      377.94735687    
14 May 2022 18:51:50.363    14 May 2022 18:59:43.177      472.81411184    
14 May 2022 20:31:59.662    14 May 2022 20:35:59.376      239.71354557    
14 May 2022 23:49:18.095    14 May 2022 23:54:22.162      304.06684770    
15 May 2022 01:25:49.959    15 May 2022 01:33:51.046      481.08731493    
15 May 2022 03:04:47.101    15 May 2022 03:09:00.414      253.31261905    
15 May 2022 16:36:05.213    15 May 2022 16:40:56.981      291.76799348    
15 May 2022 18:11:33.462    15 May 2022 18:19:39.183      485.72082839    
15 May 2022 19:51:09.770    15 May 2022 19:56:08.339      298.56939681    
15 May 2022 23:09:25.994    15 May 2022 23:13:33.883      247.88897743    
16 May 2022 00:45:44.949    16 May 2022 00:53:35.597      470.64844107    
16 May 2022 02:23:55.098    16 May 2022 02:29:49.294      354.19604169    
16 May 2022 15:57:37.729    16 May 2022 15:59:21.837      104.10781171    
16 May 2022 17:31:21.699    16 May 2022 17:39:31.440      489.74072618    
16 May 2022 19:10:24.751    16 May 2022 19:16:13.569      348.81802979    
16 May 2022 22:29:37.163    16 May 2022 22:32:37.551      180.38794639    
17 May 2022 00:05:41.413    17 May 2022 00:13:13.415      452.00254448    
17 May 2022 01:43:21.292    17 May 2022 01:50:15.575      414.28282131    
17 May 2022 16:51:15.620    17 May 2022 16:59:19.295      483.67444226    
17 May 2022 18:29:44.121    17 May 2022 18:36:15.763      391.64167884    
17 May 2022 21:49:59.947    17 May 2022 21:51:25.165      85.218164558    
17 May 2022 23:25:39.020    17 May 2022 23:32:44.757      425.73645436    
18 May 2022 01:02:56.533    18 May 2022 01:10:28.238      451.70417712    
18 May 2022 16:11:16.083    18 May 2022 16:19:01.767      465.68405251    
18 May 2022 17:49:07.811    18 May 2022 17:56:15.127      427.31614524    
18 May 2022 19:30:35.399    18 May 2022 19:31:50.021      74.622239708    
18 May 2022 22:45:37.568    18 May 2022 22:52:09.797      392.22913416    
19 May 2022 00:22:37.349    19 May 2022 00:30:30.590      473.24067077    
19 May 2022 15:31:24.532    19 May 2022 15:38:37.270      432.73764633    
19 May 2022 17:08:35.914    19 May 2022 17:16:11.640      455.72521056    
19 May 2022 18:49:17.243    19 May 2022 18:52:14.291      177.04836546    
19 May 2022 22:05:36.986    19 May 2022 22:11:28.637      351.65054435    
19 May 2022 23:42:21.937    19 May 2022 23:50:24.273      482.33644251    
20 May 2022 14:51:43.731    20 May 2022 14:58:02.897      379.16555365    
20 May 2022 16:28:08.614    20 May 2022 16:36:05.127      476.51297845    
20 May 2022 18:08:15.542    20 May 2022 18:12:22.629      247.08654201    
20 May 2022 21:25:37.395    20 May 2022 21:30:41.254      303.85879492    
20 May 2022 23:02:09.210    20 May 2022 23:10:10.227      481.01698238    
21 May 2022 00:41:04.309    21 May 2022 00:45:21.536      257.22629100    
21 May 2022 14:12:20.371    21 May 2022 14:17:11.809      291.43760526    
21 May 2022 15:47:46.179    21 May 2022 15:55:55.286      489.10724792    
21 May 2022 17:27:20.257    21 May 2022 17:32:25.466      305.20906106    
21 May 2022 20:45:39.294    21 May 2022 20:49:47.331      248.03666227    
21 May 2022 22:21:58.454    21 May 2022 22:29:49.033      470.57921179    
22 May 2022 00:00:07.182    22 May 2022 00:06:04.205      357.02290287    
22 May 2022 13:33:51.131    22 May 2022 13:35:27.179      96.048107324    
22 May 2022 15:07:28.993    22 May 2022 15:15:41.662      492.66868945    
22 May 2022 16:46:29.770    22 May 2022 16:52:24.729      354.95887451    
22 May 2022 20:05:44.253    22 May 2022 20:08:45.563      181.30993678    
22 May 2022 21:41:49.181    22 May 2022 21:49:21.079      451.89751179    
22 May 2022 23:19:27.950    22 May 2022 23:26:24.570      416.62035829    
23 May 2022 14:27:17.625    23 May 2022 14:35:23.586      485.96101580    
23 May 2022 16:05:43.694    23 May 2022 16:12:21.031      397.33637989    
23 May 2022 19:25:59.756    23 May 2022 19:27:28.828      89.071785402    
23 May 2022 21:01:41.059    23 May 2022 21:08:46.633      425.57418816    
23 May 2022 22:38:57.695    23 May 2022 22:46:31.389      453.69338002    
24 May 2022 13:47:12.966    24 May 2022 13:55:00.049      467.08326949    
24 May 2022 15:25:02.004    24 May 2022 15:32:14.544      432.53941453    
24 May 2022 17:06:20.045    24 May 2022 17:07:57.638      97.592362866    
24 May 2022 20:21:33.879    24 May 2022 20:28:05.887      392.00857328    
24 May 2022 21:58:32.997    24 May 2022 22:06:27.921      474.92330190    
25 May 2022 13:07:16.529    25 May 2022 13:14:29.409      432.88034446    
25 May 2022 14:44:24.821    25 May 2022 14:52:05.228      460.40780152    
25 May 2022 16:25:01.593    25 May 2022 16:28:10.893      189.30004695    
25 May 2022 19:41:27.564    25 May 2022 19:47:18.965      351.40105711    
25 May 2022 21:18:12.076    25 May 2022 21:26:15.795      483.71926385    
26 May 2022 12:27:31.226    26 May 2022 12:33:48.614      377.38818041    
26 May 2022 14:03:52.348    26 May 2022 14:11:52.901      480.55340425    
26 May 2022 15:43:55.550    26 May 2022 15:48:12.404      256.85401725    
26 May 2022 19:01:22.218    26 May 2022 19:06:25.879      303.66055338    
26 May 2022 20:37:53.855    26 May 2022 20:45:55.947      482.09206110    
26 May 2022 22:16:44.564    26 May 2022 22:21:12.286      267.72276865    
27 May 2022 11:48:04.272    27 May 2022 11:52:50.311      286.03854042    
27 May 2022 13:23:24.874    27 May 2022 13:31:37.247      492.37272351    
27 May 2022 15:02:55.426    27 May 2022 15:08:09.065      313.63912151    
27 May 2022 18:21:18.302    27 May 2022 18:25:26.370      248.06876800    
27 May 2022 19:57:37.631    27 May 2022 20:05:28.964      471.33319394    
27 May 2022 21:35:43.675    27 May 2022 21:41:47.648      363.97356454    
28 May 2022 11:09:43.360    28 May 2022 11:10:46.668      63.308262778    
28 May 2022 12:43:02.807    28 May 2022 12:51:17.794      494.98735332    
28 May 2022 14:22:00.010    28 May 2022 14:28:02.407      362.39768418    
28 May 2022 17:41:17.268    28 May 2022 17:44:19.277      182.00937317    
28 May 2022 19:17:22.919    28 May 2022 19:24:55.237      452.31773683    
28 May 2022 20:54:59.754    28 May 2022 21:02:01.687      421.93258588    
29 May 2022 12:02:46.746    29 May 2022 12:10:53.849      487.10223245    
29 May 2022 13:41:09.039    29 May 2022 13:47:52.928      403.88861251    
29 May 2022 17:01:25.841    29 May 2022 17:02:58.262      92.421578954    
29 May 2022 18:37:09.389    29 May 2022 18:44:15.044      425.65440391    
29 May 2022 20:14:24.569    29 May 2022 20:22:02.480      457.91149704    
30 May 2022 11:22:37.636    30 May 2022 11:30:24.351      466.71460730    
30 May 2022 13:00:22.544    30 May 2022 13:07:40.749      438.20514868    
30 May 2022 14:41:31.367    30 May 2022 14:43:31.110      119.74309233    
30 May 2022 17:56:56.833    30 May 2022 18:03:28.589      391.75578126    
30 May 2022 19:33:54.859    30 May 2022 19:41:53.131      478.27165523    
31 May 2022 10:42:37.091    31 May 2022 10:49:47.556      430.46525843    
31 May 2022 12:19:40.673    31 May 2022 12:27:25.801      465.12841437    
31 May 2022 14:00:11.942    31 May 2022 14:03:34.771      202.82947876    
31 May 2022 17:16:45.168    31 May 2022 17:22:36.013      350.84509458    
31 May 2022 18:53:28.907    31 May 2022 19:01:35.209      486.30208120    
31 May 2022 20:33:56.653    31 May 2022 20:34:58.910      62.256745272    
01 Jun 2022 10:02:48.277    01 Jun 2022 10:09:00.160      371.88336498    
01 Jun 2022 11:39:03.651    01 Jun 2022 11:47:07.878      484.22706480    
01 Jun 2022 13:19:02.105    01 Jun 2022 13:23:29.713      267.60744760    
01 Jun 2022 16:36:34.484    01 Jun 2022 16:41:37.353      302.86965072    
01 Jun 2022 18:13:05.664    01 Jun 2022 18:21:09.622      483.95776557    
01 Jun 2022 19:51:50.099    01 Jun 2022 19:56:33.580      283.48089613    
02 Jun 2022 09:23:19.366    02 Jun 2022 09:27:53.846      274.47971217    
02 Jun 2022 10:58:31.784    02 Jun 2022 11:06:46.639      494.85491873    
02 Jun 2022 12:37:57.740    02 Jun 2022 12:43:20.458      322.71759363    
02 Jun 2022 15:56:25.213    02 Jun 2022 16:00:32.393      247.18057722    
02 Jun 2022 17:32:44.440    02 Jun 2022 17:40:36.941      472.50183671    
02 Jun 2022 19:10:46.680    02 Jun 2022 19:17:00.986      374.30571404    
03 Jun 2022 10:18:05.501    03 Jun 2022 10:26:21.580      496.07909768    
03 Jun 2022 11:56:58.003    03 Jun 2022 12:03:08.161      370.15754798    
03 Jun 2022 15:16:18.737    03 Jun 2022 15:19:20.055      181.31828452    
03 Jun 2022 16:52:24.756    03 Jun 2022 16:59:57.552      452.79549871    
03 Jun 2022 18:29:58.878    03 Jun 2022 18:37:08.485      429.60705830    
04 Jun 2022 09:37:45.439    04 Jun 2022 09:45:51.960      486.52104627    
04 Jun 2022 11:16:02.747    04 Jun 2022 11:22:53.190      410.44286778    
04 Jun 2022 14:36:21.425    04 Jun 2022 14:37:54.368      92.942411976    
04 Jun 2022 16:12:06.285    04 Jun 2022 16:19:11.728      425.44284991    
04 Jun 2022 17:49:19.410    04 Jun 2022 17:57:03.193      463.78388837    
05 Jun 2022 08:57:32.608    05 Jun 2022 09:05:16.639      464.03048574    
05 Jun 2022 10:35:12.048    05 Jun 2022 10:42:35.605      443.55705242    
05 Jun 2022 12:16:12.416    05 Jun 2022 12:18:31.812      139.39661145    
05 Jun 2022 15:31:48.815    05 Jun 2022 15:38:19.673      390.85874925    
05 Jun 2022 17:08:45.252    05 Jun 2022 17:16:47.967      482.71498696    
06 Jun 2022 08:17:28.766    06 Jun 2022 08:24:33.711      424.94441826    
06 Jun 2022 09:54:26.078    06 Jun 2022 10:02:15.296      469.21723529    
06 Jun 2022 11:34:51.343    06 Jun 2022 11:38:27.368      216.02535933    
06 Jun 2022 14:51:32.259    06 Jun 2022 14:57:21.533      349.27405760    
06 Jun 2022 16:28:14.775    06 Jun 2022 16:36:24.276      489.50146758    
06 Jun 2022 18:08:11.424    06 Jun 2022 18:10:20.823      129.39851484    
07 Jun 2022 07:37:37.466    07 Jun 2022 07:43:39.469      362.00392846    
07 Jun 2022 09:13:45.076    07 Jun 2022 09:21:52.018      486.94231831    
07 Jun 2022 10:53:38.043    07 Jun 2022 10:58:16.199      278.15619250    
07 Jun 2022 14:11:16.705    07 Jun 2022 14:16:17.352      300.64658235    
07 Jun 2022 15:47:46.970    07 Jun 2022 15:55:52.978      486.00775948    
07 Jun 2022 17:26:23.833    07 Jun 2022 17:31:26.474      302.64127550    
08 Jun 2022 06:58:08.518    08 Jun 2022 07:02:23.940      255.42122321    
08 Jun 2022 08:33:09.363    08 Jun 2022 08:41:25.397      496.03365121    
08 Jun 2022 10:12:29.855    08 Jun 2022 10:18:01.353      331.49796494    
08 Jun 2022 13:31:02.584    08 Jun 2022 13:35:06.916      244.33174498    
08 Jun 2022 15:07:21.164    08 Jun 2022 15:15:14.612      473.44770483    
08 Jun 2022 16:45:18.677    08 Jun 2022 16:51:45.573      386.89593034    
09 Jun 2022 07:52:39.394    09 Jun 2022 08:00:54.881      495.48775608    
09 Jun 2022 09:31:26.217    09 Jun 2022 09:37:43.679      377.46123655    
09 Jun 2022 12:50:51.308    09 Jun 2022 12:53:49.124      177.81661875    
09 Jun 2022 14:26:56.891    09 Jun 2022 14:34:29.544      452.65371903    
09 Jun 2022 16:04:27.578    09 Jun 2022 16:11:46.316      438.73794980    
10 Jun 2022 07:12:15.848    10 Jun 2022 07:20:19.662      483.81385290    
10 Jun 2022 08:50:27.074    10 Jun 2022 08:57:23.428      416.35420761    
10 Jun 2022 10:32:12.066    10 Jun 2022 10:32:49.857      37.791236001    
10 Jun 2022 12:10:49.670    10 Jun 2022 12:12:17.590      87.919658970    
10 Jun 2022 13:46:33.825    10 Jun 2022 13:53:38.037      424.21211014    
10 Jun 2022 15:23:44.281    10 Jun 2022 15:31:34.778      470.49651289    
11 Jun 2022 06:31:59.830    11 Jun 2022 06:39:38.488      458.65763499    
11 Jun 2022 08:09:32.538    11 Jun 2022 08:17:00.600      448.06155738    
11 Jun 2022 09:50:25.224    11 Jun 2022 09:53:01.144      155.91995524    
11 Jun 2022 13:06:11.762    11 Jun 2022 13:12:40.287      388.52483671    
11 Jun 2022 14:43:06.041    11 Jun 2022 14:51:13.521      487.48072316    
12 Jun 2022 05:51:53.306    12 Jun 2022 05:58:49.227      415.92161937    
12 Jun 2022 07:28:42.800    12 Jun 2022 07:36:35.039      472.23818017    
12 Jun 2022 09:09:01.798    12 Jun 2022 09:12:49.713      227.91466853    
12 Jun 2022 12:25:50.624    12 Jun 2022 12:31:36.431      345.80760273    
12 Jun 2022 14:02:31.335    12 Jun 2022 14:10:43.895      492.56013511    
12 Jun 2022 15:42:05.874    12 Jun 2022 15:45:04.799      178.92427405    
13 Jun 2022 05:12:00.415    13 Jun 2022 05:17:47.568      347.15377672    
13 Jun 2022 06:47:58.115    13 Jun 2022 06:56:06.464      488.34908812    
13 Jun 2022 08:27:45.023    13 Jun 2022 08:32:32.788      287.76488013    
13 Jun 2022 11:45:30.515    13 Jun 2022 11:50:26.501      295.98531683    
13 Jun 2022 13:21:59.208    13 Jun 2022 13:30:06.692      487.48390723    
13 Jun 2022 15:00:27.666    13 Jun 2022 15:05:51.075      323.40896172    
14 Jun 2022 04:32:33.860    14 Jun 2022 04:36:20.632      226.77240298    
14 Jun 2022 06:07:18.826    14 Jun 2022 06:15:34.459      495.63293610    
14 Jun 2022 07:46:33.102    14 Jun 2022 07:52:12.531      339.42965346    
14 Jun 2022 11:05:11.924    14 Jun 2022 11:09:10.237      238.31298833    
14 Jun 2022 12:41:29.017    14 Jun 2022 12:49:22.418      473.40064966    
14 Jun 2022 14:19:21.036    14 Jun 2022 14:26:01.587      400.55084426    
15 Jun 2022 05:26:45.421    15 Jun 2022 05:34:58.418      492.99654518    
15 Jun 2022 07:05:25.670    15 Jun 2022 07:11:49.573      383.90303456    
15 Jun 2022 10:24:56.476    15 Jun 2022 10:27:46.342      169.86631926    
15 Jun 2022 12:01:00.316    15 Jun 2022 12:08:31.417      451.10178147    
15 Jun 2022 13:38:26.889    15 Jun 2022 13:45:55.236      448.34753325    
16 Jun 2022 04:46:18.650    16 Jun 2022 04:54:17.452      478.80148413    
16 Jun 2022 06:24:22.740    16 Jun 2022 06:31:24.075      421.33493051    
16 Jun 2022 08:05:51.239    16 Jun 2022 08:07:03.276      72.037108324    
16 Jun 2022 09:44:53.061    16 Jun 2022 09:46:06.350      73.289015761    
16 Jun 2022 11:20:32.795    16 Jun 2022 11:27:33.939      421.14366218    
16 Jun 2022 12:57:39.944    16 Jun 2022 13:05:37.117      477.17297097    
17 Jun 2022 04:05:59.748    17 Jun 2022 04:13:30.166      450.41703394    
17 Jun 2022 05:43:24.458    17 Jun 2022 05:50:55.987      451.52880246    
17 Jun 2022 07:24:10.039    17 Jun 2022 07:26:59.497      169.45825374    
17 Jun 2022 10:40:06.270    17 Jun 2022 10:46:30.169      383.89885220    
17 Jun 2022 12:16:57.749    17 Jun 2022 12:25:09.495      491.74677733    
18 Jun 2022 03:25:50.986    18 Jun 2022 03:32:34.118      403.13250994    
18 Jun 2022 05:02:31.034    18 Jun 2022 05:10:25.117      474.08241743    
18 Jun 2022 06:42:43.540    18 Jun 2022 06:46:41.813      238.27346053    
18 Jun 2022 09:59:40.693    18 Jun 2022 10:05:20.232      339.53888485    
18 Jun 2022 11:36:18.906    18 Jun 2022 11:44:33.594      494.68802571    
18 Jun 2022 13:15:34.745    18 Jun 2022 13:19:15.880      221.13545879    
19 Jun 2022 02:45:57.410    19 Jun 2022 02:51:24.086      326.67655834    
19 Jun 2022 04:21:42.747    19 Jun 2022 04:29:51.152      488.40444357    
19 Jun 2022 06:01:23.061    19 Jun 2022 06:06:19.356      296.29524713    
19 Jun 2022 09:19:16.229    19 Jun 2022 09:24:04.123      287.89384933    
19 Jun 2022 10:55:42.530    19 Jun 2022 11:03:50.147      487.61711915    
19 Jun 2022 12:34:02.060    19 Jun 2022 12:39:46.391      344.33150432    
20 Jun 2022 02:06:37.355    20 Jun 2022 02:09:41.560      184.20546554    
20 Jun 2022 03:40:59.972    20 Jun 2022 03:49:13.633      493.66093443    
20 Jun 2022 05:20:07.305    20 Jun 2022 05:25:53.773      346.46771313    
20 Jun 2022 08:38:53.512    20 Jun 2022 08:42:41.466      227.95422210    
20 Jun 2022 10:15:08.018    20 Jun 2022 10:22:59.625      471.60689965    
20 Jun 2022 11:52:53.909    20 Jun 2022 11:59:48.098      414.18954487    
21 Jun 2022 03:00:23.253    21 Jun 2022 03:08:31.901      488.64804829    
21 Jun 2022 04:38:56.039    21 Jun 2022 04:45:25.555      389.51624623    
21 Jun 2022 07:58:34.714    21 Jun 2022 08:01:10.450      155.73613790    
21 Jun 2022 09:34:34.958    21 Jun 2022 09:42:02.355      447.39763238    
21 Jun 2022 11:11:56.791    21 Jun 2022 11:19:34.319      457.52836789    
22 Jun 2022 02:19:53.432    22 Jun 2022 02:27:44.970      471.53739785    
22 Jun 2022 03:57:49.323    22 Jun 2022 04:04:54.806      425.48300541    
22 Jun 2022 05:39:07.850    22 Jun 2022 05:40:39.467      91.616557923    
22 Jun 2022 07:18:37.481    22 Jun 2022 07:19:13.892      36.411027925    
22 Jun 2022 08:54:03.074    22 Jun 2022 09:00:58.577      415.50309733    
22 Jun 2022 10:31:06.287    22 Jun 2022 10:39:09.292      483.00494623    
23 Jun 2022 01:39:31.934    23 Jun 2022 01:46:51.262      439.32836980    
23 Jun 2022 03:16:47.331    23 Jun 2022 03:24:21.442      454.11074505    
23 Jun 2022 04:57:26.074    23 Jun 2022 05:00:26.857      180.78333344    
23 Jun 2022 08:13:32.218    23 Jun 2022 08:19:48.464      376.24646964    
23 Jun 2022 09:50:20.233    23 Jun 2022 09:58:35.005      494.77227892    
24 Jun 2022 00:59:21.463    24 Jun 2022 01:05:47.906      386.44359265    
24 Jun 2022 02:35:50.296    24 Jun 2022 02:43:45.242      474.94682854    
24 Jun 2022 04:15:56.000    24 Jun 2022 04:20:03.491      247.49079732    
24 Jun 2022 07:33:02.399    24 Jun 2022 07:38:32.115      329.71654386    
24 Jun 2022 09:09:37.364    24 Jun 2022 09:17:52.561      495.19718892    
24 Jun 2022 10:48:36.522    24 Jun 2022 10:52:54.623      258.10175302    
25 Jun 2022 00:19:28.501    25 Jun 2022 00:24:28.251      299.74960755    
25 Jun 2022 01:54:58.523    25 Jun 2022 02:03:05.864      487.34112267    
25 Jun 2022 03:34:31.671    25 Jun 2022 03:39:35.768      304.09624492    
25 Jun 2022 06:52:33.892    25 Jun 2022 06:57:09.451      275.55860173    
25 Jun 2022 08:28:56.868    25 Jun 2022 08:37:02.635      485.76616579    
25 Jun 2022 10:07:07.167    25 Jun 2022 10:13:11.479      364.31241083    
25 Jun 2022 23:40:25.691    25 Jun 2022 23:42:19.488      113.79702628    
26 Jun 2022 01:14:12.430    26 Jun 2022 01:22:22.805      490.37538314    
26 Jun 2022 02:53:12.075    26 Jun 2022 02:59:05.044      352.96957260    
26 Jun 2022 06:12:07.619    26 Jun 2022 06:15:39.846      212.22714800    
26 Jun 2022 07:48:18.196    26 Jun 2022 07:56:05.666      467.47040434    
26 Jun 2022 09:25:57.463    26 Jun 2022 09:33:04.392      426.92903741    


Number of events : 339


Observer: Hawaii
Start Time (UTC)            Stop Time (UTC)               Duration (s)         
27 Apr 2022 22:52:11.469    27 Apr 2022 22:59:00.138      408.66874714    
28 Apr 2022 00:29:34.666    28 Apr 2022 00:36:21.169      406.50254642    
28 Apr 2022 08:45:59.017    28 Apr 2022 08:53:48.268      469.25163337    
28 Apr 2022 10:25:38.732    28 Apr 2022 10:28:27.213      168.48166102    
28 Apr 2022 22:13:05.879    28 Apr 2022 22:18:31.276      325.39742156    
28 Apr 2022 23:49:17.629    28 Apr 2022 23:56:49.379      451.74935642    
29 Apr 2022 08:06:20.110    29 Apr 2022 08:13:40.821      440.71045658    
29 Apr 2022 09:44:32.098    29 Apr 2022 09:49:59.677      327.57865627    
29 Apr 2022 21:34:42.911    29 Apr 2022 21:37:18.811      155.90064679    
29 Apr 2022 23:09:10.488    29 Apr 2022 23:17:08.866      478.37778489    
30 Apr 2022 07:26:48.133    30 Apr 2022 07:33:21.013      392.88021850    
30 Apr 2022 09:04:03.306    30 Apr 2022 09:10:51.043      407.73684243    
30 Apr 2022 22:29:12.043    30 Apr 2022 22:37:20.488      488.44559735    
01 May 2022 06:47:26.455    01 May 2022 06:52:45.103      318.64839045    
01 May 2022 08:23:49.506    01 May 2022 08:31:23.833      454.32726061    
01 May 2022 21:49:22.096    01 May 2022 21:57:24.103      482.00729492    
01 May 2022 23:29:19.123    01 May 2022 23:32:47.083      207.95981580    
02 May 2022 06:08:27.886    02 May 2022 06:11:39.903      192.01717540    
02 May 2022 07:43:45.018    02 May 2022 07:51:43.396      478.37806715    
02 May 2022 21:09:41.364    02 May 2022 21:17:18.665      457.30155737    
02 May 2022 22:48:16.318    02 May 2022 22:53:44.670      328.35209303    
03 May 2022 07:03:47.502    03 May 2022 07:11:51.735      484.23309411    
03 May 2022 20:30:11.965    03 May 2022 20:37:01.730      409.76530344    
03 May 2022 22:07:38.625    03 May 2022 22:14:19.222      400.59736886    
04 May 2022 06:23:55.985    04 May 2022 06:31:49.474      473.48897900    
04 May 2022 08:03:42.045    04 May 2022 08:06:20.835      158.79023111    
04 May 2022 19:50:59.498    04 May 2022 19:56:27.375      327.87717670    
04 May 2022 21:27:14.582    04 May 2022 21:34:41.849      447.26735058    
05 May 2022 05:44:10.411    05 May 2022 05:51:36.313      445.90131682    
05 May 2022 07:22:25.319    05 May 2022 07:27:50.969      325.64989171    
05 May 2022 19:12:28.127    05 May 2022 19:15:11.107      162.98059104    
05 May 2022 20:47:00.772    05 May 2022 20:54:55.611      474.83923319    
06 May 2022 05:04:31.784    06 May 2022 05:11:10.876      399.09219100    
06 May 2022 06:41:49.264    06 May 2022 06:48:37.305      408.04126016    
06 May 2022 20:06:55.890    06 May 2022 20:15:01.457      485.56782774    
07 May 2022 04:25:03.268    07 May 2022 04:30:29.617      326.34921715    
07 May 2022 06:01:28.767    07 May 2022 06:09:04.619      455.85258866    
07 May 2022 19:26:59.692    07 May 2022 19:34:59.283      479.59101194    
07 May 2022 21:07:01.373    07 May 2022 21:10:17.257      195.88419670    
08 May 2022 03:45:56.480    08 May 2022 03:49:20.532      204.05192926    
08 May 2022 05:21:17.867    08 May 2022 05:29:18.529      480.66187970    
08 May 2022 18:47:12.871    08 May 2022 18:54:48.048      455.17695362    
08 May 2022 20:25:49.894    08 May 2022 20:31:11.447      321.55276673    
09 May 2022 04:41:14.127    09 May 2022 04:49:21.121      486.99352441    
09 May 2022 18:07:37.550    09 May 2022 18:14:25.291      407.74187094    
09 May 2022 19:45:05.378    09 May 2022 19:51:40.923      395.54547291    
10 May 2022 04:01:16.528    10 May 2022 04:09:13.054      476.52626733    
10 May 2022 05:41:03.537    10 May 2022 05:43:42.639      159.10155700    
10 May 2022 17:28:19.391    10 May 2022 17:33:45.005      325.61429796    
10 May 2022 19:04:35.010    10 May 2022 19:11:58.123      443.11296410    
11 May 2022 03:21:24.981    11 May 2022 03:28:54.042      449.06141334    
11 May 2022 04:59:40.242    11 May 2022 05:05:07.543      327.30088828    
11 May 2022 16:49:43.347    11 May 2022 16:52:21.894      158.54680304    
11 May 2022 18:24:15.140    11 May 2022 18:32:06.322      471.18202862    
12 May 2022 02:41:40.464    12 May 2022 02:48:22.719      402.25512459    
12 May 2022 04:18:58.108    12 May 2022 04:25:48.233      410.12533499    
12 May 2022 17:44:04.386    12 May 2022 17:52:06.529      482.14371825    
13 May 2022 02:02:06.107    13 May 2022 02:07:35.556      329.44893631    
13 May 2022 03:38:31.717    13 May 2022 03:46:09.772      458.05589251    
13 May 2022 17:04:02.476    13 May 2022 17:11:58.645      476.16950974    
13 May 2022 18:44:05.935    13 May 2022 18:47:13.742      187.80758749    
14 May 2022 01:22:53.360    14 May 2022 01:26:20.705      207.34484793    
14 May 2022 02:58:15.048    14 May 2022 03:06:17.821      482.77251720    
14 May 2022 16:24:10.113    14 May 2022 16:31:41.605      451.49120491    
14 May 2022 18:02:47.008    14 May 2022 18:08:03.943      316.93488322    
15 May 2022 02:18:05.644    15 May 2022 02:26:14.474      488.83060897    
15 May 2022 15:44:29.488    15 May 2022 15:51:12.861      403.37217558    
15 May 2022 17:21:56.330    15 May 2022 17:28:28.223      391.89320885    
16 May 2022 01:38:02.475    16 May 2022 01:46:00.383      477.90792977    
16 May 2022 03:17:45.636    16 May 2022 03:20:33.304      167.66795969    
16 May 2022 15:05:06.544    16 May 2022 15:10:26.116      319.57118235    
16 May 2022 16:41:20.130    16 May 2022 16:48:39.966      439.83602867    
17 May 2022 00:58:05.467    17 May 2022 01:05:35.240      449.77320917    
17 May 2022 02:36:18.711    17 May 2022 02:41:50.340      331.62900709    
17 May 2022 14:26:29.204    17 May 2022 14:28:53.092      143.88794415    
17 May 2022 16:00:54.609    17 May 2022 16:08:42.583      467.97406850    
18 May 2022 00:18:15.639    18 May 2022 00:24:57.629      401.98951014    
18 May 2022 01:55:31.411    18 May 2022 02:02:24.713      413.30203271    
18 May 2022 15:20:38.346    18 May 2022 15:28:37.109      478.76371024    
18 May 2022 23:38:36.263    18 May 2022 23:44:03.875      327.61167133    
19 May 2022 01:14:59.715    19 May 2022 01:22:40.081      460.36607096    
19 May 2022 14:40:31.078    19 May 2022 14:48:23.436      472.35779768    
19 May 2022 16:20:32.976    19 May 2022 16:23:38.319      185.34305587    
19 May 2022 22:59:19.596    19 May 2022 23:02:41.315      201.71982029    
20 May 2022 00:34:37.745    20 May 2022 00:42:41.964      484.21884404    
20 May 2022 14:00:33.557    20 May 2022 14:08:00.443      446.88638522    
20 May 2022 15:39:08.065    20 May 2022 15:44:23.394      315.32924763    
20 May 2022 23:54:23.089    21 May 2022 00:02:32.405      489.31590639    
21 May 2022 13:20:48.114    21 May 2022 13:27:25.443      397.32934758    
21 May 2022 14:58:11.837    21 May 2022 15:04:42.171      390.33394038    
21 May 2022 23:14:14.760    21 May 2022 23:22:12.018      477.25813949    
22 May 2022 00:53:50.328    22 May 2022 00:56:52.286      181.95828621    
22 May 2022 12:41:21.195    22 May 2022 12:46:31.634      310.43889842    
22 May 2022 14:17:30.239    22 May 2022 14:24:48.313      438.07495708    
22 May 2022 22:34:12.734    22 May 2022 22:41:40.440      447.70554757    
23 May 2022 00:12:21.805    23 May 2022 00:17:59.631      337.82600721    
23 May 2022 12:02:47.036    23 May 2022 12:04:44.430      117.39396758    
23 May 2022 13:36:59.442    23 May 2022 13:44:45.264      465.82229042    
23 May 2022 21:54:18.148    23 May 2022 22:00:56.144      397.99603923    
23 May 2022 23:31:30.117    23 May 2022 23:38:27.137      417.01956906    
24 May 2022 12:56:38.039    24 May 2022 13:04:34.051      476.01156671    
24 May 2022 21:14:34.608    24 May 2022 21:19:55.127      320.51921678    
24 May 2022 22:50:53.676    24 May 2022 22:58:36.036      462.35979034    
25 May 2022 12:16:25.807    25 May 2022 12:24:14.527      468.72001158    
25 May 2022 13:56:22.411    25 May 2022 13:59:32.357      189.94630929    
25 May 2022 20:35:16.445    25 May 2022 20:38:22.661      186.21588891    
25 May 2022 22:10:26.892    25 May 2022 22:18:31.560      484.66858291    
26 May 2022 11:36:23.584    26 May 2022 11:43:45.493      441.90880868    
26 May 2022 13:14:53.369    26 May 2022 13:20:10.911      317.54179221    
26 May 2022 21:30:07.460    26 May 2022 21:38:15.654      488.19461802    
27 May 2022 10:56:33.915    27 May 2022 11:03:04.053      390.13758916    
27 May 2022 12:33:52.382    27 May 2022 12:40:23.891      391.50832862    
27 May 2022 20:49:54.467    27 May 2022 20:57:48.861      474.39436630    
27 May 2022 22:29:19.769    27 May 2022 22:32:39.430      199.66134316    
28 May 2022 10:17:04.005    28 May 2022 10:22:02.651      298.64645804    
28 May 2022 11:53:05.988    28 May 2022 12:00:24.371      438.38289175    
28 May 2022 20:09:47.987    28 May 2022 20:17:10.730      442.74321845    
28 May 2022 21:47:51.008    28 May 2022 21:53:36.244      345.23586442    
29 May 2022 09:38:42.941    29 May 2022 09:39:51.850      68.909216858    
29 May 2022 11:12:30.468    29 May 2022 11:20:15.688      465.22074313    
29 May 2022 19:29:49.341    29 May 2022 19:36:19.549      390.20781202    
29 May 2022 21:06:55.745    29 May 2022 21:13:56.638      420.89366448    
30 May 2022 10:32:04.474    30 May 2022 10:39:58.811      474.33631303    
30 May 2022 18:50:02.705    30 May 2022 18:55:10.748      308.04297655    
30 May 2022 20:26:15.219    30 May 2022 20:33:59.019      463.80045247    
31 May 2022 09:51:47.854    31 May 2022 09:59:33.522      465.66740919    
31 May 2022 11:31:35.524    31 May 2022 11:34:57.492      201.96763094    
31 May 2022 18:10:46.634    31 May 2022 18:13:25.373      158.73897881    
31 May 2022 19:45:44.231    31 May 2022 19:53:48.228      483.99742318    
01 Jun 2022 09:11:41.566    01 Jun 2022 09:18:58.499      436.93225463    
01 Jun 2022 10:50:04.334    01 Jun 2022 10:55:28.317      323.98311999    
01 Jun 2022 19:05:20.619    01 Jun 2022 19:13:26.060      485.44002248    
02 Jun 2022 08:31:48.440    02 Jun 2022 08:38:10.553      382.11382334    
02 Jun 2022 10:08:59.556    02 Jun 2022 10:15:35.315      395.75933089    
02 Jun 2022 18:25:03.571    02 Jun 2022 18:32:52.950      469.37838314    
02 Jun 2022 20:04:16.808    02 Jun 2022 20:07:55.926      219.11822251    
03 Jun 2022 07:52:16.757    03 Jun 2022 07:57:01.045      284.28821925    
03 Jun 2022 09:28:09.116    03 Jun 2022 09:35:30.164      441.04815183    
03 Jun 2022 17:44:53.285    03 Jun 2022 17:52:08.310      435.02437138    
03 Jun 2022 19:22:48.677    03 Jun 2022 19:28:42.099      353.42182510    
04 Jun 2022 08:47:29.538    04 Jun 2022 08:55:15.948      466.40973820    
04 Jun 2022 17:04:51.348    04 Jun 2022 17:11:10.151      378.80267937    
04 Jun 2022 18:41:50.600    04 Jun 2022 18:48:55.361      424.76043842    
05 Jun 2022 08:06:59.582    05 Jun 2022 08:14:53.512      473.93082494    
05 Jun 2022 16:25:02.814    05 Jun 2022 16:29:53.008      290.19381580    
05 Jun 2022 18:01:06.620    05 Jun 2022 18:08:51.299      464.67846647    
06 Jun 2022 07:26:39.190    06 Jun 2022 07:34:22.530      463.33994621    
06 Jun 2022 09:06:14.857    06 Jun 2022 09:09:55.357      220.49949614    
06 Jun 2022 15:45:55.616    06 Jun 2022 15:47:48.534      112.91794359    
06 Jun 2022 17:20:31.981    06 Jun 2022 17:28:34.292      482.31101360    
07 Jun 2022 06:46:29.478    07 Jun 2022 06:53:41.505      432.02670735    
07 Jun 2022 08:24:43.057    07 Jun 2022 08:30:17.609      334.55161118    
07 Jun 2022 16:40:04.693    07 Jun 2022 16:48:05.946      481.25309211    
08 Jun 2022 06:06:33.653    08 Jun 2022 06:12:46.854      373.20082193    
08 Jun 2022 07:43:35.342    08 Jun 2022 07:50:18.392      403.04995721    
08 Jun 2022 15:59:44.064    08 Jun 2022 16:07:26.554      462.49032832    
08 Jun 2022 17:38:43.997    08 Jun 2022 17:42:43.509      239.51240064    
09 Jun 2022 05:27:01.547    09 Jun 2022 05:31:28.367      266.81990661    
09 Jun 2022 07:02:41.492    09 Jun 2022 07:10:07.514      446.02190496    
09 Jun 2022 15:19:30.458    09 Jun 2022 15:26:35.342      424.88412545    
09 Jun 2022 16:57:16.876    09 Jun 2022 17:03:19.146      362.27082345    
10 Jun 2022 06:21:58.382    10 Jun 2022 06:29:47.686      469.30365135    
10 Jun 2022 14:39:25.830    10 Jun 2022 14:45:29.932      364.10278425    
10 Jun 2022 16:16:16.462    10 Jun 2022 16:23:25.187      428.72433515    
11 Jun 2022 05:41:24.927    11 Jun 2022 05:49:19.582      474.65495726    
11 Jun 2022 13:59:36.593    11 Jun 2022 14:04:03.479      266.88643524    
11 Jun 2022 15:35:29.389    11 Jun 2022 15:43:14.609      465.22039046    
12 Jun 2022 05:01:01.205    12 Jun 2022 05:08:42.725      461.51967816    
12 Jun 2022 06:40:22.506    12 Jun 2022 06:44:26.437      243.93159690    
12 Jun 2022 14:54:51.378    12 Jun 2022 15:02:51.297      479.91891231    
13 Jun 2022 04:20:48.541    13 Jun 2022 04:27:55.392      426.85141229    
13 Jun 2022 05:58:50.869    13 Jun 2022 06:04:39.559      348.68984639    
13 Jun 2022 14:14:20.637    13 Jun 2022 14:22:16.637      476.00045388    
14 Jun 2022 03:40:50.659    14 Jun 2022 03:46:53.467      362.80825044    
14 Jun 2022 05:17:40.746    14 Jun 2022 05:24:33.725      412.97913980    
14 Jun 2022 13:33:56.626    14 Jun 2022 13:41:30.754      454.12846366    
14 Jun 2022 15:12:42.256    14 Jun 2022 15:17:03.056      260.79935299    
15 Jun 2022 03:01:19.753    15 Jun 2022 03:05:24.364      244.61048139    
15 Jun 2022 04:36:43.863    15 Jun 2022 04:44:16.784      452.92145011    
15 Jun 2022 12:53:39.927    15 Jun 2022 13:00:32.640      412.71312396    
15 Jun 2022 14:31:16.123    15 Jun 2022 14:37:28.141      372.01839649    
16 Jun 2022 03:55:57.522    16 Jun 2022 04:03:51.008      473.48579649    
16 Jun 2022 12:13:33.008    16 Jun 2022 12:19:19.388      346.37984396    
16 Jun 2022 13:50:13.541    16 Jun 2022 13:57:26.674      433.13227304    
17 Jun 2022 03:15:20.842    17 Jun 2022 03:23:16.864      476.02209334    
17 Jun 2022 04:56:46.380    17 Jun 2022 04:57:13.064      26.684416027    
17 Jun 2022 11:33:44.460    17 Jun 2022 11:37:41.964      237.50341687    
17 Jun 2022 13:09:23.471    17 Jun 2022 13:17:09.294      465.82356374    
18 Jun 2022 02:34:54.079    18 Jun 2022 02:42:33.688      459.60859166    
18 Jun 2022 04:13:59.186    18 Jun 2022 04:18:29.739      270.55261274    
18 Jun 2022 12:28:42.136    18 Jun 2022 12:36:39.377      477.24097471    
19 Jun 2022 01:54:38.847    19 Jun 2022 02:01:39.469      420.62137228    
19 Jun 2022 03:32:27.891    19 Jun 2022 03:38:33.413      365.52176576    
19 Jun 2022 11:48:07.973    19 Jun 2022 11:55:58.077      470.10424768    
20 Jun 2022 01:14:39.610    20 Jun 2022 01:20:29.350      349.74004501    
20 Jun 2022 02:51:15.660    20 Jun 2022 02:58:20.501      424.84156131    
20 Jun 2022 11:07:40.631    20 Jun 2022 11:15:05.325      444.69361303    
20 Jun 2022 12:46:11.056    20 Jun 2022 12:50:54.328      283.27119662    
21 Jun 2022 00:35:12.518    21 Jun 2022 00:38:46.790      214.27208260    
21 Jun 2022 02:10:16.003    21 Jun 2022 02:17:57.069      461.06631265    
21 Jun 2022 10:27:20.979    21 Jun 2022 10:33:59.823      398.84351502    
21 Jun 2022 12:04:45.736    21 Jun 2022 12:11:08.770      383.03351761    
22 Jun 2022 01:29:26.688    22 Jun 2022 01:37:24.931      478.24248557    
22 Jun 2022 09:47:12.212    22 Jun 2022 09:52:37.939      325.72637773    
22 Jun 2022 11:23:41.063    22 Jun 2022 11:30:59.453      438.39062311    
23 Jun 2022 00:48:47.074    23 Jun 2022 00:56:44.320      477.24532995    
23 Jun 2022 02:29:16.261    23 Jun 2022 02:31:32.218      135.95769270    
23 Jun 2022 09:07:26.667    23 Jun 2022 09:10:46.893      200.22618715    
23 Jun 2022 10:42:48.062    23 Jun 2022 10:50:34.957      466.89466032    
24 Jun 2022 00:08:17.650    24 Jun 2022 00:15:54.346      456.69560486    
24 Jun 2022 01:47:05.101    24 Jun 2022 01:52:03.791      298.69051049    
