GMAT/Constellation/Contact/ContactLocator5.txt

Target: HSEYE5

Observer: Bahrain
Start Time (UTC)            Stop Time (UTC)               Duration (s)         
27 Apr 2022 11:59:28.000    27 Apr 2022 12:00:07.777      39.776678674    
27 Apr 2022 13:31:08.527    27 Apr 2022 13:39:07.744      479.21707544    
27 Apr 2022 20:10:19.251    27 Apr 2022 20:13:45.850      206.59906893    
27 Apr 2022 21:45:54.948    27 Apr 2022 21:54:03.260      488.31249137    
28 Apr 2022 12:52:02.297    28 Apr 2022 13:00:11.906      489.60847892    
28 Apr 2022 14:33:03.236    28 Apr 2022 14:35:14.539      131.30312569    
28 Apr 2022 21:06:56.541    28 Apr 2022 21:15:00.314      483.77338182    
28 Apr 2022 22:46:40.310    28 Apr 2022 22:49:35.496      175.18620151    
29 Apr 2022 12:13:02.397    29 Apr 2022 12:21:10.407      488.01003154    
29 Apr 2022 13:52:44.287    29 Apr 2022 13:57:10.813      266.52638703    
29 Apr 2022 20:28:01.568    29 Apr 2022 20:35:49.005      467.43673895    
29 Apr 2022 22:06:30.954    29 Apr 2022 22:11:52.676      321.72228276    
30 Apr 2022 11:34:09.296    30 Apr 2022 11:42:02.563      473.26665698    
30 Apr 2022 13:12:54.171    30 Apr 2022 13:18:39.991      345.81975157    
30 Apr 2022 19:49:10.030    30 Apr 2022 19:56:29.102      439.07173552    
30 Apr 2022 21:26:54.066    30 Apr 2022 21:33:33.709      399.64299143    
01 May 2022 10:55:24.097    01 May 2022 11:02:47.050      442.95277682    
01 May 2022 12:33:16.517    01 May 2022 12:39:58.314      401.79726837    
01 May 2022 19:10:22.450    01 May 2022 19:16:59.858      397.40784054    
01 May 2022 20:47:30.163    01 May 2022 20:54:57.854      447.69142417    
02 May 2022 10:16:49.144    02 May 2022 10:23:21.310      392.16525023    
02 May 2022 11:53:47.527    02 May 2022 12:01:09.419      441.89182213    
02 May 2022 18:31:40.321    02 May 2022 18:37:19.576      339.25521076    
02 May 2022 20:08:14.025    02 May 2022 20:16:10.108      476.08280074    
03 May 2022 09:38:30.171    03 May 2022 09:43:39.399      309.22798037    
03 May 2022 11:14:25.705    03 May 2022 11:22:14.619      468.91458625    
03 May 2022 17:53:07.837    03 May 2022 17:57:23.887      256.04999891    
03 May 2022 19:29:03.334    03 May 2022 19:37:12.561      489.22682960    
04 May 2022 09:00:52.633    04 May 2022 09:03:15.654      143.02089494    
04 May 2022 10:35:10.422    04 May 2022 10:43:14.346      483.92455186    
04 May 2022 17:15:06.865    04 May 2022 17:16:50.784      103.91899572    
04 May 2022 18:49:56.893    04 May 2022 18:58:06.187      489.29448570    
05 May 2022 09:56:01.549    05 May 2022 10:04:08.524      486.97526642    
05 May 2022 11:36:09.666    05 May 2022 11:39:49.586      219.91997774    
05 May 2022 18:10:54.102    05 May 2022 18:18:51.360      477.25796064    
05 May 2022 19:49:45.032    05 May 2022 19:54:27.175      282.14347253    
06 May 2022 09:16:59.389    06 May 2022 09:24:56.642      477.25285355    
06 May 2022 10:56:04.842    06 May 2022 11:01:19.736      314.89330055    
06 May 2022 17:31:54.804    06 May 2022 17:39:28.016      453.21195944    
06 May 2022 19:09:53.667    06 May 2022 19:16:11.020      377.35310717    
07 May 2022 08:38:04.798    07 May 2022 08:45:37.636      452.83824390    
07 May 2022 10:16:16.295    07 May 2022 10:22:35.422      379.12702382    
07 May 2022 16:52:59.312    07 May 2022 16:59:55.628      416.31609835    
07 May 2022 18:30:19.349    07 May 2022 18:37:34.080      434.73120636    
08 May 2022 07:59:19.604    08 May 2022 08:06:09.470      409.86617859    
08 May 2022 09:36:37.710    08 May 2022 09:43:42.815      425.10510155    
08 May 2022 16:14:08.694    08 May 2022 16:20:12.929      364.23511103    
08 May 2022 17:50:54.340    08 May 2022 17:58:43.879      469.53938955    
09 May 2022 07:20:47.981    09 May 2022 07:26:27.764      339.78271745    
09 May 2022 08:57:06.924    09 May 2022 09:04:43.910      456.98675949    
09 May 2022 15:35:25.812    09 May 2022 15:40:16.880      291.06866112    
09 May 2022 17:11:35.586    09 May 2022 17:19:43.255      487.66823189    
10 May 2022 06:42:43.606    10 May 2022 06:46:18.638      215.03260798    
10 May 2022 08:17:43.023    10 May 2022 08:25:39.429      476.40572697    
10 May 2022 14:57:01.078    10 May 2022 14:59:56.922      175.84352419    
10 May 2022 16:32:21.566    10 May 2022 16:40:33.506      491.94019058    
11 May 2022 07:38:25.706    11 May 2022 07:46:29.469      483.76294478    
11 May 2022 09:19:03.768    11 May 2022 09:21:46.809      163.04067011    
11 May 2022 15:53:11.493    11 May 2022 16:01:15.196      483.70365686    
11 May 2022 17:32:26.290    11 May 2022 17:36:21.516      235.22611329    
12 May 2022 06:59:15.122    12 May 2022 07:07:13.672      478.54990790    
12 May 2022 08:38:40.702    12 May 2022 08:43:22.306      281.60395907    
12 May 2022 15:14:05.061    12 May 2022 15:21:48.405      463.34372750    
12 May 2022 16:52:18.445    12 May 2022 16:58:10.835      352.39064167    
13 May 2022 06:20:11.925    13 May 2022 06:27:51.167      459.24273133    
13 May 2022 07:58:41.050    13 May 2022 08:04:36.425      355.37551503    
13 May 2022 14:35:02.420    13 May 2022 14:42:12.765      430.34493306    
13 May 2022 16:12:33.743    13 May 2022 16:19:33.468      419.72528606    
14 May 2022 05:41:17.577    14 May 2022 05:48:20.276      422.69945206    
14 May 2022 07:18:53.146    14 May 2022 07:25:40.692      407.54657490    
14 May 2022 13:56:04.354    14 May 2022 14:02:27.278      382.92420481    
14 May 2022 15:33:00.228    14 May 2022 15:40:41.148      460.91988352    
15 May 2022 05:02:35.301    15 May 2022 05:08:37.556      362.25494645    
15 May 2022 06:39:13.815    15 May 2022 06:46:38.106      444.29087526    
15 May 2022 13:17:12.993    15 May 2022 13:22:29.621      316.62787171    
15 May 2022 14:53:33.872    15 May 2022 15:01:37.675      483.80319489    
16 May 2022 04:24:14.164    16 May 2022 04:28:33.725      259.56147560    
16 May 2022 05:59:41.776    16 May 2022 06:07:29.750      467.97337291    
16 May 2022 12:38:35.025    16 May 2022 12:42:12.938      217.91249737    
16 May 2022 14:14:12.768    16 May 2022 14:22:24.725      491.95739905    
17 May 2022 05:20:16.529    17 May 2022 05:28:15.908      479.37910433    
17 May 2022 07:01:37.342    17 May 2022 07:02:56.122      78.780436073    
17 May 2022 13:34:55.923    17 May 2022 13:43:03.053      487.12930150    
17 May 2022 15:14:39.619    17 May 2022 15:17:35.420      175.80051371    
18 May 2022 04:40:58.069    18 May 2022 04:48:56.359      478.29012695    
18 May 2022 06:20:43.784    18 May 2022 06:24:50.003      246.21841908    
18 May 2022 12:55:42.890    18 May 2022 13:03:32.867      469.97703837    
18 May 2022 14:34:10.823    18 May 2022 14:39:35.305      324.48184490    
19 May 2022 04:01:46.879    19 May 2022 04:09:30.389      463.51031059    
19 May 2022 05:40:32.480    19 May 2022 05:46:03.816      331.33648108    
19 May 2022 12:16:33.676    19 May 2022 12:23:53.925      440.24809644    
19 May 2022 13:54:15.534    19 May 2022 14:00:58.274      402.74050467    
20 May 2022 03:22:44.145    20 May 2022 03:29:56.581      432.43592485    
20 May 2022 05:00:35.390    20 May 2022 05:07:05.460      390.06979727    
20 May 2022 11:37:28.866    20 May 2022 11:44:05.411      396.54492623    
20 May 2022 13:14:33.723    20 May 2022 13:22:04.120      450.39723484    
21 May 2022 02:43:52.454    21 May 2022 02:50:12.113      379.65914413    
21 May 2022 04:20:47.788    21 May 2022 04:27:59.479      431.69137076    
21 May 2022 10:58:30.141    21 May 2022 11:04:05.434      335.29291487    
21 May 2022 12:35:00.054    21 May 2022 12:42:57.937      477.88263444    
22 May 2022 02:05:18.442    22 May 2022 02:10:10.116      291.67401390    
22 May 2022 03:41:07.917    22 May 2022 03:48:47.422      459.50482663    
22 May 2022 10:19:42.418    22 May 2022 10:23:48.885      246.46713560    
22 May 2022 11:55:32.166    22 May 2022 12:03:41.843      489.67741745    
23 May 2022 01:27:40.197    23 May 2022 01:29:12.270      92.072977067    
23 May 2022 03:01:35.056    23 May 2022 03:09:29.784      474.72798165    
23 May 2022 09:41:39.804    23 May 2022 09:42:41.510      61.706100125    
23 May 2022 11:16:08.845    23 May 2022 11:24:16.805      487.95965872    
23 May 2022 12:56:37.694    23 May 2022 12:57:59.447      81.752541382    
24 May 2022 02:22:09.055    24 May 2022 02:30:06.484      477.42894643    
24 May 2022 04:02:15.243    24 May 2022 04:05:44.299      209.05650160    
24 May 2022 10:36:49.504    24 May 2022 10:44:43.160      473.65559981    
24 May 2022 12:15:32.341    24 May 2022 12:20:25.777      293.43549537    
25 May 2022 01:42:50.249    25 May 2022 01:50:36.943      466.69468089    
25 May 2022 03:21:51.221    25 May 2022 03:26:59.203      307.98151855    
25 May 2022 09:57:34.034    25 May 2022 10:05:00.774      446.73990329    
25 May 2022 11:35:25.858    25 May 2022 11:41:49.906      384.04854303    
26 May 2022 01:03:39.612    26 May 2022 01:10:59.952      440.34046701    
26 May 2022 02:41:44.920    26 May 2022 02:47:58.523      373.60317938    
26 May 2022 09:18:22.871    26 May 2022 09:25:08.975      406.10446909    
26 May 2022 10:55:35.751    26 May 2022 11:02:54.088      438.33695746    
27 May 2022 00:24:39.284    27 May 2022 00:31:13.133      393.84941304    
27 May 2022 02:01:49.188    27 May 2022 02:08:49.235      420.04760911    
27 May 2022 08:39:17.400    27 May 2022 08:45:06.157      348.75667740    
27 May 2022 10:15:54.886    27 May 2022 10:23:45.215      470.32924835    
27 May 2022 23:45:54.435    27 May 2022 23:51:11.081      316.64577451    
28 May 2022 01:22:01.678    28 May 2022 01:29:33.484      451.80537823    
28 May 2022 08:00:21.548    28 May 2022 08:04:48.199      266.65054334    
28 May 2022 09:36:20.364    28 May 2022 09:44:25.946      485.58226987    
28 May 2022 23:07:45.615    28 May 2022 23:10:33.018      167.40289562    
29 May 2022 00:42:21.432    29 May 2022 00:50:12.011      470.57943401    
29 May 2022 07:21:54.090    29 May 2022 07:23:56.170      122.07972376    
29 May 2022 08:56:50.736    29 May 2022 09:04:57.484      486.74847633    
30 May 2022 00:02:48.156    30 May 2022 00:10:44.880      476.72399024    
30 May 2022 01:43:15.357    30 May 2022 01:46:05.855      170.49830480    
30 May 2022 08:17:25.282    30 May 2022 08:25:20.307      475.02567479    
30 May 2022 09:56:23.707    30 May 2022 10:00:42.923      259.21584751    
30 May 2022 23:23:22.066    30 May 2022 23:31:11.643      469.57758965    
31 May 2022 01:02:37.148    31 May 2022 01:07:23.579      286.43079683    
31 May 2022 07:38:03.791    31 May 2022 07:45:34.386      450.59525793    
31 May 2022 09:16:05.121    31 May 2022 09:22:09.314      364.19317176    
31 May 2022 22:44:03.969    31 May 2022 22:51:31.262      447.29234887    
01 Jun 2022 00:22:21.724    01 Jun 2022 00:28:20.777      359.05324761    
01 Jun 2022 06:58:46.586    01 Jun 2022 07:05:39.167      412.58123252    
01 Jun 2022 08:36:06.725    01 Jun 2022 08:43:12.053      425.32794094    
01 Jun 2022 22:04:55.681    01 Jun 2022 22:11:41.691      406.00978355    
01 Jun 2022 23:42:18.133    01 Jun 2022 23:49:08.240      410.10690633    
02 Jun 2022 06:19:34.847    02 Jun 2022 06:25:33.254      358.40692901    
02 Jun 2022 07:56:18.837    02 Jun 2022 08:04:00.590      461.75351660    
02 Jun 2022 21:26:01.412    02 Jun 2022 21:31:38.493      337.08060540    
02 Jun 2022 23:02:23.322    02 Jun 2022 23:09:48.836      445.51354452    
03 Jun 2022 05:40:31.875    03 Jun 2022 05:45:13.152      281.27770324    
03 Jun 2022 07:16:37.916    03 Jun 2022 07:24:38.230      480.31476958    
03 Jun 2022 20:47:35.131    03 Jun 2022 20:51:07.476      212.34471897    
03 Jun 2022 22:22:36.074    03 Jun 2022 22:30:23.572      467.49792569    
04 Jun 2022 05:01:51.112    04 Jun 2022 05:04:25.261      154.14876533    
04 Jun 2022 06:37:02.256    04 Jun 2022 06:45:06.442      484.18617882    
04 Jun 2022 21:42:55.962    04 Jun 2022 21:50:52.657      476.69444686    
04 Jun 2022 23:23:44.968    04 Jun 2022 23:25:55.570      130.60230754    
05 Jun 2022 05:57:31.000    05 Jun 2022 06:05:25.845      474.84470049    
05 Jun 2022 07:36:46.086    05 Jun 2022 07:40:27.913      221.82721097    
05 Jun 2022 21:03:23.091    05 Jun 2022 21:11:15.757      472.66546172    
05 Jun 2022 22:42:50.766    05 Jun 2022 22:47:18.508      267.74151886    
06 Jun 2022 05:18:03.841    06 Jun 2022 05:25:36.508      452.66761958    
06 Jun 2022 06:56:14.267    06 Jun 2022 07:01:58.219      343.95197164    
06 Jun 2022 20:23:58.133    06 Jun 2022 20:31:31.971      453.83798640    
06 Jun 2022 22:02:26.659    06 Jun 2022 22:08:13.776      347.11690117    
07 Jun 2022 04:38:41.000    07 Jun 2022 04:45:37.978      416.97748866    
07 Jun 2022 06:16:07.770    07 Jun 2022 06:22:59.894      412.12461881    
07 Jun 2022 19:44:42.653    07 Jun 2022 19:51:39.506      416.85304631    
07 Jun 2022 21:22:15.757    07 Jun 2022 21:28:58.118      402.36044739    
08 Jun 2022 03:59:23.497    08 Jun 2022 04:05:29.016      365.51951207    
08 Jun 2022 05:36:13.202    08 Jun 2022 05:43:46.094      452.89148366    
08 Jun 2022 19:05:40.193    08 Jun 2022 19:11:34.588      354.39533213    
08 Jun 2022 20:42:14.208    08 Jun 2022 20:49:35.200      440.99240190    
09 Jun 2022 03:20:14.186    09 Jun 2022 03:25:06.563      292.37700936    
09 Jun 2022 04:56:26.265    09 Jun 2022 05:04:20.882      474.61698723    
09 Jun 2022 18:27:01.257    09 Jun 2022 18:31:06.486      245.22877730    
09 Jun 2022 20:02:20.532    09 Jun 2022 20:10:06.294      465.76202747    
10 Jun 2022 02:41:23.657    10 Jun 2022 02:44:19.860      176.20377231    
10 Jun 2022 04:16:44.965    10 Jun 2022 04:24:46.006      481.04063947    
10 Jun 2022 19:22:34.170    10 Jun 2022 19:30:31.735      477.56520695    
10 Jun 2022 21:03:46.566    10 Jun 2022 21:05:14.608      88.041833171    
11 Jun 2022 03:37:08.300    11 Jun 2022 03:45:02.223      473.92360121    
11 Jun 2022 05:16:41.665    11 Jun 2022 05:19:42.668      181.00292401    
11 Jun 2022 18:42:55.126    11 Jun 2022 18:50:51.284      476.15828470    
11 Jun 2022 20:22:33.610    11 Jun 2022 20:26:46.277      252.66718181    
12 Jun 2022 02:57:35.862    12 Jun 2022 03:05:09.693      453.83024749    
12 Jun 2022 04:35:54.952    12 Jun 2022 04:41:19.207      324.25573531    
12 Jun 2022 18:03:23.956    12 Jun 2022 18:11:04.146      460.19040020    
12 Jun 2022 19:42:01.528    12 Jun 2022 19:47:39.645      338.11740072    
13 Jun 2022 02:18:07.780    13 Jun 2022 02:25:08.039      420.25907447    
13 Jun 2022 03:55:40.615    13 Jun 2022 04:02:20.179      399.56304787    
13 Jun 2022 17:24:02.027    13 Jun 2022 17:31:08.709      426.68249505    
13 Jun 2022 19:01:43.970    13 Jun 2022 19:08:20.910      396.94028782    
14 Jun 2022 01:38:44.928    14 Jun 2022 01:44:56.148      371.22031756    
14 Jun 2022 03:15:39.733    14 Jun 2022 03:23:04.257      444.52456314    
14 Jun 2022 16:44:52.402    14 Jun 2022 16:51:01.667      369.26423848    
14 Jun 2022 18:21:36.275    14 Jun 2022 18:28:54.543      438.26840648    
15 Jun 2022 00:59:29.817    15 Jun 2022 01:04:31.286      301.46949298    
15 Jun 2022 02:35:47.123    15 Jun 2022 02:43:36.370      469.24663126    
15 Jun 2022 16:06:03.516    15 Jun 2022 16:10:34.339      270.82358164    
15 Jun 2022 17:41:36.716    15 Jun 2022 17:49:22.048      465.33187868    
16 Jun 2022 00:20:31.185    16 Jun 2022 00:23:44.519      193.33494793    
16 Jun 2022 01:56:00.490    16 Jun 2022 02:03:58.552      478.06197144    
16 Jun 2022 17:01:44.614    16 Jun 2022 17:09:43.866      479.25236367    
16 Jun 2022 18:43:27.481    16 Jun 2022 18:43:59.194      31.713157485    
17 Jun 2022 01:16:18.680    17 Jun 2022 01:24:11.694      473.01427829    
17 Jun 2022 02:56:12.773    17 Jun 2022 02:58:28.594      135.82059924    
17 Jun 2022 16:21:59.886    17 Jun 2022 16:29:59.831      479.94476461    
17 Jun 2022 18:01:47.153    17 Jun 2022 18:05:48.688      241.53474433    
18 Jun 2022 00:36:41.186    18 Jun 2022 00:44:16.032      454.84525688    
18 Jun 2022 02:15:08.313    18 Jun 2022 02:20:14.546      306.23264671    
18 Jun 2022 15:42:22.994    18 Jun 2022 15:50:09.225      466.23069635    
18 Jun 2022 17:21:07.824    18 Jun 2022 17:26:39.826      332.00148954    
18 Jun 2022 23:57:08.049    19 Jun 2022 00:04:11.261      423.21188579    
19 Jun 2022 01:34:46.326    19 Jun 2022 01:41:14.863      388.53644240    
19 Jun 2022 15:02:55.157    19 Jun 2022 15:10:10.570      435.41285342    
19 Jun 2022 16:40:44.141    19 Jun 2022 16:47:17.802      393.66105470    
19 Jun 2022 23:17:40.020    19 Jun 2022 23:23:56.371      376.35118895    
20 Jun 2022 00:54:39.336    20 Jun 2022 01:01:56.759      437.42291594    
20 Jun 2022 14:23:39.099    20 Jun 2022 14:30:00.883      381.78443183    
20 Jun 2022 16:00:30.717    20 Jun 2022 16:07:47.805      437.08787388    
20 Jun 2022 22:38:19.328    20 Jun 2022 22:43:28.892      309.56316954    
21 Jun 2022 00:14:41.204    21 Jun 2022 00:22:26.103      464.89907230    
21 Jun 2022 13:44:41.961    21 Jun 2022 13:49:32.767      290.80680627    
21 Jun 2022 15:20:25.625    21 Jun 2022 15:28:11.535      465.90982106    
21 Jun 2022 21:59:13.386    21 Jun 2022 22:02:41.195      207.80871020    
21 Jun 2022 23:34:49.331    21 Jun 2022 23:42:45.223      475.89129038    
22 Jun 2022 13:06:51.171    22 Jun 2022 13:07:58.537      67.365389108    
22 Jun 2022 14:40:28.091    22 Jun 2022 14:48:29.518      481.42725066    
22 Jun 2022 22:55:02.424    22 Jun 2022 23:02:55.136      472.71230944    
23 Jun 2022 00:35:21.782    23 Jun 2022 00:36:44.478      82.696103328    
23 Jun 2022 14:00:37.971    23 Jun 2022 14:08:41.646      483.67528998    
23 Jun 2022 15:40:31.823    23 Jun 2022 15:44:26.064      234.24142899    
23 Jun 2022 22:15:19.890    23 Jun 2022 22:22:56.157      456.26608125    
23 Jun 2022 23:53:54.050    23 Jun 2022 23:58:45.240      291.18997785    
24 Jun 2022 13:20:55.659    24 Jun 2022 13:28:47.260      471.60061008    
24 Jun 2022 14:59:45.910    24 Jun 2022 15:05:14.318      328.40790205    
24 Jun 2022 21:35:41.696    24 Jun 2022 21:42:48.046      426.34943887    
24 Jun 2022 23:13:24.608    24 Jun 2022 23:19:44.529      379.92105052    
25 Jun 2022 12:41:22.277    25 Jun 2022 12:48:44.979      442.70217908    
25 Jun 2022 14:19:16.492    25 Jun 2022 14:25:48.592      392.10015459    
25 Jun 2022 20:56:08.493    25 Jun 2022 21:02:29.886      381.39307187    
25 Jun 2022 22:33:11.634    25 Jun 2022 22:40:23.898      432.26342340    


Number of events : 245


Observer: Cape_Town
Start Time (UTC)            Stop Time (UTC)               Duration (s)         
28 Apr 2022 02:45:54.863    28 Apr 2022 02:52:38.733      403.86978780    
28 Apr 2022 04:22:48.721    28 Apr 2022 04:30:31.100      462.37953318    
28 Apr 2022 06:03:17.546    28 Apr 2022 06:06:46.470      208.92396140    
28 Apr 2022 09:20:12.624    28 Apr 2022 09:25:48.885      336.26077260    
28 Apr 2022 10:56:56.521    28 Apr 2022 11:05:05.344      488.82360809    
28 Apr 2022 12:36:36.120    28 Apr 2022 12:39:33.424      177.30328355    
29 Apr 2022 02:07:30.973    29 Apr 2022 02:13:12.358      341.38578692    
29 Apr 2022 03:43:37.304    29 Apr 2022 03:51:35.261      477.95649148    
29 Apr 2022 05:23:35.402    29 Apr 2022 05:28:02.866      267.46462688    
29 Apr 2022 08:41:25.313    29 Apr 2022 08:46:13.629      288.31627525    
29 Apr 2022 10:17:57.368    29 Apr 2022 10:26:00.536      483.16796366    
29 Apr 2022 11:56:35.014    29 Apr 2022 12:01:46.247      311.23283962    
30 Apr 2022 01:29:27.859    30 Apr 2022 01:33:25.311      237.45220858    
30 Apr 2022 03:04:29.916    30 Apr 2022 03:12:36.225      486.30844998    
30 Apr 2022 04:43:57.580    30 Apr 2022 04:49:15.388      317.80781590    
30 Apr 2022 08:02:39.438    30 Apr 2022 08:06:32.245      232.80792584    
30 Apr 2022 09:38:59.511    30 Apr 2022 09:46:49.502      469.99099738    
30 Apr 2022 11:17:01.850    30 Apr 2022 11:23:26.974      385.12421802    
01 May 2022 02:25:26.918    01 May 2022 02:33:33.559      486.64096773    
01 May 2022 04:04:23.390    01 May 2022 04:10:24.939      361.54884235    
01 May 2022 07:23:56.924    01 May 2022 07:26:43.043      166.11967486    
01 May 2022 09:00:02.617    01 May 2022 09:07:32.499      449.88266467    
01 May 2022 10:37:39.865    01 May 2022 10:44:52.235      432.36985796    
02 May 2022 01:46:28.834    02 May 2022 01:54:26.647      477.81275451    
02 May 2022 03:24:52.668    02 May 2022 03:31:31.833      399.16477001    
02 May 2022 06:45:28.378    02 May 2022 06:46:35.722      67.343787372    
02 May 2022 08:21:06.457    02 May 2022 08:28:09.712      423.25480040    
02 May 2022 09:58:24.277    02 May 2022 10:06:06.679      462.40170195    
03 May 2022 01:07:36.477    03 May 2022 01:15:14.579      458.10144302    
03 May 2022 02:45:25.444    03 May 2022 02:52:36.142      430.69815484    
03 May 2022 04:26:45.748    03 May 2022 04:28:24.036      98.287495261    
03 May 2022 07:42:10.898    03 May 2022 07:48:41.269      390.37067418    
03 May 2022 09:19:12.850    03 May 2022 09:27:12.412      479.56253097    
04 May 2022 00:28:51.195    04 May 2022 00:35:55.898      424.70238201    
04 May 2022 02:06:01.833    04 May 2022 02:13:37.801      455.96784905    
04 May 2022 03:46:43.283    04 May 2022 03:49:47.073      183.78987329    
04 May 2022 07:03:15.912    04 May 2022 07:09:07.242      351.32978694    
04 May 2022 08:40:04.308    04 May 2022 08:48:10.592      486.28350607    
04 May 2022 23:50:15.518    04 May 2022 23:56:27.966      372.44812598    
05 May 2022 01:26:42.012    05 May 2022 01:34:36.646      474.63358718    
05 May 2022 03:06:51.785    05 May 2022 03:10:59.257      247.47198110    
05 May 2022 06:24:21.627    05 May 2022 06:29:27.603      305.97640187    
05 May 2022 08:00:57.840    05 May 2022 08:09:01.920      484.08016608    
05 May 2022 09:39:55.108    05 May 2022 09:44:20.676      265.56765279    
05 May 2022 23:11:55.400    05 May 2022 23:16:44.718      289.31768144    
06 May 2022 00:47:26.220    06 May 2022 00:55:32.416      486.19648274    
06 May 2022 02:27:05.413    06 May 2022 02:32:06.750      301.33766314    
06 May 2022 05:45:28.471    06 May 2022 05:49:42.085      253.61416735    
06 May 2022 07:21:52.892    06 May 2022 07:29:46.855      473.96218604    
06 May 2022 09:00:07.296    06 May 2022 09:06:04.759      357.46313258    
06 May 2022 22:34:19.157    06 May 2022 22:36:17.731      118.57432164    
07 May 2022 00:08:14.782    07 May 2022 00:16:24.738      489.95549254    
07 May 2022 01:47:22.971    07 May 2022 01:53:11.004      348.03295025    
07 May 2022 05:06:37.667    07 May 2022 05:09:49.691      192.02386478    
07 May 2022 06:42:49.080    07 May 2022 06:50:25.710      456.63052902    
07 May 2022 08:20:34.920    07 May 2022 08:27:29.222      414.30169882    
07 May 2022 23:29:08.164    07 May 2022 23:37:13.076      484.91262014    
08 May 2022 01:07:44.154    08 May 2022 01:14:12.521      388.36663971    
08 May 2022 04:27:53.933    08 May 2022 04:29:46.002      112.06870131    
08 May 2022 06:03:46.132    08 May 2022 06:10:58.712      432.57982652    
08 May 2022 07:41:10.547    08 May 2022 07:48:41.372      450.82471725    
08 May 2022 22:50:07.061    08 May 2022 22:57:56.651      469.58977212    
09 May 2022 00:28:08.939    09 May 2022 00:35:11.460      422.52010941    
09 May 2022 02:09:48.767    09 May 2022 02:10:45.387      56.619986845    
09 May 2022 05:24:43.875    09 May 2022 05:31:26.023      402.14799915    
09 May 2022 07:01:51.180    09 May 2022 07:09:44.088      472.90798423    
09 May 2022 22:11:12.593    09 May 2022 22:18:34.246      441.65305701    
09 May 2022 23:48:37.421    09 May 2022 23:56:07.808      450.38652183    
10 May 2022 01:29:29.820    10 May 2022 01:32:12.014      162.19373778    
10 May 2022 04:45:42.233    10 May 2022 04:51:47.756      365.52351464    
10 May 2022 06:22:35.222    10 May 2022 06:30:38.846      483.62427971    
10 May 2022 21:32:26.747    10 May 2022 21:39:03.770      397.02267302    
10 May 2022 23:09:09.760    10 May 2022 23:17:01.440      471.67987470    
11 May 2022 00:49:29.498    11 May 2022 00:53:20.141      230.64284505    
11 May 2022 04:06:41.251    11 May 2022 04:12:03.946      322.69485688    
11 May 2022 05:43:21.697    11 May 2022 05:51:26.512      484.81549295    
11 May 2022 07:22:42.157    11 May 2022 07:26:15.646      213.48881260    
11 May 2022 20:53:53.738    11 May 2022 20:59:20.901      327.16364079    
11 May 2022 22:29:46.174    11 May 2022 22:37:52.130      485.95649649    
12 May 2022 00:09:35.227    12 May 2022 00:14:22.701      287.47381540    
12 May 2022 03:27:41.197    12 May 2022 03:32:14.471      273.27387262    
12 May 2022 05:04:09.956    12 May 2022 05:12:07.636      477.67976137    
12 May 2022 06:42:37.051    12 May 2022 06:48:06.271      329.22030523    
12 May 2022 20:15:47.049    12 May 2022 20:19:12.044      204.99546197    
12 May 2022 21:50:26.959    12 May 2022 21:58:39.546      492.58691875    
12 May 2022 23:29:45.194    12 May 2022 23:35:21.791      336.59724923    
13 May 2022 02:48:42.840    13 May 2022 02:52:18.767      215.92705124    
13 May 2022 04:24:59.547    13 May 2022 04:32:42.585      463.03860128    
13 May 2022 06:02:54.109    13 May 2022 06:09:30.682      396.57323307    
13 May 2022 21:11:12.527    13 May 2022 21:19:23.207      490.68009319    
13 May 2022 22:49:58.937    13 May 2022 22:56:18.095      379.15858829    
14 May 2022 02:09:48.678    14 May 2022 02:12:14.613      145.93548761    
14 May 2022 03:45:50.148    14 May 2022 03:53:11.621      441.47300650    
14 May 2022 05:23:21.160    14 May 2022 05:30:40.918      439.75819987    
14 May 2022 20:32:03.485    14 May 2022 20:40:02.420      478.93477053    
14 May 2022 22:10:16.380    14 May 2022 22:17:11.845      415.46474603    
15 May 2022 03:06:41.539    15 May 2022 03:13:34.933      413.39403772    
15 May 2022 04:43:54.164    15 May 2022 04:51:40.891      466.72725622    
15 May 2022 19:53:00.787    15 May 2022 20:00:36.130      455.34295019    
15 May 2022 21:30:37.593    15 May 2022 21:38:03.063      445.46960145    
15 May 2022 23:11:39.078    15 May 2022 23:14:03.435      144.35626758    
16 May 2022 02:27:33.591    16 May 2022 02:33:52.661      379.06971927    
16 May 2022 04:04:31.131    16 May 2022 04:12:32.459      481.32898060    
16 May 2022 19:14:06.064    16 May 2022 19:21:02.589      416.52489480    
16 May 2022 20:51:02.721    16 May 2022 20:58:51.649      468.92833655    
16 May 2022 22:31:30.714    16 May 2022 22:35:07.520      216.80592679    
17 May 2022 01:48:26.280    17 May 2022 01:54:04.885      338.60512533    
17 May 2022 03:25:10.890    17 May 2022 03:33:16.665      485.77482062    
17 May 2022 05:05:00.691    17 May 2022 05:07:30.873      150.18212898    
17 May 2022 18:35:22.552    17 May 2022 18:41:18.445      355.89306025    
17 May 2022 20:11:31.961    17 May 2022 20:19:37.399      485.43817112    
17 May 2022 21:51:29.274    17 May 2022 21:56:05.177      275.90378977    
18 May 2022 01:09:19.745    18 May 2022 01:14:11.582      291.83733466    
18 May 2022 02:45:52.683    18 May 2022 02:53:54.150      481.46670145    
18 May 2022 04:24:32.904    18 May 2022 04:29:33.942      301.03773361    
18 May 2022 17:56:58.861    18 May 2022 18:01:14.961      256.09988454    
18 May 2022 19:32:05.582    18 May 2022 19:40:20.005      494.42259672    
18 May 2022 21:11:32.298    18 May 2022 21:16:59.174      326.87663395    
19 May 2022 00:30:14.457    19 May 2022 00:34:12.458      238.00043659    
19 May 2022 02:06:35.985    19 May 2022 02:14:25.336      469.35128833    
19 May 2022 03:44:39.178    19 May 2022 03:50:58.979      379.80061577    
19 May 2022 18:52:43.955    19 May 2022 19:00:59.024      495.06934594    
19 May 2022 20:31:39.186    19 May 2022 20:37:50.347      371.16100669    
19 May 2022 23:51:11.842    19 May 2022 23:54:06.336      174.49365504    
20 May 2022 01:27:20.421    20 May 2022 01:34:50.516      450.09509468    
20 May 2022 03:04:57.839    20 May 2022 03:12:07.515      429.67667860    
20 May 2022 18:13:27.619    20 May 2022 18:21:33.824      486.20526331    
20 May 2022 19:51:49.821    20 May 2022 19:58:38.980      409.15882444    
20 May 2022 23:12:18.384    20 May 2022 23:13:47.053      88.668744941    
21 May 2022 00:48:05.726    21 May 2022 00:55:09.903      424.17699258    
21 May 2022 02:25:23.460    21 May 2022 02:33:04.835      461.37513245    
21 May 2022 17:34:17.408    21 May 2022 17:42:03.459      466.05119213    
21 May 2022 19:12:04.258    21 May 2022 19:19:25.123      440.86435901    
21 May 2022 20:53:13.011    21 May 2022 20:55:22.811      129.80012923    
22 May 2022 00:08:51.726    22 May 2022 00:15:23.658      391.93263198    
22 May 2022 01:45:53.591    22 May 2022 01:53:53.242      479.65167974    
22 May 2022 16:55:14.718    22 May 2022 17:02:26.412      431.69416225    
22 May 2022 18:32:22.632    22 May 2022 18:40:08.690      466.05817415    
22 May 2022 20:12:57.309    22 May 2022 20:16:22.614      205.30523008    
22 May 2022 23:29:38.339    22 May 2022 23:35:31.896      353.55727529    
23 May 2022 01:06:26.854    23 May 2022 01:14:33.976      487.12168612    
23 May 2022 02:47:08.761    23 May 2022 02:47:51.246      42.484299524    
23 May 2022 16:16:22.188    23 May 2022 16:22:39.915      377.72754187    
23 May 2022 17:52:45.131    23 May 2022 18:00:49.495      484.36341804    
23 May 2022 19:32:49.251    23 May 2022 19:37:15.239      265.98832259    
23 May 2022 22:50:25.615    23 May 2022 22:55:34.662      309.04686368    
24 May 2022 00:27:02.377    24 May 2022 00:35:07.777      485.40030546    
24 May 2022 02:05:55.868    24 May 2022 02:10:29.348      273.48025194    
24 May 2022 15:37:46.125    24 May 2022 15:42:37.529      291.40428656    
24 May 2022 17:13:12.008    24 May 2022 17:21:27.247      495.23943497    
24 May 2022 18:52:45.782    24 May 2022 18:58:04.068      318.28637018    
24 May 2022 22:11:13.837    24 May 2022 22:15:31.832      257.99471370    
24 May 2022 23:47:39.566    24 May 2022 23:55:35.126      475.56069000    
25 May 2022 01:25:51.018    25 May 2022 01:31:55.464      364.44526504    
25 May 2022 14:59:58.640    25 May 2022 15:01:47.012      108.37227636    
25 May 2022 16:33:43.606    25 May 2022 16:42:01.535      497.92957295    
25 May 2022 18:12:46.205    25 May 2022 18:18:50.056      363.85091163    
25 May 2022 21:32:03.868    25 May 2022 21:35:22.775      198.90642496    
25 May 2022 23:08:17.999    25 May 2022 23:15:56.351      458.35245912    
26 May 2022 00:46:01.401    26 May 2022 00:53:02.258      420.85669432    
26 May 2022 15:54:20.421    26 May 2022 16:02:31.773      491.35218709    
26 May 2022 17:32:50.387    26 May 2022 17:39:33.528      403.14082060    
26 May 2022 20:52:58.805    26 May 2022 20:55:04.706      125.90076614    
26 May 2022 22:28:57.376    26 May 2022 22:36:11.693      434.31640430    
27 May 2022 00:06:19.805    27 May 2022 00:13:56.796      456.99060144    
27 May 2022 15:15:03.209    27 May 2022 15:22:57.098      473.88952532    
27 May 2022 16:52:58.384    27 May 2022 17:00:14.553      436.16921876    
27 May 2022 18:34:12.942    27 May 2022 18:36:10.294      117.35259534    
27 May 2022 21:49:37.491    27 May 2022 21:56:21.335      403.84414106    
27 May 2022 23:26:43.270    27 May 2022 23:34:41.894      478.62446933    
28 May 2022 14:35:53.208    28 May 2022 14:43:16.154      442.94645550    
28 May 2022 16:13:10.333    28 May 2022 16:20:53.061      462.72766390    
28 May 2022 17:53:50.400    28 May 2022 17:57:05.587      195.18717681    
28 May 2022 21:10:18.228    28 May 2022 21:16:25.425      367.19741392    
28 May 2022 22:47:10.206    28 May 2022 22:55:19.005      488.79956156    
29 May 2022 13:56:52.684    29 May 2022 14:03:26.553      393.86860267    
29 May 2022 15:33:26.428    29 May 2022 15:41:28.881      482.45329399    
29 May 2022 17:13:36.122    29 May 2022 17:17:53.069      256.94739773    
29 May 2022 20:30:59.580    29 May 2022 20:36:24.058      324.47805293    
29 May 2022 22:07:39.634    29 May 2022 22:15:48.980      489.34668348    
29 May 2022 23:46:46.200    29 May 2022 23:50:53.214      247.01357482    
30 May 2022 13:18:06.686    30 May 2022 13:23:23.119      316.43323323    
30 May 2022 14:53:46.916    30 May 2022 15:02:01.744      494.82853742    
30 May 2022 16:33:26.517    30 May 2022 16:38:36.696      310.17849353    
30 May 2022 19:51:41.721    30 May 2022 19:56:17.219      275.49788301    
30 May 2022 21:28:10.900    30 May 2022 21:36:12.363      481.46263948    
30 May 2022 23:06:29.973    30 May 2022 23:12:20.740      350.76653844    
31 May 2022 12:39:54.045    31 May 2022 12:42:46.901      172.85570910    
31 May 2022 14:14:12.130    31 May 2022 14:22:31.265      499.13537510    
31 May 2022 15:53:20.828    31 May 2022 15:59:17.515      356.68719287    
31 May 2022 19:12:25.219    31 May 2022 19:16:04.573      219.35375577    
31 May 2022 20:48:43.547    31 May 2022 20:56:29.523      465.97519614    
31 May 2022 22:26:32.317    31 May 2022 22:33:25.668      413.35118094    
01 Jun 2022 13:34:42.540    01 Jun 2022 13:42:56.897      494.35711603    
01 Jun 2022 15:13:18.920    01 Jun 2022 15:19:55.882      396.96229723    
01 Jun 2022 18:33:11.901    01 Jun 2022 18:35:44.605      152.70370332    
01 Jun 2022 20:09:17.249    01 Jun 2022 20:16:40.729      443.48000628    
01 Jun 2022 21:46:43.800    01 Jun 2022 21:54:17.297      453.49701183    
02 Jun 2022 12:55:18.850    02 Jun 2022 13:03:17.840      478.98993928    
02 Jun 2022 14:33:20.861    02 Jun 2022 14:40:31.883      431.02120963    
02 Jun 2022 16:14:40.516    02 Jun 2022 16:16:25.646      105.12930995    
02 Jun 2022 17:54:13.446    02 Jun 2022 17:55:06.027      52.581113786    
02 Jun 2022 19:29:51.778    02 Jun 2022 19:36:46.192      414.41366763    
02 Jun 2022 21:07:00.915    02 Jun 2022 21:14:58.996      478.08076503    
03 Jun 2022 12:16:02.195    03 Jun 2022 12:23:32.853      450.65763375    
03 Jun 2022 13:53:26.802    03 Jun 2022 14:01:05.458      458.65672409    
03 Jun 2022 15:34:11.399    03 Jun 2022 15:37:16.686      185.28682220    
03 Jun 2022 18:50:26.997    03 Jun 2022 18:56:46.082      379.08484975    
03 Jun 2022 20:27:21.862    03 Jun 2022 20:35:32.436      490.57415589    
04 Jun 2022 11:36:54.597    04 Jun 2022 11:43:39.797      405.20008542    
04 Jun 2022 13:13:36.939    04 Jun 2022 13:21:36.451      479.51157948    
04 Jun 2022 14:53:51.297    04 Jun 2022 14:57:59.232      247.93579497    
04 Jun 2022 18:11:02.866    04 Jun 2022 18:16:40.527      337.66155615    
04 Jun 2022 19:47:45.559    04 Jun 2022 19:55:58.578      493.01829434    
04 Jun 2022 21:27:04.723    04 Jun 2022 21:30:46.574      221.85047296    
05 Jun 2022 10:58:00.355    05 Jun 2022 11:03:34.254      333.89935065    
05 Jun 2022 12:33:51.522    05 Jun 2022 12:42:04.605      493.08212578    
05 Jun 2022 14:13:35.985    05 Jun 2022 14:18:37.900      301.91439791    
05 Jun 2022 17:31:39.495    05 Jun 2022 17:36:29.575      290.08012576    
05 Jun 2022 19:08:11.297    05 Jun 2022 19:16:18.024      486.72730961    
05 Jun 2022 20:46:37.163    05 Jun 2022 20:52:15.903      338.74001320    
06 Jun 2022 10:19:33.269    06 Jun 2022 10:23:02.304      209.03477320    
06 Jun 2022 11:54:10.876    06 Jun 2022 12:02:29.553      498.67676860    
06 Jun 2022 13:33:24.643    06 Jun 2022 13:39:13.828      349.18525993    
06 Jun 2022 16:52:17.299    06 Jun 2022 16:56:13.044      235.74488154    
06 Jun 2022 18:28:38.582    06 Jun 2022 18:36:31.183      472.60067757    
06 Jun 2022 20:06:31.984    06 Jun 2022 20:13:18.946      406.96138804    
07 Jun 2022 11:14:35.450    07 Jun 2022 11:22:50.774      495.32491498    
07 Jun 2022 12:53:17.132    07 Jun 2022 12:59:47.396      390.26393064    
07 Jun 2022 16:12:57.552    07 Jun 2022 16:15:49.970      172.41744515    
07 Jun 2022 17:49:07.064    07 Jun 2022 17:56:38.345      451.28140356    
07 Jun 2022 19:26:37.075    07 Jun 2022 19:34:07.682      450.60696703    
08 Jun 2022 10:35:05.908    08 Jun 2022 10:43:07.511      481.60365473    
08 Jun 2022 12:13:13.526    08 Jun 2022 12:20:18.696      425.16991713    
08 Jun 2022 13:54:38.706    08 Jun 2022 13:56:09.341      90.634747781    
08 Jun 2022 15:33:46.017    08 Jun 2022 15:35:14.979      88.961231348    
08 Jun 2022 17:09:36.497    08 Jun 2022 17:16:39.737      423.24056039    
08 Jun 2022 18:46:48.363    08 Jun 2022 18:54:46.046      477.68374759    
09 Jun 2022 09:55:43.308    09 Jun 2022 10:03:18.597      455.28931754    
09 Jun 2022 11:33:13.981    09 Jun 2022 11:40:47.677      453.69526815    
09 Jun 2022 13:14:02.773    09 Jun 2022 13:16:57.217      174.44371943    
09 Jun 2022 16:30:06.723    09 Jun 2022 16:36:35.539      388.81664984    
09 Jun 2022 18:07:03.837    09 Jun 2022 18:15:15.918      492.08077490    
10 Jun 2022 09:16:29.503    10 Jun 2022 09:23:22.057      412.55400726    
10 Jun 2022 10:53:18.696    10 Jun 2022 11:01:14.181      475.48554204    
10 Jun 2022 12:33:37.169    10 Jun 2022 12:37:35.379      238.21035046    
10 Jun 2022 15:50:37.681    10 Jun 2022 15:56:25.894      348.21238595    
10 Jun 2022 17:27:22.316    10 Jun 2022 17:35:38.352      496.03622361    
10 Jun 2022 19:06:53.505    10 Jun 2022 19:10:11.212      197.70741655    
11 Jun 2022 08:37:28.317    11 Jun 2022 08:43:13.942      345.62519513    
11 Jun 2022 10:13:27.914    11 Jun 2022 10:21:37.960      490.04638359    
11 Jun 2022 11:53:16.565    11 Jun 2022 11:58:09.558      292.99308081    
11 Jun 2022 15:11:09.448    11 Jun 2022 15:16:10.870      301.42235546    
11 Jun 2022 16:47:43.031    11 Jun 2022 16:55:54.002      490.97103785    
11 Jun 2022 18:26:14.799    11 Jun 2022 18:31:42.808      328.00928849    
12 Jun 2022 07:58:51.000    12 Jun 2022 08:02:42.868      231.86834132    
12 Jun 2022 09:33:41.947    12 Jun 2022 09:41:58.652      496.70473550    
12 Jun 2022 11:13:00.011    12 Jun 2022 11:18:41.029      341.01720488    
12 Jun 2022 14:31:42.361    12 Jun 2022 14:35:50.348      247.98760928    
12 Jun 2022 16:08:05.453    12 Jun 2022 16:16:03.300      477.84753637    
12 Jun 2022 17:46:02.720    12 Jun 2022 17:52:43.983      401.26283529    
13 Jun 2022 08:54:01.225    13 Jun 2022 09:02:15.748      494.52254180    
13 Jun 2022 10:32:47.344    13 Jun 2022 10:39:10.201      382.85709720    
13 Jun 2022 13:52:17.457    13 Jun 2022 13:55:23.585      186.12860815    
13 Jun 2022 15:28:29.204    13 Jun 2022 15:36:06.551      457.34749355    
13 Jun 2022 17:06:01.988    13 Jun 2022 17:13:29.871      447.88342078    
14 Jun 2022 08:14:26.378    14 Jun 2022 08:22:28.512      482.13357290    
14 Jun 2022 09:52:38.628    14 Jun 2022 09:59:37.175      418.54755596    
14 Jun 2022 11:34:11.573    14 Jun 2022 11:35:21.790      70.216692856    
14 Jun 2022 13:12:58.873    14 Jun 2022 13:14:46.819      107.94528555    
14 Jun 2022 14:48:54.018    14 Jun 2022 14:56:03.984      429.96651622    
14 Jun 2022 16:26:07.962    14 Jun 2022 16:34:04.966      477.00357658    
15 Jun 2022 07:34:58.404    15 Jun 2022 07:42:35.823      457.41949640    
15 Jun 2022 09:12:34.013    15 Jun 2022 09:20:01.899      447.88535322    
15 Jun 2022 10:53:27.194    15 Jun 2022 10:56:08.871      161.67650814    
15 Jun 2022 14:09:19.720    15 Jun 2022 14:15:55.779      396.05902468    
15 Jun 2022 15:46:18.428    15 Jun 2022 15:54:31.334      492.90562993    
16 Jun 2022 06:55:39.035    16 Jun 2022 07:02:35.812      416.77646474    
16 Jun 2022 08:32:33.694    16 Jun 2022 08:40:24.214      470.51991317    
16 Jun 2022 10:12:56.061    16 Jun 2022 10:16:43.358      227.29691702    
16 Jun 2022 13:29:46.235    16 Jun 2022 13:35:42.075      355.83920223    
16 Jun 2022 15:06:32.105    16 Jun 2022 15:14:50.113      498.00802065    
16 Jun 2022 16:46:14.841    16 Jun 2022 16:49:08.726      173.88512887    
17 Jun 2022 06:16:31.782    17 Jun 2022 06:22:24.824      353.04182345    
17 Jun 2022 07:52:37.903    17 Jun 2022 08:00:43.867      485.96385350    
17 Jun 2022 09:32:30.311    17 Jun 2022 09:37:13.518      283.20698265    
17 Jun 2022 12:50:13.622    17 Jun 2022 12:55:22.936      309.31411951    
17 Jun 2022 14:26:48.169    17 Jun 2022 14:35:01.996      493.82717995    
17 Jun 2022 16:05:24.952    17 Jun 2022 16:10:43.033      318.08032687    
18 Jun 2022 05:37:46.442    18 Jun 2022 05:41:52.913      246.47084837    
18 Jun 2022 07:12:46.943    18 Jun 2022 07:21:00.500      493.55697641    
18 Jun 2022 08:52:08.731    18 Jun 2022 08:57:40.887      332.15616143    
18 Jun 2022 12:10:42.195    18 Jun 2022 12:14:58.248      256.05299753    
18 Jun 2022 13:47:06.054    18 Jun 2022 13:55:07.434      481.37990884    
18 Jun 2022 15:25:06.428    18 Jun 2022 15:31:42.214      395.78565939    
19 Jun 2022 06:33:01.223    19 Jun 2022 06:41:13.607      492.38358205    
19 Jun 2022 08:11:51.087    19 Jun 2022 08:18:05.938      374.85156956    
19 Jun 2022 11:31:12.928    19 Jun 2022 11:34:27.315      194.38693912    
19 Jun 2022 13:07:25.361    19 Jun 2022 13:15:06.740      461.37938396    
19 Jun 2022 14:45:00.241    19 Jun 2022 14:52:25.138      444.89672907    
20 Jun 2022 05:53:21.349    20 Jun 2022 06:01:22.465      481.11624853    
20 Jun 2022 07:31:37.422    20 Jun 2022 07:38:28.795      411.37327004    
20 Jun 2022 09:13:25.705    20 Jun 2022 09:13:59.162      33.456658199    
20 Jun 2022 10:51:49.538    20 Jun 2022 10:53:46.778      117.24014813    
20 Jun 2022 12:27:45.807    20 Jun 2022 12:35:00.144      434.33756285    
20 Jun 2022 14:05:01.191    20 Jun 2022 14:12:56.846      475.65404753    
21 Jun 2022 05:13:48.277    21 Jun 2022 05:21:25.985      457.70808931    
21 Jun 2022 06:51:27.875    21 Jun 2022 06:58:49.412      441.53695204    
21 Jun 2022 08:32:26.048    21 Jun 2022 08:34:52.555      146.50668183    
21 Jun 2022 11:48:07.209    21 Jun 2022 11:54:47.822      400.61358941    
21 Jun 2022 13:25:06.875    21 Jun 2022 13:33:19.582      492.70731860    
22 Jun 2022 04:34:23.660    22 Jun 2022 04:41:22.365      418.70466729    
22 Jun 2022 06:11:22.632    22 Jun 2022 06:19:07.635      465.00251766    
22 Jun 2022 07:51:48.862    22 Jun 2022 07:55:24.100      215.23781017    
22 Jun 2022 11:08:29.488    22 Jun 2022 11:14:29.903      360.41506788    
22 Jun 2022 12:45:15.925    22 Jun 2022 12:53:34.563      498.63856818    
22 Jun 2022 14:25:09.957    22 Jun 2022 14:27:39.508      149.55071015    
23 Jun 2022 03:55:10.807    23 Jun 2022 04:01:08.144      357.33783119    
23 Jun 2022 05:31:21.922    23 Jun 2022 05:39:23.213      481.29133967    
23 Jun 2022 07:11:17.775    23 Jun 2022 07:15:50.577      272.80241634    
23 Jun 2022 10:28:52.708    23 Jun 2022 10:34:06.436      313.72780477    
23 Jun 2022 12:05:27.471    23 Jun 2022 12:13:42.520      495.04882987    
23 Jun 2022 13:44:08.410    23 Jun 2022 13:49:16.986      308.57527727    
24 Jun 2022 03:16:18.648    24 Jun 2022 03:20:34.239      255.59053587    
24 Jun 2022 04:51:26.038    24 Jun 2022 04:59:35.792      489.75375794    
24 Jun 2022 06:30:51.068    24 Jun 2022 06:36:14.035      322.96724432    
24 Jun 2022 09:49:17.205    24 Jun 2022 09:53:37.279      260.07333695    
24 Jun 2022 11:25:40.923    24 Jun 2022 11:33:43.925      483.00176529    
24 Jun 2022 13:03:43.671    24 Jun 2022 13:10:13.880      390.20859436    
25 Jun 2022 04:11:35.383    25 Jun 2022 04:19:44.873      489.48957680    
25 Jun 2022 05:50:28.385    25 Jun 2022 05:56:35.079      366.69458271    
25 Jun 2022 09:09:44.007    25 Jun 2022 09:13:01.675      197.66799342    
25 Jun 2022 10:45:55.865    25 Jun 2022 10:53:39.101      463.23603377    
25 Jun 2022 12:23:32.193    25 Jun 2022 12:30:53.577      441.38318917    
26 Jun 2022 03:31:50.550    26 Jun 2022 03:39:49.747      479.19682780    
26 Jun 2022 05:10:09.725    26 Jun 2022 05:16:53.881      404.15603713    
26 Jun 2022 08:30:17.035    26 Jun 2022 08:32:16.059      119.02403097    
26 Jun 2022 10:06:12.007    26 Jun 2022 10:13:28.282      436.27447147    
26 Jun 2022 11:43:28.233    26 Jun 2022 11:51:21.659      473.42630049    


Number of events : 339


Observer: Hawaii
Start Time (UTC)            Stop Time (UTC)               Duration (s)         
27 Apr 2022 12:28:26.513    27 Apr 2022 12:36:18.350      471.83744997    
28 Apr 2022 01:54:42.753    28 Apr 2022 02:02:37.127      474.37399670    
28 Apr 2022 03:34:00.338    28 Apr 2022 03:38:38.176      277.83864745    
28 Apr 2022 10:14:53.022    28 Apr 2022 10:16:17.114      84.092524101    
28 Apr 2022 11:49:21.038    28 Apr 2022 11:57:27.042      486.00360980    
29 Apr 2022 01:16:00.739    29 Apr 2022 01:23:22.938      442.19881855    
29 Apr 2022 02:54:10.174    29 Apr 2022 03:00:15.084      364.90964406    
29 Apr 2022 11:10:21.098    29 Apr 2022 11:18:26.010      484.91223383    
30 Apr 2022 00:37:30.089    30 Apr 2022 00:43:56.847      386.75887302    
30 Apr 2022 02:14:35.732    30 Apr 2022 02:21:37.718      421.98666455    
30 Apr 2022 10:31:26.208    30 Apr 2022 10:39:15.427      469.21929284    
30 Apr 2022 12:10:36.157    30 Apr 2022 12:14:34.730      238.57261527    
30 Apr 2022 23:59:17.963    01 May 2022 00:04:11.410      293.44704385    
01 May 2022 01:35:11.726    01 May 2022 01:42:51.055      459.32913859    
01 May 2022 09:52:36.584    01 May 2022 09:59:54.758      438.17481729    
01 May 2022 11:30:37.927    01 May 2022 11:36:34.759      356.83273373    
01 May 2022 23:22:14.027    01 May 2022 23:23:16.673      62.646198249    
02 May 2022 00:55:56.144    02 May 2022 01:03:56.798      480.65392611    
02 May 2022 09:13:53.409    02 May 2022 09:20:22.497      389.08803208    
02 May 2022 10:51:03.601    02 May 2022 10:58:07.718      424.11701032    
03 May 2022 00:16:48.201    03 May 2022 00:24:55.430      487.22893163    
03 May 2022 08:35:20.031    03 May 2022 08:40:34.970      314.93890827    
03 May 2022 10:11:41.112    03 May 2022 10:19:25.386      464.27458960    
03 May 2022 23:37:47.869    03 May 2022 23:45:46.686      478.81724389    
04 May 2022 01:17:38.390    04 May 2022 01:21:20.918      222.52815266    
04 May 2022 07:57:08.805    04 May 2022 08:00:19.496      190.69066850    
04 May 2022 09:32:26.462    04 May 2022 09:40:31.473      485.01051458    
04 May 2022 22:58:55.883    04 May 2022 23:06:29.546      453.66273620    
05 May 2022 00:37:30.520    05 May 2022 00:43:01.705      331.18572721    
05 May 2022 08:53:17.861    05 May 2022 09:01:27.477      489.61590885    
05 May 2022 22:20:14.200    05 May 2022 22:27:01.773      407.57281696    
05 May 2022 23:57:43.980    06 May 2022 00:04:22.856      398.87581374    
06 May 2022 08:14:14.535    06 May 2022 08:22:13.873      479.33741778    
06 May 2022 09:54:03.808    06 May 2022 09:56:49.088      165.28055028    
06 May 2022 21:41:47.750    06 May 2022 21:47:18.158      330.40860377    
06 May 2022 23:18:09.629    06 May 2022 23:25:33.209      443.57936358    
07 May 2022 07:35:16.433    07 May 2022 07:42:50.409      453.97555669    
07 May 2022 09:13:39.114    07 May 2022 09:19:03.646      324.53171262    
07 May 2022 21:03:55.535    07 May 2022 21:06:59.425      183.89044041    
07 May 2022 22:38:44.504    07 May 2022 22:46:35.424      470.91942695    
08 May 2022 06:56:24.326    08 May 2022 07:03:16.002      411.67576443    
08 May 2022 08:33:51.909    08 May 2022 08:40:37.758      405.84843862    
08 May 2022 21:59:27.413    08 May 2022 22:07:30.395      482.98171222    
09 May 2022 06:17:40.528    09 May 2022 06:23:28.019      347.49042748    
09 May 2022 07:54:19.414    09 May 2022 08:01:53.920      454.50633012    
09 May 2022 21:20:18.059    09 May 2022 21:28:18.125      480.06658269    
09 May 2022 23:00:48.160    09 May 2022 23:03:18.445      150.28537475    
10 May 2022 05:39:12.234    10 May 2022 05:43:18.944      246.70985582    
10 May 2022 07:14:55.980    10 May 2022 07:22:57.496      481.51594618    
10 May 2022 20:41:16.892    10 May 2022 20:48:57.876      460.98373476    
10 May 2022 22:20:16.139    10 May 2022 22:25:10.277      294.13753812    
11 May 2022 06:35:39.236    11 May 2022 06:43:50.569      491.33295439    
11 May 2022 20:02:25.389    11 May 2022 20:09:27.885      422.49603616    
11 May 2022 21:40:17.013    11 May 2022 21:46:31.195      374.18254438    
12 May 2022 05:56:28.103    12 May 2022 06:04:33.918      485.81549129    
12 May 2022 19:23:47.199    12 May 2022 19:29:44.220      357.02132278    
12 May 2022 21:00:32.528    12 May 2022 21:07:39.143      426.61466952    
13 May 2022 05:17:22.289    13 May 2022 05:25:07.530      465.24059629    
13 May 2022 06:56:06.633    13 May 2022 07:00:54.331      287.69806169    
13 May 2022 18:45:33.770    13 May 2022 18:49:35.151      241.38116377    
13 May 2022 20:20:58.282    13 May 2022 20:28:38.210      459.92755304    
14 May 2022 04:38:22.264    14 May 2022 04:45:30.615      428.35159589    
14 May 2022 06:16:05.799    14 May 2022 06:22:31.059      385.25958649    
14 May 2022 19:41:32.565    14 May 2022 19:49:29.792      477.22615415    
15 May 2022 03:59:29.720    15 May 2022 04:05:41.155      371.43506632    
15 May 2022 05:36:23.544    15 May 2022 05:43:46.179      442.63439882    
15 May 2022 19:02:14.790    15 May 2022 19:10:14.165      479.37489494    
16 May 2022 03:20:49.585    16 May 2022 03:25:33.889      284.30354053    
16 May 2022 04:56:51.780    16 May 2022 05:04:47.482      475.70250771    
16 May 2022 18:23:05.152    16 May 2022 18:30:50.831      465.67922265    
16 May 2022 20:02:29.158    16 May 2022 20:06:42.993      253.83468233    
17 May 2022 02:42:47.775    17 May 2022 02:44:42.566      114.79077057    
17 May 2022 04:17:27.414    17 May 2022 04:25:37.759      490.34463874    
17 May 2022 17:44:04.759    17 May 2022 17:51:18.376      433.61750697    
17 May 2022 19:22:16.555    17 May 2022 19:28:05.328      348.77334869    
18 May 2022 03:38:09.034    18 May 2022 03:46:18.110      489.07610150    
18 May 2022 17:05:16.428    18 May 2022 17:11:33.684      377.25643512    
18 May 2022 18:42:22.061    18 May 2022 18:49:11.439      409.37755377    
19 May 2022 02:58:56.121    19 May 2022 03:06:48.735      472.61381369    
19 May 2022 04:38:03.494    19 May 2022 04:42:08.261      244.76724132    
19 May 2022 16:26:48.088    19 May 2022 16:31:28.526      280.43839886    
19 May 2022 18:02:39.016    19 May 2022 18:10:07.654      448.63806866    
20 May 2022 02:19:48.908    20 May 2022 02:27:09.071      440.16329662    
20 May 2022 03:57:47.440    20 May 2022 04:03:49.737      362.29648496    
20 May 2022 17:23:05.055    20 May 2022 17:30:56.007      470.95259477    
21 May 2022 01:40:48.676    21 May 2022 01:47:17.496      388.81988452    
21 May 2022 03:17:55.455    21 May 2022 03:25:04.258      428.80330053    
21 May 2022 16:43:39.275    21 May 2022 16:51:37.073      477.79810148    
22 May 2022 01:01:59.131    22 May 2022 01:07:09.957      310.82578873    
22 May 2022 02:38:15.619    22 May 2022 02:46:03.431      467.81211033    
22 May 2022 16:04:21.634    22 May 2022 16:12:10.572      468.93706620    
22 May 2022 17:44:11.256    22 May 2022 17:47:41.307      210.05161445    
23 May 2022 00:23:34.987    23 May 2022 00:26:31.392      176.40533592    
23 May 2022 01:58:43.945    23 May 2022 02:06:50.932      486.98709434    
23 May 2022 15:25:12.952    23 May 2022 15:32:35.367      442.41513640    
23 May 2022 17:03:43.492    23 May 2022 17:09:07.124      323.63165746    
24 May 2022 01:19:18.650    24 May 2022 01:27:28.220      489.57046175    
24 May 2022 14:46:15.465    24 May 2022 14:52:48.912      393.44715870    
24 May 2022 16:23:38.934    24 May 2022 16:30:11.764      392.82982053    
25 May 2022 00:39:58.998    25 May 2022 00:47:55.705      476.70692070    
25 May 2022 02:19:32.540    25 May 2022 02:22:45.237      192.69655212    
25 May 2022 14:07:35.104    25 May 2022 14:12:44.963      309.85879381    
25 May 2022 15:43:47.260    25 May 2022 15:51:05.209      437.94935489    
26 May 2022 00:00:45.028    26 May 2022 00:08:13.013      447.98504025    
26 May 2022 01:38:57.927    26 May 2022 01:44:35.016      337.08874821    
26 May 2022 13:29:40.261    26 May 2022 13:31:54.820      134.55914429    
26 May 2022 15:04:05.286    26 May 2022 15:11:50.304      465.01767706    
26 May 2022 23:21:37.736    26 May 2022 23:28:18.808      401.07232259    
27 May 2022 00:58:55.985    27 May 2022 01:05:49.339      413.35351886    
27 May 2022 14:24:31.775    27 May 2022 14:32:27.957      476.18160797    
27 May 2022 22:42:40.089    27 May 2022 22:48:09.772      329.68246891    
28 May 2022 00:19:08.176    28 May 2022 00:26:46.433      458.25694974    
28 May 2022 13:45:06.465    28 May 2022 13:52:58.103      471.63771194    
28 May 2022 15:25:23.445    28 May 2022 15:28:05.329      161.88366887    
28 May 2022 22:04:02.463    28 May 2022 22:07:35.186      212.72302894    
28 May 2022 23:39:29.372    28 May 2022 23:47:31.112      481.73983761    
29 May 2022 13:05:49.942    29 May 2022 13:13:19.842      449.90011831    
29 May 2022 14:44:37.736    29 May 2022 14:49:37.620      299.88439326    
29 May 2022 22:59:57.385    29 May 2022 23:08:05.249      487.86412702    
30 May 2022 12:26:44.023    30 May 2022 12:33:31.049      407.02555926    
30 May 2022 14:04:23.109    30 May 2022 14:10:41.010      377.90056039    
30 May 2022 22:20:31.266    30 May 2022 22:28:29.473      478.20630184    
31 May 2022 00:00:38.962    31 May 2022 00:02:41.418      122.45607551    
31 May 2022 11:47:53.385    31 May 2022 11:53:26.740      333.35424196    
31 May 2022 13:24:23.049    31 May 2022 13:31:31.679      428.63083837    
31 May 2022 21:41:10.890    31 May 2022 21:48:43.581      452.69118237    
31 May 2022 23:19:37.754    31 May 2022 23:24:47.780      310.02604484    
01 Jun 2022 11:09:35.465    01 Jun 2022 11:12:49.176      193.71137638    
01 Jun 2022 12:44:33.383    01 Jun 2022 12:52:13.471      460.08800153    
01 Jun 2022 21:01:57.039    01 Jun 2022 21:08:46.458      409.41881599    
01 Jun 2022 22:39:25.592    01 Jun 2022 22:46:02.452      396.86060012    
02 Jun 2022 12:04:52.517    02 Jun 2022 12:12:47.650      475.13323368    
02 Jun 2022 20:22:52.200    02 Jun 2022 20:28:35.275      343.07583917    
02 Jun 2022 21:59:29.980    02 Jun 2022 22:06:57.622      447.64185254    
03 Jun 2022 11:25:19.988    03 Jun 2022 11:33:14.362      474.37491420    
03 Jun 2022 13:06:08.345    03 Jun 2022 13:07:53.726      105.38116592    
03 Jun 2022 19:44:04.482    03 Jun 2022 19:48:01.582      237.09982195    
03 Jun 2022 21:19:44.330    03 Jun 2022 21:27:39.574      475.24419101    
04 Jun 2022 10:45:56.184    04 Jun 2022 10:53:32.906      456.72126166    
04 Jun 2022 12:24:59.525    04 Jun 2022 12:29:38.143      278.61736261    
04 Jun 2022 20:40:05.991    04 Jun 2022 20:48:10.649      484.65735189    
05 Jun 2022 10:06:42.607    05 Jun 2022 10:13:41.474      418.86657549    
05 Jun 2022 11:44:35.168    05 Jun 2022 11:50:40.481      365.31278417    
05 Jun 2022 20:00:33.795    05 Jun 2022 20:08:31.697      477.90215726    
06 Jun 2022 09:27:43.087    06 Jun 2022 09:33:35.933      352.84528176    
06 Jun 2022 11:04:27.244    06 Jun 2022 11:11:28.439      421.19514394    
06 Jun 2022 19:21:07.462    06 Jun 2022 19:28:42.674      455.21240247    
06 Jun 2022 20:59:48.053    06 Jun 2022 21:04:29.778      281.72578878    
07 Jun 2022 08:49:10.075    07 Jun 2022 08:53:03.529      233.45394018    
07 Jun 2022 10:24:30.443    07 Jun 2022 10:32:06.996      456.55250628    
07 Jun 2022 18:41:47.601    07 Jun 2022 18:48:42.637      415.03660544    
07 Jun 2022 20:19:25.503    07 Jun 2022 20:25:45.585      380.08169451    
08 Jun 2022 09:44:42.809    08 Jun 2022 09:52:37.779      474.96985258    
08 Jun 2022 18:02:36.349    08 Jun 2022 18:08:29.107      352.75767222    
08 Jun 2022 19:39:22.430    08 Jun 2022 19:46:39.136      436.70551640    
09 Jun 2022 09:05:03.683    09 Jun 2022 09:13:01.119      477.43586370    
09 Jun 2022 17:23:40.430    09 Jun 2022 17:27:55.009      254.57894598    
09 Jun 2022 18:59:30.353    09 Jun 2022 19:07:18.600      468.24708993    
10 Jun 2022 08:25:33.287    10 Jun 2022 08:33:16.476      463.18927186    
10 Jun 2022 10:04:50.219    10 Jun 2022 10:09:10.859      260.64067822    
10 Jun 2022 18:19:46.099    10 Jun 2022 18:27:46.832      480.73313290    
11 Jun 2022 07:46:12.870    11 Jun 2022 07:53:22.283      429.41348538    
11 Jun 2022 09:24:16.803    11 Jun 2022 09:30:12.223      355.42031620    
11 Jun 2022 17:40:08.267    11 Jun 2022 17:48:04.907      476.64007838    
12 Jun 2022 07:07:05.665    12 Jun 2022 07:13:14.992      369.32684815    
12 Jun 2022 08:44:01.711    12 Jun 2022 08:50:57.508      415.79716351    
12 Jun 2022 17:00:36.428    12 Jun 2022 17:08:12.919      456.49082763    
12 Jun 2022 18:39:30.571    12 Jun 2022 18:43:43.577      253.00649016    
13 Jun 2022 06:28:21.334    13 Jun 2022 06:32:44.626      263.29228071    
13 Jun 2022 08:03:58.423    13 Jun 2022 08:11:32.886      454.46367137    
13 Jun 2022 16:21:11.037    13 Jun 2022 16:28:10.064      419.02707458    
13 Jun 2022 17:58:57.442    13 Jun 2022 18:05:01.343      363.90124862    
14 Jun 2022 07:24:04.632    14 Jun 2022 07:32:00.320      475.68798292    
14 Jun 2022 15:41:53.956    14 Jun 2022 15:47:54.120      360.16358753    
14 Jun 2022 17:18:47.249    14 Jun 2022 17:25:53.511      426.26168537    
15 Jun 2022 06:44:19.507    15 Jun 2022 06:52:20.299      480.79190596    
15 Jun 2022 15:02:50.958    15 Jun 2022 15:07:18.946      267.98815804    
15 Jun 2022 16:38:49.103    15 Jun 2022 16:46:30.638      461.53495575    
16 Jun 2022 06:04:43.123    16 Jun 2022 06:12:32.406      469.28252707    
16 Jun 2022 07:44:11.456    16 Jun 2022 07:48:17.802      246.34636547    
16 Jun 2022 14:24:45.407    16 Jun 2022 14:25:40.809      55.402479996    
16 Jun 2022 15:58:59.259    16 Jun 2022 16:06:56.136      476.87632766    
17 Jun 2022 05:25:16.537    17 Jun 2022 05:32:35.250      438.71281038    
17 Jun 2022 07:03:29.748    17 Jun 2022 07:09:17.938      348.18905953    
17 Jun 2022 15:19:16.078    17 Jun 2022 15:27:11.299      475.22054210    
18 Jun 2022 04:46:02.557    18 Jun 2022 04:52:25.690      383.13252444    
18 Jun 2022 06:23:08.101    18 Jun 2022 06:30:00.367      412.26599113    
18 Jun 2022 14:39:38.986    18 Jun 2022 14:47:16.347      457.36097888    
18 Jun 2022 16:18:46.294    18 Jun 2022 16:22:31.406      225.11183156    
19 Jun 2022 04:07:09.149    19 Jun 2022 04:11:55.426      286.27702422    
19 Jun 2022 05:42:58.827    19 Jun 2022 05:50:32.414      453.58722929    
19 Jun 2022 14:00:08.302    19 Jun 2022 14:07:10.594      422.29204254    
19 Jun 2022 15:38:02.288    19 Jun 2022 15:43:51.644      349.35647612    
20 Jun 2022 05:02:59.313    20 Jun 2022 05:10:56.331      477.01803757    
20 Jun 2022 13:20:45.669    20 Jun 2022 13:26:52.022      366.35312377    
20 Jun 2022 14:57:45.179    20 Jun 2022 15:04:42.346      417.16729633    
21 Jun 2022 04:23:08.583    21 Jun 2022 04:31:12.738      484.15482338    
21 Jun 2022 12:41:36.161    21 Jun 2022 12:46:15.174      279.01291593    
21 Jun 2022 14:17:41.132    21 Jun 2022 14:25:17.003      455.87105819    
22 Jun 2022 03:43:26.603    22 Jun 2022 03:51:21.316      474.71228822    
22 Jun 2022 05:23:03.935    22 Jun 2022 05:26:59.699      235.76422927    
22 Jun 2022 12:03:08.739    22 Jun 2022 12:04:50.705      101.96545038    
22 Jun 2022 13:37:45.812    22 Jun 2022 13:45:39.605      473.79296359    
23 Jun 2022 03:03:54.290    23 Jun 2022 03:11:20.802      446.51117949    
23 Jun 2022 04:42:14.660    23 Jun 2022 04:47:57.966      343.30604626    
23 Jun 2022 12:57:57.354    23 Jun 2022 13:05:51.664      474.30978304    
24 Jun 2022 02:24:34.165    24 Jun 2022 02:31:08.333      394.16760087    
24 Jun 2022 04:01:46.908    24 Jun 2022 04:08:37.122      410.21337766    
24 Jun 2022 12:18:15.056    24 Jun 2022 12:25:53.517      458.46064602    
24 Jun 2022 13:57:34.505    24 Jun 2022 14:00:54.461      199.95575416    
25 Jun 2022 01:45:33.153    25 Jun 2022 01:50:36.645      303.49175495    
