GMAT/Constellation/Contact/ContactLocator16.txt

Target: HSEYE16

Observer: Bahrain
Start Time (UTC)            Stop Time (UTC)               Duration (s)         
27 Apr 2022 13:24:48.344    27 Apr 2022 13:31:41.771      413.42746768    
28 Apr 2022 02:53:08.306    28 Apr 2022 03:00:17.451      429.14520769    
28 Apr 2022 04:30:48.198    28 Apr 2022 04:37:29.393      401.19494470    
28 Apr 2022 11:07:49.830    28 Apr 2022 11:14:11.041      381.21071958    
28 Apr 2022 12:44:42.740    28 Apr 2022 12:52:20.645      457.90532723    
29 Apr 2022 02:13:54.979    29 Apr 2022 02:20:04.350      369.37052876    
29 Apr 2022 03:50:35.904    29 Apr 2022 03:57:57.434      441.53019948    
29 Apr 2022 10:28:29.202    29 Apr 2022 10:33:40.514      311.31202534    
29 Apr 2022 12:04:45.000    29 Apr 2022 12:12:47.221      482.22099101    
30 Apr 2022 01:35:03.192    30 Apr 2022 01:39:29.644      266.45236214    
30 Apr 2022 03:10:31.625    30 Apr 2022 03:18:19.011      467.38585315    
30 Apr 2022 09:49:24.297    30 Apr 2022 09:52:48.012      203.71497738    
30 Apr 2022 11:24:52.916    30 Apr 2022 11:33:03.433      490.51624092    
01 May 2022 02:30:34.709    01 May 2022 02:38:34.521      479.81151121    
01 May 2022 04:12:05.005    01 May 2022 04:12:59.362      54.357622645    
01 May 2022 10:45:05.378    01 May 2022 10:53:10.110      484.73174170    
01 May 2022 12:24:38.445    01 May 2022 12:27:47.436      188.99159648    
02 May 2022 01:50:45.116    02 May 2022 01:58:43.743      478.62735575    
02 May 2022 03:30:27.927    02 May 2022 03:34:33.427      245.49989426    
02 May 2022 10:05:21.919    02 May 2022 10:13:07.443      465.52421444    
02 May 2022 11:43:40.459    02 May 2022 11:49:14.374      333.91418630    
03 May 2022 01:11:03.385    03 May 2022 01:18:45.873      462.48787976    
03 May 2022 02:49:43.170    03 May 2022 02:55:17.407      334.23694469    
03 May 2022 09:25:42.622    03 May 2022 09:32:55.072      432.44989738    
03 May 2022 11:03:14.679    03 May 2022 11:10:05.223      410.54384446    
04 May 2022 00:31:30.908    04 May 2022 00:38:39.256      428.34794568    
04 May 2022 02:09:13.719    04 May 2022 02:15:48.148      394.42909771    
04 May 2022 08:46:08.323    04 May 2022 08:52:31.905      383.58208666    
04 May 2022 10:23:02.271    04 May 2022 10:30:38.553      456.28242282    
04 May 2022 23:52:10.856    04 May 2022 23:58:20.464      369.60785429    
05 May 2022 01:28:54.381    05 May 2022 01:36:10.638      436.25674720    
05 May 2022 08:06:41.439    05 May 2022 08:11:55.285      313.84600281    
05 May 2022 09:42:58.013    05 May 2022 09:50:59.318      481.30517264    
05 May 2022 23:13:12.134    05 May 2022 23:17:40.335      268.20106771    
06 May 2022 00:48:43.291    06 May 2022 00:56:26.509      463.21825701    
06 May 2022 07:27:30.153    06 May 2022 07:30:56.825      206.67156118    
06 May 2022 09:02:59.591    06 May 2022 09:11:09.561      489.97027822    
07 May 2022 00:08:39.727    07 May 2022 00:16:36.234      476.50697019    
07 May 2022 08:23:05.853    07 May 2022 08:31:10.164      484.31082579    
07 May 2022 10:02:42.147    07 May 2022 10:05:42.825      180.67851481    
07 May 2022 23:28:43.621    07 May 2022 23:36:39.628      476.00715773    
08 May 2022 01:08:29.689    08 May 2022 01:12:25.561      235.87212951    
08 May 2022 07:43:16.318    08 May 2022 07:51:01.340      465.02221555    
08 May 2022 09:21:35.624    08 May 2022 09:27:06.097      330.47272627    
08 May 2022 22:48:55.505    08 May 2022 22:56:35.904      460.39906936    
09 May 2022 00:27:37.013    09 May 2022 00:33:05.086      328.07298226    
09 May 2022 07:03:31.075    09 May 2022 07:10:42.737      431.66236707    
09 May 2022 08:41:03.155    09 May 2022 08:47:51.500      408.34525544    
09 May 2022 22:09:16.776    09 May 2022 22:16:23.410      426.63401820    
09 May 2022 23:47:00.603    09 May 2022 23:53:30.539      389.93625187    
10 May 2022 06:23:50.987    10 May 2022 06:30:13.243      382.25657145    
10 May 2022 08:00:44.480    10 May 2022 08:08:19.039      454.55872341    
10 May 2022 21:29:50.634    10 May 2022 21:35:58.695      368.06062526    
10 May 2022 23:06:34.684    10 May 2022 23:13:47.497      432.81350560    
11 May 2022 05:44:18.568    11 May 2022 05:49:30.116      311.54815110    
11 May 2022 07:20:34.184    11 May 2022 07:28:33.872      479.68712262    
11 May 2022 20:50:46.118    11 May 2022 20:55:12.476      266.35836528    
11 May 2022 22:26:17.250    11 May 2022 22:33:57.742      460.49244858    
12 May 2022 05:05:02.493    12 May 2022 05:08:24.489      201.99566181    
12 May 2022 06:40:29.895    12 May 2022 06:48:38.109      488.21390384    
12 May 2022 21:46:07.532    12 May 2022 21:54:01.800      474.26820493    
13 May 2022 06:00:30.442    13 May 2022 06:08:32.659      482.21618598    
13 May 2022 07:40:06.614    13 May 2022 07:43:04.458      177.84406906    
13 May 2022 21:06:05.448    13 May 2022 21:13:59.506      474.05808046    
13 May 2022 22:45:52.169    13 May 2022 22:49:43.648      231.47918318    
14 May 2022 05:20:35.346    14 May 2022 05:28:17.736      462.39035967    
14 May 2022 06:58:53.650    14 May 2022 07:04:22.597      328.94751483    
14 May 2022 20:26:11.535    14 May 2022 20:33:50.068      458.53298520    
14 May 2022 22:04:52.748    14 May 2022 22:10:18.348      325.59982158    
15 May 2022 04:40:44.719    15 May 2022 04:47:52.970      428.25052900    
15 May 2022 06:18:15.430    15 May 2022 06:25:02.303      406.87303953    
15 May 2022 19:46:27.221    15 May 2022 19:53:31.803      424.58224901    
15 May 2022 21:24:10.195    15 May 2022 21:30:38.541      388.34535355    
16 May 2022 04:00:59.490    16 May 2022 04:07:17.180      377.69000813    
16 May 2022 05:37:51.217    16 May 2022 05:45:24.056      452.83920887    
16 May 2022 19:06:55.800    16 May 2022 19:13:01.164      365.36331950    
16 May 2022 20:43:38.410    16 May 2022 20:50:50.129      431.71849670    
17 May 2022 03:21:22.382    17 May 2022 03:26:27.417      305.03529761    
17 May 2022 04:57:35.530    17 May 2022 05:05:33.075      477.54445325    
17 May 2022 18:27:46.722    17 May 2022 18:32:08.449      261.72750501    
17 May 2022 20:03:15.308    17 May 2022 20:10:54.964      459.65587691    
18 May 2022 02:42:03.216    18 May 2022 02:45:13.658      190.44265291    
18 May 2022 04:17:25.979    18 May 2022 04:25:31.482      485.50240144    
18 May 2022 19:23:00.096    18 May 2022 19:30:53.589      473.49305794    
19 May 2022 03:37:21.391    19 May 2022 03:45:20.175      478.78495428    
19 May 2022 05:16:54.214    19 May 2022 05:19:54.804      180.58978692    
19 May 2022 18:42:52.686    19 May 2022 18:50:45.827      473.14061379    
19 May 2022 20:22:37.259    19 May 2022 20:26:30.446      233.18688709    
20 May 2022 02:57:21.296    20 May 2022 03:04:59.348      458.05247426    
20 May 2022 04:35:37.002    20 May 2022 04:41:06.427      329.42505417    
20 May 2022 18:02:53.634    20 May 2022 18:10:30.854      457.22035558    
20 May 2022 19:41:32.516    20 May 2022 19:46:59.790      327.27441645    
21 May 2022 02:17:25.843    21 May 2022 02:24:28.575      422.73187148    
21 May 2022 03:54:53.963    21 May 2022 04:01:40.268      406.30521420    
21 May 2022 17:23:04.420    21 May 2022 17:30:06.918      422.49818235    
21 May 2022 19:00:44.706    21 May 2022 19:07:14.677      389.97123804    
22 May 2022 01:37:36.059    22 May 2022 01:43:46.562      370.50347436    
22 May 2022 03:14:24.884    22 May 2022 03:21:56.268      451.38423946    
22 May 2022 16:43:28.498    22 May 2022 16:49:30.293      361.79551767    
22 May 2022 18:20:07.758    22 May 2022 18:27:20.961      433.20304564    
23 May 2022 00:57:54.987    23 May 2022 01:02:50.020      295.03305699    
23 May 2022 02:34:04.348    23 May 2022 02:41:59.561      475.21273970    
23 May 2022 16:04:16.036    23 May 2022 16:08:30.539      254.50293679    
23 May 2022 17:39:39.592    23 May 2022 17:47:20.468      460.87652540    
24 May 2022 00:18:34.464    24 May 2022 00:21:26.893      172.42851713    
24 May 2022 01:53:49.987    24 May 2022 02:01:52.228      482.24134584    
24 May 2022 16:59:19.422    24 May 2022 17:07:13.715      474.29334938    
25 May 2022 01:13:40.643    25 May 2022 01:21:35.132      474.48841974    
25 May 2022 02:53:07.158    25 May 2022 02:56:16.019      188.86035819    
25 May 2022 16:19:07.178    25 May 2022 16:27:00.489      473.31085465    
25 May 2022 17:58:46.806    25 May 2022 18:02:47.888      241.08120091    
26 May 2022 00:33:35.875    26 May 2022 00:41:08.416      452.54150159    
26 May 2022 02:11:47.518    26 May 2022 02:17:19.693      332.17510872    
26 May 2022 15:39:03.454    26 May 2022 15:46:39.910      456.45557869    
26 May 2022 17:17:37.963    26 May 2022 17:23:11.085      333.12217912    
26 May 2022 23:53:35.886    27 May 2022 00:00:31.583      415.69633362    
27 May 2022 01:31:00.309    27 May 2022 01:37:47.306      406.99656028    
27 May 2022 14:59:09.821    27 May 2022 15:06:10.117      420.29676192    
27 May 2022 16:36:45.556    27 May 2022 16:43:20.339      394.78325428    
27 May 2022 23:13:41.845    27 May 2022 23:19:43.179      361.33472475    
28 May 2022 00:50:26.746    28 May 2022 00:57:57.352      450.60660273    
28 May 2022 14:19:29.981    28 May 2022 14:25:27.120      357.13869823    
28 May 2022 15:56:03.908    28 May 2022 16:03:21.092      437.18357311    
28 May 2022 22:33:57.258    28 May 2022 22:38:39.435      282.17687169    
29 May 2022 00:10:01.607    29 May 2022 00:17:54.755      473.14794157    
29 May 2022 13:40:15.270    29 May 2022 13:44:19.298      244.02751521    
29 May 2022 15:15:31.041    29 May 2022 15:23:15.057      464.01605430    
29 May 2022 21:54:37.407    29 May 2022 21:57:04.841      147.43399619    
29 May 2022 23:29:42.592    29 May 2022 23:37:41.510      478.91799866    
30 May 2022 14:35:06.219    30 May 2022 14:43:02.689      476.46957161    
30 May 2022 16:16:20.472    30 May 2022 16:17:35.582      75.110558385    
30 May 2022 22:49:28.589    30 May 2022 22:57:18.424      469.83484975    
31 May 2022 00:28:46.100    31 May 2022 00:32:08.752      202.65191831    
31 May 2022 13:54:49.421    31 May 2022 14:02:43.717      474.29627823    
31 May 2022 15:34:21.489    31 May 2022 15:38:35.976      254.48762400    
31 May 2022 22:09:19.205    31 May 2022 22:16:45.582      446.37766520    
31 May 2022 23:47:25.362    31 May 2022 23:53:03.025      337.66291182    
01 Jun 2022 13:14:41.311    01 Jun 2022 13:22:17.184      455.87228467    
01 Jun 2022 14:53:09.393    01 Jun 2022 14:58:52.150      342.75740491    
01 Jun 2022 21:29:14.727    01 Jun 2022 21:36:02.394      407.66688989    
01 Jun 2022 23:06:34.385    01 Jun 2022 23:13:23.822      409.43631112    
02 Jun 2022 12:34:43.606    02 Jun 2022 12:41:41.082      417.47606961    
02 Jun 2022 14:12:12.833    02 Jun 2022 14:18:55.260      402.42665384    
02 Jun 2022 20:49:16.520    02 Jun 2022 20:55:07.211      350.69159669    
02 Jun 2022 22:25:56.513    02 Jun 2022 22:33:27.507      450.99483992    
03 Jun 2022 11:55:00.394    03 Jun 2022 12:00:51.035      350.64097429    
03 Jun 2022 13:31:26.798    03 Jun 2022 13:38:50.080      443.28189832    
03 Jun 2022 20:09:28.745    03 Jun 2022 20:13:55.607      266.86247672    
03 Jun 2022 21:45:26.848    03 Jun 2022 21:53:18.678      471.82996315    
04 Jun 2022 11:15:44.912    04 Jun 2022 11:19:33.522      228.61009104    
04 Jun 2022 12:50:49.493    04 Jun 2022 12:58:38.143      468.65018226    
04 Jun 2022 19:30:13.087    04 Jun 2022 19:32:05.676      112.58889438    
04 Jun 2022 21:05:03.211    04 Jun 2022 21:12:59.209      475.99854281    
05 Jun 2022 12:10:20.275    05 Jun 2022 12:18:19.811      479.53657494    
05 Jun 2022 13:51:10.561    05 Jun 2022 13:53:13.317      122.75615309    
05 Jun 2022 20:24:44.564    05 Jun 2022 20:32:29.836      465.27222960    
05 Jun 2022 22:03:50.765    05 Jun 2022 22:07:32.471      221.70585024    
06 Jun 2022 11:29:59.206    06 Jun 2022 11:37:54.742      475.53559049    
06 Jun 2022 13:09:21.417    06 Jun 2022 13:13:53.579      272.16114857    
06 Jun 2022 19:44:30.590    06 Jun 2022 19:51:50.575      439.98539639    
06 Jun 2022 21:22:29.892    06 Jun 2022 21:28:16.176      346.28358650    
07 Jun 2022 10:49:47.063    07 Jun 2022 10:57:21.872      454.80852372    
07 Jun 2022 12:28:06.703    07 Jun 2022 12:34:02.106      355.40285344    
07 Jun 2022 19:04:21.692    07 Jun 2022 19:11:00.727      399.03475506    
07 Jun 2022 20:41:35.549    07 Jun 2022 20:48:29.588      414.03865364    
08 Jun 2022 10:09:45.773    08 Jun 2022 10:16:38.991      413.21841034    
08 Jun 2022 11:47:06.451    08 Jun 2022 11:53:58.673      412.22196602    
08 Jun 2022 18:24:19.490    08 Jun 2022 18:29:58.393      338.90302592    
08 Jun 2022 20:00:53.605    08 Jun 2022 20:08:26.547      452.94203785    
09 Jun 2022 09:30:00.003    09 Jun 2022 09:35:41.154      341.15114696    
09 Jun 2022 11:06:16.440    09 Jun 2022 11:13:47.274      450.83395106    
09 Jun 2022 17:44:29.062    09 Jun 2022 17:48:38.244      249.18211409    
09 Jun 2022 19:20:19.599    09 Jun 2022 19:28:11.221      471.62203265    
10 Jun 2022 08:50:46.251    10 Jun 2022 08:54:11.587      205.33593928    
10 Jun 2022 10:25:35.111    10 Jun 2022 10:33:29.210      474.09927574    
10 Jun 2022 17:05:28.887    10 Jun 2022 17:06:21.594      52.706796443    
10 Jun 2022 18:39:51.517    10 Jun 2022 18:47:45.329      473.81199072    
11 Jun 2022 09:45:01.945    11 Jun 2022 09:53:04.727      482.78118619    
11 Jun 2022 11:25:31.038    11 Jun 2022 11:28:15.429      164.39089476    
11 Jun 2022 17:59:28.418    11 Jun 2022 18:07:09.510      461.09125310    
11 Jun 2022 19:38:21.591    11 Jun 2022 19:42:26.808      245.21683058    
12 Jun 2022 09:04:37.113    12 Jun 2022 09:12:33.377      476.26367131    
12 Jun 2022 10:43:47.586    12 Jun 2022 10:48:40.074      292.48764891    
12 Jun 2022 17:19:10.079    12 Jun 2022 17:26:23.690      433.61110927    
12 Jun 2022 18:57:01.299    12 Jun 2022 19:02:59.386      358.08648686    
13 Jun 2022 08:24:21.539    13 Jun 2022 08:31:53.954      452.41560708    
13 Jun 2022 10:02:30.842    13 Jun 2022 10:08:40.800      369.95753021    
13 Jun 2022 16:38:57.044    13 Jun 2022 16:45:27.033      389.98884066    
13 Jun 2022 18:16:04.131    13 Jun 2022 18:23:05.074      420.94320373    
14 Jun 2022 07:44:17.443    14 Jun 2022 07:51:03.958      406.51414330    
14 Jun 2022 09:21:27.494    14 Jun 2022 09:28:30.725      423.23093367    
14 Jun 2022 15:58:51.262    14 Jun 2022 16:04:17.316      326.05461159    
14 Jun 2022 17:35:18.540    14 Jun 2022 17:42:55.130      456.59069445    
15 Jun 2022 07:04:30.361    15 Jun 2022 07:09:57.573      327.21266613    
15 Jun 2022 08:40:34.094    15 Jun 2022 08:48:13.063      458.96842370    
15 Jun 2022 15:18:59.109    15 Jun 2022 15:22:47.914      228.80505547    
15 Jun 2022 16:54:40.570    15 Jun 2022 17:02:33.215      472.64545108    
16 Jun 2022 06:25:23.019    16 Jun 2022 06:28:11.797      168.77797272    
16 Jun 2022 07:59:49.337    16 Jun 2022 08:07:48.857      479.51979458    
16 Jun 2022 16:14:08.400    16 Jun 2022 16:22:00.848      472.44716113    
17 Jun 2022 07:19:12.845    17 Jun 2022 07:27:18.209      485.36433043    
17 Jun 2022 08:59:22.011    17 Jun 2022 09:02:44.191      202.17993680    
17 Jun 2022 15:33:41.208    17 Jun 2022 15:41:18.546      457.33857374    
17 Jun 2022 17:12:20.325    17 Jun 2022 17:16:52.226      271.90136196    
18 Jun 2022 06:38:44.913    18 Jun 2022 06:46:40.535      475.62162622    
18 Jun 2022 08:17:42.158    18 Jun 2022 08:22:55.977      313.81864271    
18 Jun 2022 14:53:18.876    18 Jun 2022 15:00:26.121      427.24487224    
18 Jun 2022 16:31:01.007    18 Jun 2022 16:37:13.665      372.65786855    
19 Jun 2022 05:58:26.659    19 Jun 2022 06:05:54.429      447.77047033    
19 Jun 2022 07:36:23.881    19 Jun 2022 07:42:49.078      385.19779720    
19 Jun 2022 14:13:02.124    19 Jun 2022 14:19:22.555      380.43189693    
19 Jun 2022 15:50:01.550    19 Jun 2022 15:57:11.469      429.91814154    
20 Jun 2022 05:18:20.713    20 Jun 2022 05:24:56.970      396.25724014    
20 Jun 2022 06:55:18.020    20 Jun 2022 07:02:32.440      434.41951900    
20 Jun 2022 13:32:53.325    20 Jun 2022 13:38:05.192      311.86686354    
20 Jun 2022 15:09:12.766    20 Jun 2022 15:16:54.523      461.75676102    
21 Jun 2022 04:38:33.958    21 Jun 2022 04:43:40.983      307.02531586    
21 Jun 2022 06:14:21.815    21 Jun 2022 06:22:08.571      466.75682254    
21 Jun 2022 12:53:00.823    21 Jun 2022 12:56:25.433      204.60962118    
21 Jun 2022 14:28:31.229    21 Jun 2022 14:36:25.944      474.71466260    
22 Jun 2022 03:59:44.938    22 Jun 2022 04:01:27.636      102.69845127    
22 Jun 2022 05:33:34.205    22 Jun 2022 05:41:38.252      484.04692848    
22 Jun 2022 13:47:55.333    22 Jun 2022 13:55:47.021      471.68849402    
22 Jun 2022 15:28:05.072    22 Jun 2022 15:29:37.525      92.452897306    
23 Jun 2022 04:52:54.964    23 Jun 2022 05:01:01.417      486.45282785    
23 Jun 2022 06:32:44.917    23 Jun 2022 06:36:41.292      236.37533068    
23 Jun 2022 13:07:24.384    23 Jun 2022 13:14:58.128      453.74432617    
23 Jun 2022 14:45:48.965    23 Jun 2022 14:50:49.349      300.38325679    
24 Jun 2022 04:12:24.543    24 Jun 2022 04:20:17.311      472.76812065    
24 Jun 2022 05:51:07.323    24 Jun 2022 05:56:42.115      334.79201108    
24 Jun 2022 12:26:58.397    24 Jun 2022 12:33:58.930      420.53219711    
24 Jun 2022 14:04:30.620    24 Jun 2022 14:10:59.873      389.25281914    
25 Jun 2022 03:32:04.311    25 Jun 2022 03:39:24.260      439.94944557    
25 Jun 2022 05:09:47.774    25 Jun 2022 05:16:27.824      400.04915844    
25 Jun 2022 11:46:38.311    25 Jun 2022 11:52:48.179      369.86772105    
25 Jun 2022 13:23:29.203    25 Jun 2022 13:30:49.622      440.41844291    
26 Jun 2022 02:51:57.496    26 Jun 2022 02:58:18.735      381.23874951    
26 Jun 2022 04:28:39.786    26 Jun 2022 04:36:04.669      444.88294073    
26 Jun 2022 11:06:27.094    26 Jun 2022 11:11:22.617      295.52360452    


Number of events : 239


Observer: Cape_Town
Start Time (UTC)            Stop Time (UTC)               Duration (s)         
27 Apr 2022 18:23:18.812    27 Apr 2022 18:31:27.157      488.34431326    
27 Apr 2022 20:02:09.167    27 Apr 2022 20:08:14.733      365.56580564    
27 Apr 2022 23:22:00.707    27 Apr 2022 23:24:02.529      121.82137611    
28 Apr 2022 00:57:48.207    28 Apr 2022 01:05:07.477      439.26965363    
28 Apr 2022 02:35:15.638    28 Apr 2022 02:42:33.347      437.70883555    
28 Apr 2022 17:43:38.449    28 Apr 2022 17:51:36.128      477.67903906    
28 Apr 2022 19:21:53.582    28 Apr 2022 19:28:39.026      405.44378255    
29 Apr 2022 00:18:09.682    29 Apr 2022 00:24:58.739      409.05730273    
29 Apr 2022 01:55:17.525    29 Apr 2022 02:03:03.244      465.71904842    
29 Apr 2022 17:04:04.793    29 Apr 2022 17:11:39.206      454.41281354    
29 Apr 2022 18:41:42.183    29 Apr 2022 18:49:00.376      438.19293949    
29 Apr 2022 20:22:58.395    29 Apr 2022 20:24:41.766      103.37090663    
29 Apr 2022 23:38:31.986    29 Apr 2022 23:44:43.719      371.73348806    
30 Apr 2022 01:15:23.672    30 Apr 2022 01:23:23.960      480.28802524    
30 Apr 2022 16:24:39.602    30 Apr 2022 16:31:34.493      414.89105893    
30 Apr 2022 18:01:35.058    30 Apr 2022 18:09:18.726      463.66729054    
30 Apr 2022 19:42:08.482    30 Apr 2022 19:45:24.030      195.54746454    
30 Apr 2022 22:58:55.188    30 Apr 2022 23:04:22.398      327.21004563    
01 May 2022 00:35:32.776    01 May 2022 00:43:36.643      483.86639140    
01 May 2022 02:15:11.322    01 May 2022 02:17:56.611      165.28977498    
01 May 2022 15:45:26.448    01 May 2022 15:51:18.271      351.82263970    
01 May 2022 17:21:32.389    01 May 2022 17:29:33.879      481.48924772    
01 May 2022 19:01:31.253    01 May 2022 19:05:54.038      262.78455772    
01 May 2022 22:19:19.657    01 May 2022 22:23:54.524      274.86741847    
01 May 2022 23:55:44.008    02 May 2022 00:03:41.979      477.97108919    
02 May 2022 01:34:15.363    02 May 2022 01:39:25.900      310.53720462    
02 May 2022 15:06:35.369    02 May 2022 15:10:40.357      244.98786883    
02 May 2022 16:41:34.450    02 May 2022 16:49:45.504      491.05401209    
02 May 2022 18:21:00.032    02 May 2022 18:26:18.799      318.76747581    
02 May 2022 21:39:46.502    02 May 2022 21:43:19.188      212.68594122    
02 May 2022 23:15:56.809    02 May 2022 23:23:40.407      463.59795848    
03 May 2022 00:53:51.399    03 May 2022 01:00:18.736      387.33744153    
03 May 2022 16:01:41.646    03 May 2022 16:09:53.110      491.46395882    
03 May 2022 17:40:33.458    03 May 2022 17:46:39.929      366.47092262    
03 May 2022 21:00:19.740    03 May 2022 21:02:32.653      132.91344090    
03 May 2022 22:36:10.797    03 May 2022 22:43:32.214      441.41737791    
04 May 2022 00:13:39.570    04 May 2022 00:20:54.818      435.24761122    
04 May 2022 15:21:54.594    04 May 2022 15:29:55.971      481.37673136    
04 May 2022 17:00:11.171    04 May 2022 17:06:57.968      406.79757537    
04 May 2022 21:56:25.725    04 May 2022 22:03:17.594      411.86812000    
04 May 2022 23:33:34.597    04 May 2022 23:41:19.264      464.66785687    
05 May 2022 14:42:14.285    05 May 2022 14:49:52.975      458.68964422    
05 May 2022 16:19:53.130    05 May 2022 16:27:13.066      439.93623212    
05 May 2022 18:01:07.707    05 May 2022 18:02:56.514      108.80761617    
05 May 2022 21:16:41.476    05 May 2022 21:22:56.660      375.18389494    
05 May 2022 22:53:34.059    05 May 2022 23:01:34.339      480.28010560    
06 May 2022 14:02:42.443    06 May 2022 14:09:42.263      419.81963905    
06 May 2022 15:39:39.437    06 May 2022 15:47:25.172      465.73436090    
06 May 2022 17:20:12.430    06 May 2022 17:23:31.246      198.81526547    
06 May 2022 20:36:58.090    06 May 2022 20:42:29.432      331.34180380    
06 May 2022 22:13:36.592    06 May 2022 22:21:41.259      484.66696918    
06 May 2022 23:53:19.598    06 May 2022 23:55:55.382      155.78399930    
07 May 2022 13:23:22.545    07 May 2022 13:29:20.225      357.68008913    
07 May 2022 14:59:30.285    07 May 2022 15:07:34.093      483.80813382    
07 May 2022 16:39:29.015    07 May 2022 16:43:54.607      265.59286796    
07 May 2022 19:57:15.878    07 May 2022 20:01:55.727      279.84882753    
07 May 2022 21:33:41.334    07 May 2022 21:41:40.751      479.41628887    
07 May 2022 23:12:14.163    07 May 2022 23:17:21.908      307.74554618    
08 May 2022 12:44:24.132    08 May 2022 12:48:37.184      253.05200389    
08 May 2022 14:19:25.956    08 May 2022 14:27:39.503      493.54687507    
08 May 2022 15:58:51.491    08 May 2022 16:04:12.929      321.43783104    
08 May 2022 19:17:35.793    08 May 2022 19:21:14.807      219.01388291    
08 May 2022 20:53:47.711    08 May 2022 21:01:33.280      465.56833950    
08 May 2022 22:31:43.102    08 May 2022 22:38:09.631      386.52867851    
09 May 2022 13:39:26.869    09 May 2022 13:47:40.915      494.04676108    
09 May 2022 15:18:18.625    09 May 2022 15:24:27.724      369.09886301    
09 May 2022 18:38:01.127    09 May 2022 18:40:23.682      142.55579581    
09 May 2022 20:13:55.330    09 May 2022 20:21:19.157      443.82657734    
09 May 2022 21:51:24.631    09 May 2022 21:58:40.184      435.55358013    
10 May 2022 12:59:33.648    10 May 2022 13:07:37.606      483.95744747    
10 May 2022 14:37:50.107    10 May 2022 14:44:39.503      409.39608490    
10 May 2022 19:34:03.936    10 May 2022 19:40:58.596      414.66035647    
10 May 2022 21:11:13.231    10 May 2022 21:18:58.938      465.70683641    
11 May 2022 12:19:47.297    11 May 2022 12:27:28.461      461.16372210    
11 May 2022 13:57:25.928    11 May 2022 14:04:48.405      442.47660132    
11 May 2022 15:38:36.655    11 May 2022 15:40:35.446      118.79088121    
11 May 2022 18:54:13.398    11 May 2022 19:00:31.737      378.33948409    
11 May 2022 20:31:06.411    11 May 2022 20:39:08.239      481.82819020    
12 May 2022 11:40:09.557    12 May 2022 11:47:11.617      422.05916372    
12 May 2022 13:17:06.209    12 May 2022 13:24:54.371      468.16215118    
12 May 2022 14:57:37.249    12 May 2022 15:01:02.007      204.75794094    
12 May 2022 18:14:23.736    12 May 2022 18:19:58.631      334.89490167    
12 May 2022 19:51:02.772    12 May 2022 19:59:09.343      486.57127263    
12 May 2022 21:30:44.965    12 May 2022 21:33:23.657      158.69142859    
13 May 2022 11:00:43.935    13 May 2022 11:06:43.439      359.50421391    
13 May 2022 12:36:51.157    13 May 2022 12:44:57.207      486.04976004    
13 May 2022 14:16:48.386    13 May 2022 14:21:18.683      270.29699780    
13 May 2022 17:34:35.220    13 May 2022 17:39:19.154      283.93393003    
13 May 2022 19:11:01.440    13 May 2022 19:19:03.003      481.56276686    
13 May 2022 20:49:33.775    13 May 2022 20:54:44.156      310.38140401    
14 May 2022 10:21:40.062    14 May 2022 10:25:54.165      254.10266393    
14 May 2022 11:56:41.069    14 May 2022 12:04:56.579      495.51089077    
14 May 2022 13:36:05.223    14 May 2022 13:41:30.695      325.47189058    
14 May 2022 16:54:48.686    14 May 2022 16:58:32.697      224.01094517    
14 May 2022 18:31:01.829    14 May 2022 18:38:49.697      467.86804948    
14 May 2022 20:08:56.805    14 May 2022 20:15:26.104      389.29811725    
15 May 2022 11:16:36.372    15 May 2022 11:24:51.992      495.62024223    
15 May 2022 12:55:26.721    15 May 2022 13:01:39.372      372.65095976    
15 May 2022 16:15:06.939    15 May 2022 16:17:36.770      149.83059322    
15 May 2022 17:51:03.538    15 May 2022 17:58:29.749      446.21020075    
15 May 2022 19:28:32.504    15 May 2022 19:35:50.904      438.40052298    
16 May 2022 10:36:37.710    16 May 2022 10:44:42.705      484.99542810    
16 May 2022 12:14:52.640    16 May 2022 12:21:45.161      412.52142816    
16 May 2022 17:11:06.305    16 May 2022 17:18:03.383      417.07777415    
16 May 2022 18:48:15.360    16 May 2022 18:56:03.917      468.55693725    
17 May 2022 09:56:46.110    17 May 2022 10:04:27.575      461.46472032    
17 May 2022 11:34:23.001    17 May 2022 11:41:48.168      445.16688326    
17 May 2022 13:15:28.907    17 May 2022 13:17:39.077      130.16989783    
17 May 2022 16:31:09.988    17 May 2022 16:37:30.752      380.76404566    
17 May 2022 18:08:02.879    17 May 2022 18:16:07.488      484.60939274    
18 May 2022 09:17:03.370    18 May 2022 09:24:04.674      421.30443851    
18 May 2022 10:53:57.942    18 May 2022 11:01:48.313      470.37090630    
18 May 2022 12:34:26.002    18 May 2022 12:37:57.797      211.79538674    
18 May 2022 15:51:14.590    18 May 2022 15:56:51.925      337.33458209    
18 May 2022 17:27:53.657    18 May 2022 17:36:02.873      489.21547662    
18 May 2022 19:07:30.381    18 May 2022 19:10:22.730      172.34859903    
19 May 2022 08:37:33.143    19 May 2022 08:43:30.209      357.06633800    
19 May 2022 10:13:37.679    19 May 2022 10:21:45.381      487.70142077    
19 May 2022 11:53:32.358    19 May 2022 11:58:08.103      275.74496507    
19 May 2022 15:11:20.349    19 May 2022 15:16:06.807      286.45776340    
19 May 2022 16:47:46.814    19 May 2022 16:55:50.819      484.00569706    
19 May 2022 18:26:16.832    19 May 2022 18:31:34.510      317.67798074    
20 May 2022 07:58:25.734    20 May 2022 08:02:33.731      247.99788476    
20 May 2022 09:33:22.517    20 May 2022 09:41:39.018      496.50088741    
20 May 2022 11:12:44.197    20 May 2022 11:18:14.145      329.94779638    
20 May 2022 14:31:28.031    20 May 2022 14:35:14.856      226.82513102    
20 May 2022 16:07:41.755    20 May 2022 16:15:31.804      470.04937849    
20 May 2022 17:45:35.153    20 May 2022 17:52:10.166      395.01258315    
21 May 2022 08:53:12.894    21 May 2022 09:01:28.701      495.80696609    
21 May 2022 10:32:00.677    21 May 2022 10:38:17.042      376.36436216    
21 May 2022 13:51:40.198    21 May 2022 13:54:13.830      153.63265781    
21 May 2022 15:27:38.073    21 May 2022 15:35:06.147      448.07416073    
21 May 2022 17:05:05.838    21 May 2022 17:12:29.040      443.20195445    
22 May 2022 08:13:09.471    22 May 2022 08:21:13.651      484.18003886    
22 May 2022 09:51:21.624    22 May 2022 09:58:17.160      415.53592662    
22 May 2022 13:12:27.580    22 May 2022 13:12:33.403      5.8233496500    
22 May 2022 14:47:35.496    22 May 2022 14:54:34.070      418.57422927    
22 May 2022 16:24:43.600    22 May 2022 16:32:36.248      472.64838401    
23 May 2022 07:33:13.318    23 May 2022 07:40:52.663      459.34538901    
23 May 2022 09:10:47.084    23 May 2022 09:18:14.559      447.47553756    
23 May 2022 10:51:47.992    23 May 2022 10:54:08.781      140.78949862    
23 May 2022 14:07:33.873    23 May 2022 14:13:55.723      381.84988769    
23 May 2022 15:44:26.005    23 May 2022 15:52:34.061      488.05620032    
24 May 2022 06:53:26.331    24 May 2022 07:00:23.692      417.36086297    
24 May 2022 08:30:17.207    24 May 2022 08:38:09.130      471.92320847    
24 May 2022 10:10:41.644    24 May 2022 10:14:20.331      218.68719739    
24 May 2022 13:27:33.200    24 May 2022 13:33:11.175      337.97506563    
24 May 2022 15:04:11.671    24 May 2022 15:12:23.697      492.02568380    
24 May 2022 16:43:39.830    24 May 2022 16:46:52.784      192.95440880    
25 May 2022 06:13:52.453    25 May 2022 06:19:42.635      350.18139087    
25 May 2022 07:49:52.216    25 May 2022 07:58:00.627      488.41142842    
25 May 2022 09:29:43.543    25 May 2022 09:34:24.603      281.06022680    
25 May 2022 12:47:33.707    25 May 2022 12:52:20.334      286.62643359    
25 May 2022 14:23:59.723    25 May 2022 14:32:05.881      486.15824680    
25 May 2022 16:02:25.877    25 May 2022 16:07:54.262      328.38484218    
26 May 2022 05:34:43.407    26 May 2022 05:38:37.606      234.19919835    
26 May 2022 07:09:32.424    26 May 2022 07:17:48.668      496.24417046    
26 May 2022 08:48:50.716    26 May 2022 08:54:24.922      334.20544749    
26 May 2022 12:07:36.161    26 May 2022 12:11:22.657      226.49608495    
26 May 2022 13:43:49.569    26 May 2022 13:51:41.075      471.50621465    
26 May 2022 15:21:40.316    26 May 2022 15:28:23.077      402.76076426    
27 May 2022 06:29:18.287    27 May 2022 06:37:32.694      494.40641954    
27 May 2022 08:08:02.488    27 May 2022 08:14:22.223      379.73493047    
27 May 2022 11:27:43.153    27 May 2022 11:30:15.871      152.71870651    
27 May 2022 13:03:40.801    27 May 2022 13:11:09.587      448.78589935    
27 May 2022 14:41:06.511    27 May 2022 14:48:35.688      449.17711567    
28 May 2022 05:49:10.500    28 May 2022 05:57:11.874      481.37383583    
28 May 2022 07:27:18.739    28 May 2022 07:34:16.799      418.06040624    
28 May 2022 12:23:33.149    28 May 2022 12:30:31.631      418.48206678    
28 May 2022 14:00:39.554    28 May 2022 14:08:36.819      477.26481284    
29 May 2022 05:09:10.202    29 May 2022 05:16:44.918      454.71576088    
29 May 2022 06:46:39.541    29 May 2022 06:54:08.670      449.12943720    
29 May 2022 08:27:35.610    29 May 2022 08:30:05.258      149.64816109    
29 May 2022 11:43:26.467    29 May 2022 11:49:47.351      380.88333502    
29 May 2022 13:20:17.126    29 May 2022 13:28:28.612      491.48604996    
30 May 2022 04:29:19.452    30 May 2022 04:36:09.604      410.15143844    
30 May 2022 06:06:05.056    30 May 2022 06:13:57.694      472.63803970    
30 May 2022 07:46:25.443    30 May 2022 07:50:10.228      224.78506495    
30 May 2022 11:03:20.763    30 May 2022 11:08:56.804      336.04140080    
30 May 2022 12:39:57.893    30 May 2022 12:48:12.229      494.33623472    
30 May 2022 14:19:15.734    30 May 2022 14:22:52.791      217.05660594    
31 May 2022 03:49:42.671    31 May 2022 03:55:21.341      338.67060507    
31 May 2022 05:25:35.523    31 May 2022 05:33:43.601      488.07859258    
31 May 2022 07:05:22.834    31 May 2022 07:10:08.670      285.83605931    
31 May 2022 10:23:16.297    31 May 2022 10:27:59.875      283.57753423    
31 May 2022 11:59:41.004    31 May 2022 12:07:48.366      487.36179024    
31 May 2022 13:38:02.014    31 May 2022 13:43:43.227      341.21260811    
01 Jun 2022 03:10:34.193    01 Jun 2022 03:14:05.626      211.43255647    
01 Jun 2022 04:45:11.272    01 Jun 2022 04:53:25.979      494.70715499    
01 Jun 2022 06:24:25.356    01 Jun 2022 06:30:03.359      338.00318011    
01 Jun 2022 09:43:13.929    01 Jun 2022 09:46:55.942      222.01271999    
01 Jun 2022 11:19:25.886    01 Jun 2022 11:27:17.468      471.58149839    
01 Jun 2022 12:57:13.003    01 Jun 2022 13:04:04.616      411.61299131    
02 Jun 2022 04:04:52.791    02 Jun 2022 04:13:04.230      491.43938203    
02 Jun 2022 05:43:32.454    02 Jun 2022 05:49:55.098      382.64405049    
02 Jun 2022 09:03:16.654    02 Jun 2022 09:05:42.345      145.69056997    
02 Jun 2022 10:39:12.146    02 Jun 2022 10:46:39.833      447.68723112    
02 Jun 2022 12:16:34.969    02 Jun 2022 12:24:10.508      455.53890474    
03 Jun 2022 03:24:40.829    03 Jun 2022 03:32:37.465      476.63601420    
03 Jun 2022 05:02:44.056    03 Jun 2022 05:09:44.128      420.07215007    
03 Jun 2022 06:44:35.376    03 Jun 2022 06:45:00.959      25.582916709    
03 Jun 2022 09:58:59.528    03 Jun 2022 10:05:55.668      416.14041973    
03 Jun 2022 11:36:03.471    03 Jun 2022 11:44:05.166      481.69496163    
04 Jun 2022 02:44:36.635    04 Jun 2022 02:52:04.285      447.64951004    
04 Jun 2022 04:22:00.257    04 Jun 2022 04:29:30.439      450.18234118    
04 Jun 2022 06:02:51.626    04 Jun 2022 06:05:28.444      156.81873079    
04 Jun 2022 09:18:47.912    04 Jun 2022 09:25:05.110      377.19801598    
04 Jun 2022 10:55:36.343    04 Jun 2022 11:03:50.580      494.23659107    
05 Jun 2022 02:04:42.513    05 Jun 2022 02:11:22.225      399.71228514    
05 Jun 2022 03:41:21.239    05 Jun 2022 03:49:13.870      472.63096684    
05 Jun 2022 05:21:37.173    05 Jun 2022 05:25:27.318      230.14452090    
05 Jun 2022 08:38:37.343    05 Jun 2022 08:44:08.196      330.85296649    
05 Jun 2022 10:15:12.326    05 Jun 2022 10:23:27.848      495.52210607    
05 Jun 2022 11:54:18.945    05 Jun 2022 11:58:21.237      242.29287050    
06 Jun 2022 01:25:03.623    06 Jun 2022 01:30:25.961      322.33744583    
06 Jun 2022 03:00:47.261    06 Jun 2022 03:08:54.129      486.86875737    
06 Jun 2022 04:40:29.916    06 Jun 2022 04:45:20.120      290.20397561    
06 Jun 2022 07:58:28.167    06 Jun 2022 08:03:04.756      276.58912319    
06 Jun 2022 09:34:50.611    06 Jun 2022 09:42:57.636      487.02412014    
06 Jun 2022 11:13:05.457    06 Jun 2022 11:19:00.469      355.01211206    
07 Jun 2022 00:45:59.233    07 Jun 2022 00:48:56.064      176.83087959    
07 Jun 2022 02:20:18.683    07 Jun 2022 02:28:30.779      492.09615308    
07 Jun 2022 03:59:27.759    07 Jun 2022 04:05:09.294      341.53463538    
07 Jun 2022 07:18:21.462    07 Jun 2022 07:21:53.978      212.51560450    
07 Jun 2022 08:54:30.657    07 Jun 2022 09:02:20.372      469.71476264    
07 Jun 2022 10:32:13.286    07 Jun 2022 10:39:14.015      420.72856593    
08 Jun 2022 01:39:56.037    08 Jun 2022 01:48:03.180      487.14280349    
08 Jun 2022 03:18:30.229    08 Jun 2022 03:24:55.564      385.33461123    
08 Jun 2022 06:38:21.255    08 Jun 2022 06:40:32.203      130.94833230    
08 Jun 2022 08:14:12.096    08 Jun 2022 08:21:36.346      444.24987455    
08 Jun 2022 09:51:31.273    08 Jun 2022 09:59:12.863      461.58951534    
09 Jun 2022 00:59:40.151    09 Jun 2022 01:07:30.372      470.22108691    
09 Jun 2022 02:37:37.283    09 Jun 2022 02:44:39.138      421.85432897    
09 Jun 2022 04:19:17.505    09 Jun 2022 04:20:03.346      45.841053093    
09 Jun 2022 07:33:54.705    09 Jun 2022 07:40:45.758      411.05368818    
09 Jun 2022 09:10:55.466    09 Jun 2022 09:19:00.798      485.33142256    
10 Jun 2022 00:19:32.421    10 Jun 2022 00:26:50.815      438.39411585    
10 Jun 2022 01:56:49.037    10 Jun 2022 02:04:19.988      450.95116150    
10 Jun 2022 03:37:35.629    10 Jun 2022 03:40:18.728      163.09884440    
10 Jun 2022 06:53:38.400    10 Jun 2022 06:59:48.729      370.32935196    
10 Jun 2022 08:30:23.876    10 Jun 2022 08:38:39.646      495.77034640    
10 Jun 2022 23:39:35.492    10 Jun 2022 23:46:01.708      386.21597463    
11 Jun 2022 01:16:05.689    11 Jun 2022 01:23:57.936      472.24721659    
11 Jun 2022 02:56:16.694    11 Jun 2022 03:00:12.025      235.33084297    
11 Jun 2022 06:13:23.293    11 Jun 2022 06:18:45.260      321.96666354    
11 Jun 2022 07:49:55.327    11 Jun 2022 07:58:10.435      495.10803010    
11 Jun 2022 09:28:50.339    11 Jun 2022 09:33:17.486      267.14695642    
11 Jun 2022 22:59:55.650    11 Jun 2022 23:04:56.611      300.96025087    
12 Jun 2022 00:35:27.518    12 Jun 2022 00:43:32.668      485.15017794    
12 Jun 2022 02:15:04.847    12 Jun 2022 02:19:59.526      294.67845062    
12 Jun 2022 05:33:09.867    12 Jun 2022 05:37:35.068      265.20152654    
12 Jun 2022 07:09:29.060    12 Jun 2022 07:17:33.791      484.73071104    
12 Jun 2022 08:47:36.986    12 Jun 2022 08:53:45.826      368.84062411    
12 Jun 2022 22:21:03.147    12 Jun 2022 22:23:05.113      121.96590013    
12 Jun 2022 23:54:54.917    13 Jun 2022 00:03:03.713      488.79648278    
13 Jun 2022 01:33:58.181    13 Jun 2022 01:39:43.478      345.29663689    
13 Jun 2022 04:52:59.610    13 Jun 2022 04:56:16.964      197.35400995    
13 Jun 2022 06:29:04.568    13 Jun 2022 06:36:50.122      465.55419755    
13 Jun 2022 08:06:42.020    13 Jun 2022 08:13:51.444      429.42413364    
13 Jun 2022 23:14:28.468    13 Jun 2022 23:22:30.380      481.91116035    
14 Jun 2022 00:52:56.262    14 Jun 2022 00:59:24.558      388.29576118    
14 Jun 2022 04:12:58.967    14 Jun 2022 04:14:44.899      105.93189908    
14 Jun 2022 05:48:41.516    14 Jun 2022 05:55:59.704      438.18830922    
14 Jun 2022 07:25:56.410    14 Jun 2022 07:33:43.203      466.79247633    
14 Jun 2022 22:34:09.094    14 Jun 2022 22:41:51.613      462.51964256    
15 Jun 2022 00:11:59.060    15 Jun 2022 00:19:02.951      423.89153534    
15 Jun 2022 01:53:31.337    15 Jun 2022 01:54:30.725      59.388533549    
15 Jun 2022 05:08:19.711    15 Jun 2022 05:15:02.717      403.00574602    
15 Jun 2022 06:45:16.675    15 Jun 2022 06:53:24.421      487.74587304    
15 Jun 2022 21:53:58.375    15 Jun 2022 22:01:05.683      427.30721851    
15 Jun 2022 23:31:06.695    15 Jun 2022 23:38:38.611      451.91642703    
16 Jun 2022 01:11:48.079    16 Jun 2022 01:14:37.867      169.78729635    
16 Jun 2022 04:27:59.120    16 Jun 2022 04:33:59.249      360.12943526    
16 Jun 2022 06:04:41.000    16 Jun 2022 06:12:56.752      495.75218617    
16 Jun 2022 07:45:06.170    16 Jun 2022 07:46:18.987      72.816374491    
16 Jun 2022 21:13:59.425    16 Jun 2022 21:20:09.319      369.89314745    
16 Jun 2022 22:50:19.375    16 Jun 2022 22:58:11.338      471.96254170    
17 Jun 2022 00:30:24.815    17 Jun 2022 00:34:26.074      241.25863124    
17 Jun 2022 03:47:39.944    17 Jun 2022 03:52:49.231      309.28719506    
17 Jun 2022 05:24:08.294    17 Jun 2022 05:32:21.140      492.84636558    
17 Jun 2022 07:02:51.663    17 Jun 2022 07:07:42.347      290.68396445    
17 Jun 2022 20:34:20.259    17 Jun 2022 20:38:54.345      274.08564182    
17 Jun 2022 22:09:37.396    17 Jun 2022 22:17:40.788      483.39217947    
17 Jun 2022 23:49:08.648    17 Jun 2022 23:54:08.663      300.01421899    
18 Jun 2022 03:07:22.881    18 Jun 2022 03:11:32.184      249.30337393    
18 Jun 2022 04:43:37.848    18 Jun 2022 04:51:38.168      480.31932190    
18 Jun 2022 06:21:38.358    18 Jun 2022 06:28:00.375      382.01653050    
18 Jun 2022 21:29:01.180    18 Jun 2022 21:37:06.448      485.26777782    
18 Jun 2022 23:07:57.789    18 Jun 2022 23:13:47.740      349.95052748    
19 Jun 2022 02:27:10.161    19 Jun 2022 02:30:06.193      176.03244045    
19 Jun 2022 04:03:09.188    19 Jun 2022 04:10:48.210      459.02177190    
19 Jun 2022 05:40:40.956    19 Jun 2022 05:47:58.199      437.24329040    
19 Jun 2022 20:48:31.367    19 Jun 2022 20:56:27.554      476.18742072    
19 Jun 2022 22:26:51.818    19 Jun 2022 22:33:23.944      392.12616279    
20 Jun 2022 01:47:15.625    20 Jun 2022 01:48:17.834      62.208750914    
20 Jun 2022 03:22:42.008    20 Jun 2022 03:29:51.515      429.50689854    
20 Jun 2022 04:59:52.130    20 Jun 2022 05:07:42.974      470.84358309    
20 Jun 2022 20:08:08.987    20 Jun 2022 20:15:42.929      453.94183755    
20 Jun 2022 21:45:50.702    20 Jun 2022 21:52:57.438      426.73659824    
20 Jun 2022 23:27:14.710    20 Jun 2022 23:28:28.549      73.839128134    
21 Jun 2022 02:42:16.152    21 Jun 2022 02:48:48.232      392.07948638    
21 Jun 2022 04:19:08.826    21 Jun 2022 04:27:17.579      488.75315955    
21 Jun 2022 19:27:55.865    21 Jun 2022 19:34:50.588      414.72332667    
21 Jun 2022 21:04:54.559    21 Jun 2022 21:12:28.153      453.59423363    
21 Jun 2022 22:45:29.897    21 Jun 2022 22:48:28.218      178.32181145    
22 Jun 2022 02:01:51.647    22 Jun 2022 02:07:38.397      346.75029464    
22 Jun 2022 03:38:29.396    22 Jun 2022 03:46:43.495      494.09847261    
22 Jun 2022 05:18:16.691    22 Jun 2022 05:20:46.296      149.60555797    
22 Jun 2022 18:47:55.754    22 Jun 2022 18:53:46.604      350.84986315    
22 Jun 2022 20:24:03.602    22 Jun 2022 20:31:55.861      472.25965775    
22 Jun 2022 22:04:02.629    22 Jun 2022 22:08:11.566      248.93635124    
23 Jun 2022 01:21:28.817    23 Jun 2022 01:26:21.824      293.00706937    
23 Jun 2022 02:57:52.830    23 Jun 2022 03:06:01.575      488.74458864    
23 Jun 2022 04:36:24.698    23 Jun 2022 04:41:37.243      312.54424683    
23 Jun 2022 18:08:19.496    23 Jun 2022 18:12:19.964      240.46799795    
23 Jun 2022 19:43:18.140    23 Jun 2022 19:51:20.182      482.04238764    
23 Jun 2022 21:22:42.435    23 Jun 2022 21:27:49.453      307.01787273    
24 Jun 2022 00:41:08.699    24 Jun 2022 00:44:57.709      229.00995340    
24 Jun 2022 02:17:18.467    24 Jun 2022 02:25:12.349      473.88216674    
24 Jun 2022 03:55:11.256    24 Jun 2022 04:01:45.497      394.24135198    
24 Jun 2022 19:02:38.632    24 Jun 2022 19:10:40.547      481.91562655    
24 Jun 2022 20:41:27.651    24 Jun 2022 20:47:23.829      356.17805324    
25 Jun 2022 00:00:54.958    25 Jun 2022 00:03:22.716      147.75871845    
25 Jun 2022 01:36:45.866    25 Jun 2022 01:44:16.157      450.29065852    
25 Jun 2022 03:14:11.597    25 Jun 2022 03:21:35.644      444.04698577    
25 Jun 2022 18:22:05.786    25 Jun 2022 18:29:56.107      470.32114577    
25 Jun 2022 20:00:17.873    25 Jun 2022 20:06:55.289      397.41658088    
26 Jun 2022 00:56:14.755    26 Jun 2022 01:03:13.212      418.45738156    
26 Jun 2022 02:33:19.748    26 Jun 2022 02:41:13.472      473.72413538    


Number of events : 329


Observer: Hawaii
Start Time (UTC)            Stop Time (UTC)               Duration (s)         
27 Apr 2022 15:57:32.199    27 Apr 2022 16:01:53.980      261.78081298    
27 Apr 2022 17:33:06.012    27 Apr 2022 17:40:42.725      456.71258859    
28 Apr 2022 01:50:19.029    28 Apr 2022 01:57:27.176      428.14677340    
28 Apr 2022 03:28:02.439    28 Apr 2022 03:34:20.101      377.66161077    
28 Apr 2022 16:53:08.032    28 Apr 2022 17:01:04.733      476.70076221    
29 Apr 2022 01:10:56.654    29 Apr 2022 01:17:05.928      369.27446870    
29 Apr 2022 02:47:47.504    29 Apr 2022 02:55:06.807      439.30226384    
29 Apr 2022 16:13:18.660    29 Apr 2022 16:21:18.847      480.18739368    
30 Apr 2022 00:31:47.981    30 Apr 2022 00:36:25.015      277.03318982    
30 Apr 2022 02:07:44.114    30 Apr 2022 02:15:38.247      474.13207674    
30 Apr 2022 15:33:38.033    30 Apr 2022 15:41:24.571      466.53774715    
30 Apr 2022 17:13:01.679    30 Apr 2022 17:17:10.931      249.25273267    
30 Apr 2022 23:53:30.886    30 Apr 2022 23:54:46.167      75.281474716    
01 May 2022 01:27:48.690    01 May 2022 01:35:57.648      488.95756274    
01 May 2022 14:54:07.357    01 May 2022 15:01:20.350      432.99312171    
01 May 2022 16:32:15.061    01 May 2022 16:38:04.482      349.42176224    
02 May 2022 00:47:59.663    02 May 2022 00:56:06.221      486.55839394    
02 May 2022 14:14:49.850    02 May 2022 14:21:02.625      372.77427904    
02 May 2022 15:51:48.198    02 May 2022 15:58:40.171      411.97301595    
03 May 2022 00:08:16.513    03 May 2022 00:16:04.118      467.60515643    
03 May 2022 01:47:10.214    03 May 2022 01:51:31.987      261.77231341    
03 May 2022 13:35:55.202    03 May 2022 13:40:21.366      266.16398643    
03 May 2022 15:11:33.579    03 May 2022 15:19:05.133      451.55364767    
03 May 2022 23:28:39.633    03 May 2022 23:35:50.569      430.93622373    
04 May 2022 01:06:25.365    04 May 2022 01:12:39.546      374.18098566    
04 May 2022 14:31:28.651    04 May 2022 14:39:21.549      472.89742995    
04 May 2022 22:49:10.806    04 May 2022 22:55:23.407      372.60083682    
05 May 2022 00:26:03.371    05 May 2022 00:33:20.910      437.53899294    
05 May 2022 13:51:32.508    05 May 2022 13:59:29.962      477.45417261    
05 May 2022 22:09:55.528    05 May 2022 22:14:36.747      281.21990488    
05 May 2022 23:45:53.339    05 May 2022 23:53:46.623      473.28440105    
06 May 2022 13:11:45.240    06 May 2022 13:19:29.927      464.68628333    
06 May 2022 14:51:13.440    06 May 2022 14:55:11.364      237.92349764    
06 May 2022 21:31:28.126    06 May 2022 21:32:55.874      87.748090108    
06 May 2022 23:05:51.506    06 May 2022 23:14:00.107      488.60112136    
07 May 2022 12:32:08.029    07 May 2022 12:39:19.920      431.89110094    
07 May 2022 14:10:18.270    07 May 2022 14:16:00.981      342.71070964    
07 May 2022 22:25:56.236    07 May 2022 22:34:02.644      486.40779565    
08 May 2022 11:52:44.073    08 May 2022 11:58:56.408      372.33479270    
08 May 2022 13:29:44.194    08 May 2022 13:36:31.506      407.31253718    
08 May 2022 21:46:06.988    08 May 2022 21:53:54.418      467.42946744    
08 May 2022 23:25:02.010    08 May 2022 23:29:19.748      257.73863263    
09 May 2022 11:13:43.014    09 May 2022 11:18:09.417      266.40250103    
09 May 2022 12:49:22.819    09 May 2022 12:56:50.963      448.14393001    
09 May 2022 21:06:24.158    09 May 2022 21:13:34.664      430.50667718    
09 May 2022 22:44:10.095    09 May 2022 22:50:22.241      372.14644065    
10 May 2022 12:09:11.401    10 May 2022 12:17:01.734      470.33299254    
10 May 2022 20:26:49.569    10 May 2022 20:33:01.185      371.61656334    
10 May 2022 22:03:41.772    10 May 2022 22:10:57.897      436.12420763    
11 May 2022 11:29:08.967    11 May 2022 11:37:04.431      475.46461107    
11 May 2022 19:47:28.888    11 May 2022 19:52:07.931      279.04264351    
11 May 2022 21:23:25.705    11 May 2022 21:31:17.714      472.00904209    
12 May 2022 10:49:15.591    12 May 2022 10:56:58.635      463.04455987    
12 May 2022 12:28:45.072    12 May 2022 12:32:37.859      232.78680879    
12 May 2022 19:08:59.910    12 May 2022 19:10:16.729      76.819412084    
12 May 2022 20:43:18.035    12 May 2022 20:51:25.213      487.17772962    
13 May 2022 10:09:32.463    13 May 2022 10:16:42.816      430.35315665    
13 May 2022 11:47:42.788    13 May 2022 11:53:22.791      340.00303127    
13 May 2022 20:03:17.102    13 May 2022 20:11:21.706      484.60420675    
14 May 2022 09:30:02.842    14 May 2022 09:36:13.382      370.53993344    
14 May 2022 11:07:02.387    14 May 2022 11:13:48.005      405.61840944    
14 May 2022 19:23:22.369    14 May 2022 19:31:07.375      465.00526420    
14 May 2022 21:02:16.006    14 May 2022 21:06:33.239      257.23260163    
15 May 2022 08:50:56.651    15 May 2022 08:55:20.076      263.42502994    
15 May 2022 10:26:35.004    15 May 2022 10:34:01.998      446.99378317    
15 May 2022 18:43:34.272    15 May 2022 18:50:41.414      427.14265021    
15 May 2022 20:21:18.482    15 May 2022 20:27:29.966      371.48390306    
16 May 2022 09:46:17.794    16 May 2022 09:54:07.244      469.44943517    
16 May 2022 18:03:54.754    16 May 2022 18:10:01.502      366.74827446    
16 May 2022 19:40:44.736    16 May 2022 19:47:59.799      435.06314732    
17 May 2022 09:06:09.761    17 May 2022 09:14:04.378      474.61738957    
17 May 2022 17:24:29.970    17 May 2022 17:29:01.094      271.12409833    
17 May 2022 19:00:23.384    17 May 2022 19:08:13.780      470.39593068    
18 May 2022 08:26:10.981    18 May 2022 08:33:52.966      461.98480809    
18 May 2022 10:05:38.261    18 May 2022 10:09:32.997      234.73629813    
18 May 2022 16:46:16.032    18 May 2022 16:46:43.689      27.656786784    
18 May 2022 18:20:10.559    18 May 2022 18:28:15.423      484.86421056    
19 May 2022 07:46:22.684    19 May 2022 07:53:31.424      428.73939554    
19 May 2022 09:24:30.662    19 May 2022 09:30:12.362      341.70037421    
19 May 2022 17:40:04.609    19 May 2022 17:48:06.023      481.41396524    
20 May 2022 07:06:48.260    20 May 2022 07:12:56.014      367.75371213    
20 May 2022 08:43:44.965    20 May 2022 08:50:32.122      407.15646279    
20 May 2022 17:00:05.022    20 May 2022 17:07:45.714      460.69241229    
20 May 2022 18:38:54.818    20 May 2022 18:43:14.944      260.12622089    
21 May 2022 06:27:38.243    21 May 2022 06:31:55.850      257.60664437    
21 May 2022 08:03:12.381    21 May 2022 08:10:40.678      448.29675558    
21 May 2022 16:20:12.303    21 May 2022 16:27:13.606      421.30344745    
21 May 2022 17:57:53.059    21 May 2022 18:04:05.302      372.24305518    
22 May 2022 07:22:50.082    22 May 2022 07:30:40.470      470.38782685    
22 May 2022 15:40:28.596    22 May 2022 15:46:27.154      358.55805472    
22 May 2022 17:17:14.692    22 May 2022 17:24:29.211      434.51920697    
23 May 2022 06:42:37.086    23 May 2022 06:50:32.093      475.00710532    
23 May 2022 15:01:00.903    23 May 2022 15:05:18.946      258.04335997    
23 May 2022 16:36:48.662    23 May 2022 16:44:37.363      468.70046927    
24 May 2022 06:02:33.506    24 May 2022 06:10:15.060      461.55373991    
24 May 2022 07:41:55.211    24 May 2022 07:45:58.850      243.63911301    
24 May 2022 15:56:31.178    24 May 2022 16:04:33.175      481.99645083    
25 May 2022 05:22:40.651    25 May 2022 05:29:47.689      427.03815942    
25 May 2022 07:00:43.899    25 May 2022 07:06:31.614      347.71461500    
25 May 2022 15:16:20.630    25 May 2022 15:24:17.875      477.24521742    
26 May 2022 04:43:02.129    26 May 2022 04:49:05.999      363.86924725    
26 May 2022 06:19:53.736    26 May 2022 06:26:45.555      411.81909529    
26 May 2022 14:36:16.561    26 May 2022 14:43:51.525      454.96337822    
26 May 2022 16:15:00.267    26 May 2022 16:19:26.749      266.48148276    
27 May 2022 04:03:49.524    27 May 2022 04:07:58.038      248.51386151    
27 May 2022 05:39:16.536    27 May 2022 05:46:48.448      451.91201898    
27 May 2022 13:56:19.587    27 May 2022 14:03:13.101      413.51411036    
27 May 2022 15:33:55.292    27 May 2022 15:40:09.983      374.69179278    
28 May 2022 04:58:49.614    28 May 2022 05:06:42.578      472.96422356    
28 May 2022 13:16:32.151    28 May 2022 13:22:19.740      347.58876543    
28 May 2022 14:53:12.794    28 May 2022 15:00:27.638      434.84462954    
29 May 2022 04:18:32.058    29 May 2022 04:26:28.453      476.39417503    
29 May 2022 12:37:02.594    29 May 2022 12:41:02.671      240.07632178    
29 May 2022 14:12:42.388    29 May 2022 14:20:29.717      467.32947553    
30 May 2022 03:38:24.058    30 May 2022 03:46:05.494      461.43599764    
30 May 2022 05:17:37.141    30 May 2022 05:21:55.630      258.48901392    
30 May 2022 13:32:20.445    30 May 2022 13:40:19.463      479.01819614    
31 May 2022 02:58:27.057    31 May 2022 03:05:31.876      424.81917660    
31 May 2022 04:36:23.214    31 May 2022 04:42:20.751      357.53706474    
31 May 2022 12:52:05.441    31 May 2022 12:59:58.005      472.56439640    
01 Jun 2022 02:18:45.018    01 Jun 2022 02:24:43.256      358.23736803    
01 Jun 2022 03:55:29.135    01 Jun 2022 04:02:28.309      419.17400127    
01 Jun 2022 12:11:57.010    01 Jun 2022 12:19:25.303      448.29312988    
01 Jun 2022 13:50:32.481    01 Jun 2022 13:55:09.083      276.60232218    
02 Jun 2022 01:39:31.262    02 Jun 2022 01:43:25.936      234.67330027    
02 Jun 2022 03:14:47.698    02 Jun 2022 03:22:25.101      457.40297127    
02 Jun 2022 11:31:55.928    02 Jun 2022 11:38:40.165      404.23717793    
02 Jun 2022 13:09:25.015    02 Jun 2022 13:15:44.294      379.27955078    
03 Jun 2022 02:34:16.459    03 Jun 2022 02:42:13.162      476.70303223    
03 Jun 2022 10:52:05.067    03 Jun 2022 10:57:39.293      334.22570424    
03 Jun 2022 12:28:38.681    03 Jun 2022 12:35:55.185      436.50405683    
04 Jun 2022 01:53:54.638    04 Jun 2022 02:01:52.876      478.23887999    
04 Jun 2022 03:34:58.525    04 Jun 2022 03:36:09.796      71.270865120    
04 Jun 2022 10:12:34.871    04 Jun 2022 10:16:11.812      216.94107932    
04 Jun 2022 11:48:04.054    04 Jun 2022 11:55:50.798      466.74406329    
05 Jun 2022 01:13:42.545    05 Jun 2022 01:21:23.543      460.99789588    
05 Jun 2022 02:52:44.377    05 Jun 2022 02:57:22.149      277.77201163    
05 Jun 2022 11:07:37.753    05 Jun 2022 11:15:34.131      476.37861895    
06 Jun 2022 00:33:41.834    06 Jun 2022 00:40:43.132      421.29863771    
06 Jun 2022 02:11:28.549    06 Jun 2022 02:17:38.865      370.31630982    
06 Jun 2022 10:27:18.383    06 Jun 2022 10:35:06.184      467.80124456    
06 Jun 2022 23:53:57.009    06 Jun 2022 23:59:46.766      349.75699384    
07 Jun 2022 01:30:31.041    07 Jun 2022 01:37:39.541      428.50080110    
07 Jun 2022 09:47:05.709    07 Jun 2022 09:54:26.790      441.08095786    
07 Jun 2022 11:25:30.953    07 Jun 2022 11:30:21.622      290.66887514    
07 Jun 2022 23:14:44.369    07 Jun 2022 23:18:17.775      213.40530622    
08 Jun 2022 00:49:45.775    08 Jun 2022 00:57:29.848      464.07293516    
08 Jun 2022 09:07:00.725    08 Jun 2022 09:13:34.541      393.81562475    
08 Jun 2022 10:44:21.661    08 Jun 2022 10:50:48.042      386.38126273    
09 Jun 2022 00:09:10.625    09 Jun 2022 00:17:11.515      480.88980984    
09 Jun 2022 08:27:06.897    09 Jun 2022 08:32:25.549      318.65197340    
09 Jun 2022 10:03:31.861    09 Jun 2022 10:10:51.738      439.87781078    
09 Jun 2022 23:28:44.980    09 Jun 2022 23:36:44.761      479.78131499    
10 Jun 2022 01:09:14.645    10 Jun 2022 01:11:32.349      137.70474996    
10 Jun 2022 07:47:38.095    10 Jun 2022 07:50:45.518      187.42347577    
10 Jun 2022 09:22:53.293    10 Jun 2022 09:30:40.596      467.30374141    
10 Jun 2022 22:48:29.324    10 Jun 2022 22:56:08.723      459.39884313    
11 Jun 2022 00:27:17.741    11 Jun 2022 00:32:17.439      299.69871357    
11 Jun 2022 08:42:22.892    11 Jun 2022 08:50:17.298      474.40693978    
11 Jun 2022 22:08:25.602    11 Jun 2022 22:15:21.082      415.47935066    
11 Jun 2022 23:46:00.594    11 Jun 2022 23:52:25.506      384.91155887    
12 Jun 2022 08:01:59.432    12 Jun 2022 08:09:42.679      463.24667009    
12 Jun 2022 09:42:02.151    12 Jun 2022 09:43:48.962      106.81145608    
12 Jun 2022 21:28:39.136    12 Jun 2022 21:34:16.146      337.01012512    
12 Jun 2022 23:05:00.254    12 Jun 2022 23:12:19.099      438.84550428    
13 Jun 2022 07:21:42.841    13 Jun 2022 07:28:56.407      433.56619118    
13 Jun 2022 08:59:56.165    13 Jun 2022 09:05:04.585      308.42071917    
13 Jun 2022 20:49:31.783    13 Jun 2022 20:52:31.691      179.90820555    
13 Jun 2022 22:24:11.748    13 Jun 2022 22:32:02.787      471.03875183    
14 Jun 2022 06:41:34.392    14 Jun 2022 06:47:56.794      382.40127055    
14 Jun 2022 08:18:45.729    14 Jun 2022 08:25:21.798      396.06868692    
14 Jun 2022 21:43:33.291    14 Jun 2022 21:51:37.955      484.66372130    
15 Jun 2022 06:01:38.365    15 Jun 2022 06:06:39.131      300.76566614    
15 Jun 2022 07:37:52.989    15 Jun 2022 07:45:18.078      445.08962118    
15 Jun 2022 21:03:04.473    15 Jun 2022 21:11:04.622      480.14909519    
15 Jun 2022 22:43:07.578    15 Jun 2022 22:46:14.625      187.04744809    
16 Jun 2022 05:22:14.820    16 Jun 2022 05:24:42.926      148.10654805    
16 Jun 2022 06:57:10.930    16 Jun 2022 07:05:00.060      469.12952234    
16 Jun 2022 20:22:45.994    16 Jun 2022 20:30:21.703      455.70915031    
16 Jun 2022 22:01:19.250    16 Jun 2022 22:06:41.762      322.51215004    
17 Jun 2022 06:16:36.853    17 Jun 2022 06:24:30.053      473.19985488    
17 Jun 2022 19:42:40.204    17 Jun 2022 19:49:26.469      406.26505305    
17 Jun 2022 21:20:01.274    17 Jun 2022 21:26:41.347      400.07329801    
18 Jun 2022 05:36:09.729    18 Jun 2022 05:43:48.685      458.95592534    
18 Jun 2022 07:15:40.348    18 Jun 2022 07:18:28.621      168.27333856    
18 Jun 2022 19:02:53.681    18 Jun 2022 19:08:11.964      318.28345862    
18 Jun 2022 20:38:58.725    18 Jun 2022 20:46:27.893      449.16819680    
19 Jun 2022 04:55:49.680    19 Jun 2022 05:02:55.416      425.73597817    
19 Jun 2022 06:33:49.781    19 Jun 2022 06:39:18.892      329.11177918    
19 Jun 2022 18:24:01.207    19 Jun 2022 18:26:03.024      121.81701207    
19 Jun 2022 19:58:07.609    19 Jun 2022 20:06:04.978      477.36867028    
20 Jun 2022 04:15:38.338    20 Jun 2022 04:21:48.183      369.84518641    
20 Jun 2022 05:52:38.734    20 Jun 2022 05:59:26.760      408.02588010    
20 Jun 2022 19:17:26.484    20 Jun 2022 19:25:33.634      487.15001653    
21 Jun 2022 03:35:41.140    21 Jun 2022 03:40:21.107      279.96739709    
21 Jun 2022 05:11:43.553    21 Jun 2022 05:19:15.488      451.93437509    
21 Jun 2022 18:36:55.162    21 Jun 2022 18:44:53.642      478.47977621    
21 Jun 2022 20:16:34.250    21 Jun 2022 20:20:22.934      228.68409109    
22 Jun 2022 02:56:33.026    22 Jun 2022 02:57:58.796      85.769405030    
22 Jun 2022 04:30:58.440    22 Jun 2022 04:38:50.478      472.03791785    
22 Jun 2022 17:56:34.619    22 Jun 2022 18:04:03.627      449.00792590    
22 Jun 2022 19:34:51.232    22 Jun 2022 19:40:36.004      344.77182078    
23 Jun 2022 03:50:21.083    23 Jun 2022 03:58:13.635      472.55135615    
23 Jun 2022 17:16:27.779    23 Jun 2022 17:23:00.273      392.49362585    
23 Jun 2022 18:53:32.702    23 Jun 2022 19:00:27.395      414.69301289    
24 Jun 2022 03:09:50.678    24 Jun 2022 03:17:25.342      454.66403930    
24 Jun 2022 04:48:54.811    24 Jun 2022 04:52:33.903      219.09154637    
24 Jun 2022 16:36:43.268    24 Jun 2022 16:41:34.557      291.28879798    
24 Jun 2022 18:12:28.394    24 Jun 2022 18:20:06.943      458.54954333    
25 Jun 2022 02:29:27.586    25 Jun 2022 02:36:24.802      417.21553492    
25 Jun 2022 04:07:13.471    25 Jun 2022 04:13:05.224      351.75282924    
25 Jun 2022 17:31:35.137    25 Jun 2022 17:39:37.389      482.25159837    
26 Jun 2022 01:49:13.916    26 Jun 2022 01:55:09.456      355.53978912    
26 Jun 2022 03:26:02.034    26 Jun 2022 03:33:03.670      421.63619434    


Number of events : 214


Observer: Ireland
Start Time (UTC)            Stop Time (UTC)               Duration (s)         
27 Apr 2022 13:10:46.482    27 Apr 2022 13:18:41.833      475.35079907    
27 Apr 2022 14:48:29.026    27 Apr 2022 14:54:50.276      381.24969418    
28 Apr 2022 09:17:15.808    28 Apr 2022 09:24:11.717      415.90856498    
28 Apr 2022 10:53:45.604    28 Apr 2022 11:01:44.910      479.30686983    
28 Apr 2022 12:30:59.737    28 Apr 2022 12:38:58.904      479.16694590    
28 Apr 2022 14:08:34.268    28 Apr 2022 14:15:24.311      410.04313115    
29 Apr 2022 08:37:47.820    29 Apr 2022 08:44:16.762      388.94173717    
29 Apr 2022 10:14:01.821    29 Apr 2022 10:21:56.842      475.02088894    
29 Apr 2022 11:51:12.342    29 Apr 2022 11:59:13.781      481.43909649    
29 Apr 2022 13:28:41.220    29 Apr 2022 13:35:52.684      431.46325486    
30 Apr 2022 07:58:24.444    30 Apr 2022 08:04:17.161      352.71730770    
