GMAT/Constellation/Contact/ContactLocator6.txt

Target: HSEYE6

Observer: Bahrain
Start Time (UTC)            Stop Time (UTC)               Duration (s)         
27 Apr 2022 13:22:31.968    27 Apr 2022 13:28:02.009      330.04102882    
27 Apr 2022 14:58:46.276    27 Apr 2022 15:06:33.959      467.68321783    
27 Apr 2022 21:37:44.711    27 Apr 2022 21:42:23.140      278.42891972    
27 Apr 2022 23:13:55.323    27 Apr 2022 23:22:05.814      490.49092579    
28 Apr 2022 12:46:06.109    28 Apr 2022 12:49:37.686      211.57702674    
28 Apr 2022 14:21:06.641    28 Apr 2022 14:29:10.259      483.61806589    
28 Apr 2022 21:00:59.389    28 Apr 2022 21:03:49.891      170.50260723    
28 Apr 2022 22:36:24.111    28 Apr 2022 22:44:37.305      493.19381107    
29 Apr 2022 13:43:32.010    29 Apr 2022 13:51:42.009      489.99922376    
29 Apr 2022 15:24:16.329    29 Apr 2022 15:27:08.140      171.81118336    
29 Apr 2022 21:58:55.784    29 Apr 2022 22:07:01.789      486.00432583    
29 Apr 2022 23:38:22.264    29 Apr 2022 23:42:09.263      226.99955581    
30 Apr 2022 13:06:02.487    30 Apr 2022 13:14:08.932      486.44489186    
30 Apr 2022 14:45:42.282    30 Apr 2022 14:50:20.494      278.21189527    
30 Apr 2022 21:21:30.115    30 Apr 2022 21:29:19.312      469.19698828    
30 Apr 2022 22:59:58.643    30 Apr 2022 23:05:37.738      339.09470506    
01 May 2022 12:28:38.489    01 May 2022 12:36:30.446      471.95720327    
01 May 2022 14:07:27.308    01 May 2022 14:13:14.955      347.64752310    
01 May 2022 20:44:07.155    01 May 2022 20:51:29.647      442.49281716    
01 May 2022 22:21:55.979    01 May 2022 22:28:41.992      406.01263539    
02 May 2022 11:51:20.881    02 May 2022 11:58:45.515      444.63411231    
02 May 2022 13:29:22.155    02 May 2022 13:36:00.671      398.51535377    
02 May 2022 20:06:47.313    02 May 2022 20:13:32.213      404.90010779    
02 May 2022 21:44:03.376    02 May 2022 21:51:32.748      449.37259590    
03 May 2022 11:14:11.371    03 May 2022 11:20:52.267      400.89575319    
03 May 2022 12:51:24.058    03 May 2022 12:58:40.281      436.22247769    
03 May 2022 19:29:31.636    03 May 2022 19:35:25.808      354.17282120    
03 May 2022 21:06:17.106    03 May 2022 21:14:13.564      476.45772138    
04 May 2022 10:37:13.696    04 May 2022 10:42:46.806      333.11058821    
04 May 2022 12:13:31.821    04 May 2022 12:21:14.843      463.02194257    
04 May 2022 18:52:22.696    04 May 2022 18:57:07.722      285.02510578    
04 May 2022 20:28:35.367    04 May 2022 20:36:46.070      490.70300785    
05 May 2022 10:00:39.418    05 May 2022 10:04:17.413      217.99515572    
05 May 2022 11:35:44.887    05 May 2022 11:43:44.764      479.87705193    
05 May 2022 18:15:29.146    05 May 2022 18:18:29.190      180.04362776    
05 May 2022 19:50:57.167    05 May 2022 19:59:11.089      493.92276790    
06 May 2022 10:58:03.065    06 May 2022 11:06:10.082      487.01639003    
06 May 2022 12:38:54.499    06 May 2022 12:41:29.071      154.57255854    
06 May 2022 19:13:21.956    06 May 2022 19:21:29.000      487.04401542    
06 May 2022 20:52:52.064    06 May 2022 20:56:31.201      219.13661094    
07 May 2022 10:20:26.455    07 May 2022 10:28:30.544      484.08959886    
07 May 2022 12:00:09.657    07 May 2022 12:04:38.481      268.82443990    
07 May 2022 18:35:49.499    07 May 2022 18:43:39.875      470.37567110    
07 May 2022 20:14:19.571    07 May 2022 20:19:55.135      335.56397462    
08 May 2022 09:42:55.469    08 May 2022 09:50:45.583      470.11393601    
08 May 2022 11:21:46.521    08 May 2022 11:27:27.468      340.94730264    
08 May 2022 17:58:19.845    08 May 2022 18:05:43.500      443.65534385    
08 May 2022 19:36:09.421    08 May 2022 19:42:53.514      404.09353684    
09 May 2022 09:05:30.982    09 May 2022 09:12:54.171      443.18899750    
09 May 2022 10:43:33.842    09 May 2022 10:50:07.193      393.35073087    
09 May 2022 17:20:53.414    09 May 2022 17:27:39.305      405.89146544    
09 May 2022 18:58:09.765    09 May 2022 19:05:38.031      448.26636919    
10 May 2022 08:28:14.717    10 May 2022 08:34:54.435      399.71810638    
10 May 2022 10:05:28.536    10 May 2022 10:12:40.627      432.09019806    
10 May 2022 16:43:31.270    10 May 2022 16:49:26.083      354.81252742    
10 May 2022 18:20:16.688    10 May 2022 18:28:12.445      475.75725621    
11 May 2022 07:51:10.447    11 May 2022 07:56:42.454      332.00620688    
11 May 2022 09:27:29.310    11 May 2022 09:35:08.938      459.62796737    
11 May 2022 16:06:16.043    11 May 2022 16:11:01.079      285.03634088    
11 May 2022 17:42:28.321    11 May 2022 17:50:38.464      490.14355761    
12 May 2022 07:14:29.908    12 May 2022 07:18:06.342      216.43323752    
12 May 2022 08:49:35.569    12 May 2022 08:57:32.582      477.01341610    
12 May 2022 15:29:16.650    12 May 2022 15:32:15.276      178.62548581    
12 May 2022 17:04:43.645    12 May 2022 17:12:56.948      493.30324112    
13 May 2022 08:11:47.106    13 May 2022 08:19:51.618      484.51163848    
13 May 2022 09:52:41.594    13 May 2022 09:55:06.541      144.94670267    
13 May 2022 16:27:02.100    13 May 2022 16:35:08.292      486.19145234    
13 May 2022 18:06:32.001    13 May 2022 18:10:09.660      217.65888246    
14 May 2022 07:34:04.018    14 May 2022 07:42:05.799      481.78119884    
14 May 2022 09:13:47.841    14 May 2022 09:18:11.995      264.15392202    
14 May 2022 15:49:23.450    14 May 2022 15:57:12.572      469.12243565    
14 May 2022 17:27:52.705    14 May 2022 17:33:27.699      334.99330531    
15 May 2022 06:56:26.725    15 May 2022 07:04:14.549      467.82477717    
15 May 2022 08:35:17.589    15 May 2022 08:40:55.409      337.82038683    
15 May 2022 15:11:47.752    15 May 2022 15:19:09.568      441.81607602    
15 May 2022 16:49:36.196    15 May 2022 16:56:19.867      403.67112224    
16 May 2022 06:18:56.123    16 May 2022 06:26:16.817      440.69446139    
16 May 2022 07:56:58.241    16 May 2022 08:03:29.289      391.04815742    
16 May 2022 14:34:15.453    16 May 2022 14:40:58.679      403.22595485    
16 May 2022 16:11:30.380    16 May 2022 16:18:58.099      447.71919163    
17 May 2022 05:41:33.991    17 May 2022 05:48:10.666      396.67509362    
17 May 2022 07:18:46.518    17 May 2022 07:25:56.798      430.27942220    
17 May 2022 13:56:47.686    17 May 2022 14:02:38.625      350.93853573    
17 May 2022 15:33:31.287    17 May 2022 15:41:26.201      474.91405990    
18 May 2022 05:04:24.272    18 May 2022 05:09:51.995      327.72334405    
18 May 2022 06:40:41.062    18 May 2022 06:48:19.156      458.09350420    
18 May 2022 13:19:27.297    18 May 2022 13:24:06.427      279.13054285    
18 May 2022 14:55:37.026    18 May 2022 15:03:45.894      488.86776333    
19 May 2022 04:27:39.636    19 May 2022 04:31:07.977      208.34127433    
19 May 2022 06:02:41.252    19 May 2022 06:10:36.833      475.58090463    
19 May 2022 12:42:24.484    19 May 2022 12:45:11.778      167.29412408    
19 May 2022 14:17:46.568    19 May 2022 14:25:58.036      491.46754366    
20 May 2022 05:24:46.872    20 May 2022 05:32:49.886      483.01389747    
20 May 2022 07:05:39.369    20 May 2022 07:08:04.960      145.59128308    
20 May 2022 13:39:59.352    20 May 2022 13:48:03.013      483.66136083    
20 May 2022 15:19:25.526    20 May 2022 15:23:07.666      222.14049697    
21 May 2022 04:46:58.018    21 May 2022 04:54:58.052      480.03373171    
21 May 2022 06:26:39.570    21 May 2022 06:31:04.636      265.06652709    
21 May 2022 13:02:15.143    21 May 2022 13:10:00.882      465.73858287    
21 May 2022 14:40:41.476    21 May 2022 14:46:18.631      337.15510522    
22 May 2022 04:09:15.126    22 May 2022 04:17:00.723      465.59643009    
22 May 2022 05:48:03.410    22 May 2022 05:53:42.253      338.84287770    
22 May 2022 12:24:34.021    22 May 2022 12:31:51.387      437.36622620    
22 May 2022 14:02:19.671    22 May 2022 14:09:04.333      404.66191726    
23 May 2022 03:31:39.135    23 May 2022 03:38:56.790      437.65529405    
23 May 2022 05:09:38.264    23 May 2022 05:16:10.327      392.06278366    
23 May 2022 11:46:56.479    23 May 2022 11:53:33.866      397.38714028    
23 May 2022 13:24:08.473    23 May 2022 13:31:36.234      447.76126669    
24 May 2022 02:54:11.926    24 May 2022 03:00:44.197      392.27105991    
24 May 2022 04:31:20.841    24 May 2022 04:38:32.017      431.17608991    
24 May 2022 11:09:23.773    24 May 2022 11:15:06.898      343.12473689    
24 May 2022 12:46:03.991    24 May 2022 12:53:58.046      474.05485678    
25 May 2022 02:16:57.761    25 May 2022 02:22:18.508      320.74671001    
25 May 2022 03:53:09.777    25 May 2022 04:00:48.533      458.75576927    
25 May 2022 10:31:59.157    25 May 2022 10:36:27.085      267.92772944    
25 May 2022 12:08:04.362    25 May 2022 12:16:11.449      487.08688823    
26 May 2022 01:40:11.201    26 May 2022 01:43:24.992      193.79048384    
26 May 2022 03:15:04.453    26 May 2022 03:23:00.328      475.87546965    
26 May 2022 09:54:55.618    26 May 2022 09:57:21.318      145.70035008    
26 May 2022 11:30:08.569    26 May 2022 11:38:17.272      488.70210653    
27 May 2022 02:37:04.661    27 May 2022 02:45:07.439      482.77814859    
27 May 2022 04:17:49.988    27 May 2022 04:20:27.087      157.09835642    
27 May 2022 10:52:16.067    27 May 2022 11:00:15.874      479.80770855    
27 May 2022 12:31:35.419    27 May 2022 12:35:27.480      232.06110990    
28 May 2022 01:59:10.517    28 May 2022 02:07:09.574      479.05648079    
28 May 2022 03:38:46.871    28 May 2022 03:43:18.767      271.89689451    
28 May 2022 10:14:26.643    28 May 2022 10:22:07.282      460.63933284    
28 May 2022 11:52:48.146    28 May 2022 11:58:30.187      342.04143961    
29 May 2022 01:21:22.497    29 May 2022 01:29:06.080      463.58283679    
29 May 2022 03:00:05.785    29 May 2022 03:05:50.039      344.25415518    
29 May 2022 09:36:40.418    29 May 2022 09:43:51.194      430.77644161    
29 May 2022 11:14:21.764    29 May 2022 11:21:08.980      407.21587959    
30 May 2022 00:43:41.614    30 May 2022 00:50:55.767      434.15237978    
30 May 2022 02:21:35.477    30 May 2022 02:28:12.044      396.56731534    
30 May 2022 08:58:57.967    30 May 2022 09:05:26.860      388.89246667    
30 May 2022 10:36:05.656    30 May 2022 10:43:34.293      448.63681138    
31 May 2022 00:06:09.928    31 May 2022 00:12:36.402      386.47432543    
31 May 2022 01:43:12.849    31 May 2022 01:50:27.743      434.89334903    
31 May 2022 08:21:20.751    31 May 2022 08:26:52.659      331.90874808    
31 May 2022 09:57:56.139    31 May 2022 10:05:49.631      473.49221305    
31 May 2022 23:28:52.228    31 May 2022 23:34:03.024      310.79610265    
01 Jun 2022 01:04:56.610    01 Jun 2022 01:12:38.279      461.66885917    
01 Jun 2022 07:43:52.694    01 Jun 2022 07:48:04.526      251.83195167    
01 Jun 2022 09:19:51.429    01 Jun 2022 09:27:56.597      485.16743921    
01 Jun 2022 22:52:06.618    01 Jun 2022 22:54:57.362      170.74405256    
02 Jun 2022 00:26:46.179    02 Jun 2022 00:34:44.069      477.88990941    
02 Jun 2022 07:06:52.848    02 Jun 2022 07:08:43.299      110.45087100    
02 Jun 2022 08:41:50.558    02 Jun 2022 08:49:55.976      485.41784459    
02 Jun 2022 23:48:41.387    02 Jun 2022 23:56:45.119      483.73166132    
03 Jun 2022 01:29:15.229    03 Jun 2022 01:32:12.930      177.70065742    
03 Jun 2022 08:03:53.017    03 Jun 2022 08:11:48.096      475.07876304    
03 Jun 2022 09:43:02.893    03 Jun 2022 09:47:09.927      247.03340975    
03 Jun 2022 23:10:42.394    03 Jun 2022 23:18:41.098      478.70413031    
04 Jun 2022 00:50:10.729    04 Jun 2022 00:54:55.042      284.31395902    
04 Jun 2022 07:25:58.641    04 Jun 2022 07:33:32.946      454.30442516    
04 Jun 2022 09:04:13.583    04 Jun 2022 09:10:03.423      349.83924640    
04 Jun 2022 22:32:49.744    04 Jun 2022 22:40:31.297      461.55330206    
05 Jun 2022 00:11:25.634    05 Jun 2022 00:17:19.462      353.82826935    
05 Jun 2022 06:48:07.615    05 Jun 2022 06:55:10.167      422.55163804    
05 Jun 2022 08:25:43.281    05 Jun 2022 08:32:34.921      411.64001509    
05 Jun 2022 21:55:04.571    05 Jun 2022 22:02:14.414      429.84299201    
05 Jun 2022 23:32:50.849    05 Jun 2022 23:39:35.178      404.32873503    
06 Jun 2022 06:10:20.638    06 Jun 2022 06:16:38.897      378.25987340    
06 Jun 2022 07:47:22.764    06 Jun 2022 07:54:53.472      450.70842871    
06 Jun 2022 21:17:29.199    06 Jun 2022 21:23:47.960      378.76110252    
06 Jun 2022 22:54:23.638    06 Jun 2022 23:01:44.801      441.16301083    
07 Jun 2022 05:32:39.459    07 Jun 2022 05:37:57.236      317.77698694    
07 Jun 2022 07:09:08.656    07 Jun 2022 07:17:02.280      473.62374900    
07 Jun 2022 20:40:09.253    07 Jun 2022 20:45:06.149      296.89582003    
07 Jun 2022 22:16:02.835    07 Jun 2022 22:23:49.353      466.51867821    
08 Jun 2022 04:55:09.067    08 Jun 2022 04:59:00.069      231.00187266    
08 Jun 2022 06:30:59.298    08 Jun 2022 06:39:02.831      483.53339337    
08 Jun 2022 20:03:30.146    08 Jun 2022 20:05:43.408      133.26266608    
08 Jun 2022 21:37:47.931    08 Jun 2022 21:45:49.189      481.25856256    
09 Jun 2022 04:18:29.326    09 Jun 2022 04:19:07.429      38.102669385    
09 Jun 2022 05:52:53.789    09 Jun 2022 06:00:55.851      482.06140785    
09 Jun 2022 20:59:38.810    09 Jun 2022 21:07:44.263      485.45260319    
09 Jun 2022 22:39:58.242    09 Jun 2022 22:43:22.494      204.25186059    
10 Jun 2022 05:14:51.675    10 Jun 2022 05:22:41.618      469.94255008    
10 Jun 2022 06:53:50.021    10 Jun 2022 06:58:16.436      266.41562395    
10 Jun 2022 20:21:35.696    10 Jun 2022 20:29:34.188      478.49211395    
10 Jun 2022 22:00:53.549    10 Jun 2022 22:05:54.730      301.18169154    
11 Jun 2022 04:36:52.845    11 Jun 2022 04:44:20.067      447.22249503    
11 Jun 2022 06:14:59.763    11 Jun 2022 06:21:00.351      360.58746781    
11 Jun 2022 19:43:39.220    11 Jun 2022 19:51:18.167      458.94673144    
11 Jun 2022 21:22:05.474    11 Jun 2022 21:28:12.215      366.74100452    
12 Jun 2022 03:58:57.564    12 Jun 2022 04:05:50.762      413.19764470    
12 Jun 2022 05:36:26.370    12 Jun 2022 05:43:24.498      418.12807366    
12 Jun 2022 19:05:50.680    12 Jun 2022 19:12:54.734      424.05452417    
12 Jun 2022 20:43:27.122    12 Jun 2022 20:50:21.735      414.61360368    
13 Jun 2022 03:21:06.686    13 Jun 2022 03:27:12.683      365.99711239    
13 Jun 2022 04:58:02.152    13 Jun 2022 05:05:36.391      454.23903783    
13 Jun 2022 18:28:12.778    13 Jun 2022 18:34:21.018      368.24012854    
13 Jun 2022 20:04:56.185    13 Jun 2022 20:12:25.464      449.27930217    
14 Jun 2022 02:43:22.362    14 Jun 2022 02:48:23.530      301.16736885    
14 Jun 2022 04:19:44.106    14 Jun 2022 04:27:38.860      474.75412471    
14 Jun 2022 17:50:52.468    14 Jun 2022 17:55:29.897      277.42906470    
14 Jun 2022 19:26:31.654    14 Jun 2022 19:34:24.257      472.60269237    
15 Jun 2022 02:05:51.265    15 Jun 2022 02:09:16.495      205.23002901    
15 Jun 2022 03:41:30.715    15 Jun 2022 03:49:33.233      482.51795053    
15 Jun 2022 17:14:38.948    15 Jun 2022 17:15:32.001      53.052461939    
15 Jun 2022 18:48:13.105    15 Jun 2022 18:56:18.374      485.26953771    
15 Jun 2022 20:30:00.533    15 Jun 2022 20:30:44.237      43.703522882    
16 Jun 2022 03:03:21.160    16 Jun 2022 03:11:20.146      478.98525463    
16 Jun 2022 04:43:36.496    16 Jun 2022 04:45:27.082      110.58551621    
16 Jun 2022 18:10:00.485    16 Jun 2022 18:18:07.694      487.20893136    
16 Jun 2022 19:50:03.839    16 Jun 2022 19:53:57.392      233.55306237    
17 Jun 2022 02:25:15.043    17 Jun 2022 02:32:59.805      464.76180407    
17 Jun 2022 04:04:00.508    17 Jun 2022 04:08:49.711      289.20252415    
17 Jun 2022 17:31:54.088    17 Jun 2022 17:39:51.741      477.65244307    
17 Jun 2022 19:10:59.483    17 Jun 2022 19:16:20.279      320.79624392    
18 Jun 2022 01:47:12.313    18 Jun 2022 01:54:32.069      439.75542221    
18 Jun 2022 03:25:10.069    18 Jun 2022 03:31:24.098      374.02874536    
18 Jun 2022 16:53:54.659    18 Jun 2022 17:01:29.588      454.92871832    
18 Jun 2022 18:32:09.276    18 Jun 2022 18:38:30.988      381.71129962    
19 Jun 2022 01:09:13.331    19 Jun 2022 01:15:56.389      403.05780141    
19 Jun 2022 02:46:34.295    19 Jun 2022 02:53:40.940      426.64491007    
19 Jun 2022 16:16:03.716    19 Jun 2022 16:22:59.532      415.81628777    
19 Jun 2022 17:53:28.141    19 Jun 2022 18:00:34.464      426.32244935    
20 Jun 2022 00:31:19.146    20 Jun 2022 00:37:11.535      352.38933472    
20 Jun 2022 02:08:06.969    20 Jun 2022 02:15:46.259      459.29007976    
20 Jun 2022 15:38:24.523    20 Jun 2022 15:44:18.120      353.59699389    
20 Jun 2022 17:14:54.195    20 Jun 2022 17:22:32.432      458.23698499    
20 Jun 2022 23:53:32.467    20 Jun 2022 23:58:14.630      282.16251726    
21 Jun 2022 01:29:45.480    21 Jun 2022 01:37:42.470      476.98980208    
21 Jun 2022 15:01:06.315    21 Jun 2022 15:05:15.933      249.61828999    
21 Jun 2022 16:36:26.597    21 Jun 2022 16:44:25.563      478.96644312    
21 Jun 2022 23:16:02.880    21 Jun 2022 23:18:55.945      173.06499652    
22 Jun 2022 00:51:28.478    22 Jun 2022 00:59:30.720      482.24281749    
22 Jun 2022 15:58:05.014    22 Jun 2022 16:06:14.004      488.99039204    
22 Jun 2022 17:39:07.717    22 Jun 2022 17:41:19.177      131.46080500    
23 Jun 2022 00:13:15.231    23 Jun 2022 00:21:11.535      476.30387899    
23 Jun 2022 01:52:58.045    23 Jun 2022 01:55:53.527      175.48202758    
23 Jun 2022 15:19:49.471    23 Jun 2022 15:27:57.535      488.06392194    
23 Jun 2022 16:59:35.779    23 Jun 2022 17:03:59.015      263.23607722    
23 Jun 2022 23:35:05.411    23 Jun 2022 23:42:45.033      459.62230833    
24 Jun 2022 01:13:37.187    24 Jun 2022 01:18:51.571      314.38417349    
24 Jun 2022 14:41:40.361    24 Jun 2022 14:49:35.572      475.21047596    
24 Jun 2022 16:20:31.657    24 Jun 2022 16:26:13.130      341.47303593    
24 Jun 2022 22:56:59.047    24 Jun 2022 23:04:10.982      431.93438173    
25 Jun 2022 00:34:46.732    25 Jun 2022 00:41:16.449      389.71682318    
25 Jun 2022 14:03:38.584    25 Jun 2022 14:11:07.014      448.42921940    
25 Jun 2022 15:41:39.674    25 Jun 2022 15:48:17.077      397.40314898    
25 Jun 2022 22:18:56.625    25 Jun 2022 22:25:28.693      392.06854329    
25 Jun 2022 23:56:08.849    26 Jun 2022 00:03:25.790      436.94095442    


Number of events : 245


Observer: Cape_Town
Start Time (UTC)            Stop Time (UTC)               Duration (s)         
27 Apr 2022 13:03:22.530    27 Apr 2022 13:11:25.509      482.97853254    
28 Apr 2022 04:13:56.262    28 Apr 2022 04:21:15.787      439.52466884    
28 Apr 2022 05:51:22.752    28 Apr 2022 05:58:59.340      456.58860515    
28 Apr 2022 07:32:15.273    28 Apr 2022 07:35:15.640      180.36706571    
28 Apr 2022 10:48:50.483    28 Apr 2022 10:54:59.351      368.86729617    
28 Apr 2022 12:25:49.743    28 Apr 2022 12:34:00.638      490.89530212    
29 Apr 2022 03:36:50.490    29 Apr 2022 03:43:28.824      398.33370997    
29 Apr 2022 05:13:39.335    29 Apr 2022 05:21:34.175      474.84055459    
29 Apr 2022 06:54:04.093    29 Apr 2022 06:58:01.857      237.76398237    
29 Apr 2022 10:11:30.222    29 Apr 2022 10:17:00.875      330.65281356    
29 Apr 2022 11:48:18.597    29 Apr 2022 11:56:29.988      491.39132324    
29 Apr 2022 13:27:43.676    29 Apr 2022 13:31:28.473      224.79764315    
30 Apr 2022 02:59:54.704    30 Apr 2022 03:05:31.808      337.10458246    
30 Apr 2022 04:35:58.930    30 Apr 2022 04:44:06.485      487.55469618    
30 Apr 2022 06:15:56.799    30 Apr 2022 06:20:44.159      287.36015899    
30 Apr 2022 09:34:10.371    30 Apr 2022 09:38:57.773      287.40211241    
30 Apr 2022 11:10:48.639    30 Apr 2022 11:18:53.920      485.28071152    
30 Apr 2022 12:49:26.222    30 Apr 2022 12:54:54.293      328.07063553    
01 May 2022 02:23:17.205    01 May 2022 02:27:16.342      239.13751898    
01 May 2022 03:58:21.743    01 May 2022 04:06:36.018      494.27486410    
01 May 2022 05:37:52.451    01 May 2022 05:43:23.675      331.22398609    
01 May 2022 08:56:51.326    01 May 2022 09:00:49.779      238.45335325    
01 May 2022 10:33:19.537    01 May 2022 10:41:12.685      473.14815311    
01 May 2022 12:11:26.750    01 May 2022 12:17:58.460      391.71030305    
02 May 2022 03:20:48.049    02 May 2022 03:29:02.438      494.38851862    
02 May 2022 04:59:50.777    02 May 2022 05:06:00.824      370.04667866    
02 May 2022 08:19:34.142    02 May 2022 08:22:36.009      181.86630100    
02 May 2022 09:55:51.044    02 May 2022 10:03:26.469      455.42511914    
02 May 2022 11:33:35.817    02 May 2022 11:40:50.312      434.49455663    
03 May 2022 02:43:18.238    03 May 2022 02:51:25.288      487.04995075    
03 May 2022 04:21:51.735    03 May 2022 04:28:35.761      404.02635348    
03 May 2022 07:42:22.633    03 May 2022 07:44:12.872      110.23975705    
03 May 2022 09:18:22.978    03 May 2022 09:25:35.412      432.43345680    
03 May 2022 10:55:50.029    03 May 2022 11:03:33.135      463.10551370    
04 May 2022 02:05:52.878    04 May 2022 02:13:43.920      471.04204403    
04 May 2022 03:43:55.375    04 May 2022 03:51:08.512      433.13656667    
04 May 2022 05:25:21.809    04 May 2022 05:27:07.114      105.30477483    
04 May 2022 08:40:55.217    04 May 2022 08:47:39.624      404.40753729    
04 May 2022 10:18:07.667    04 May 2022 10:26:08.548      480.88118706    
05 May 2022 01:28:32.858    05 May 2022 01:35:57.365      444.50671377    
05 May 2022 03:06:01.796    05 May 2022 03:13:39.019      457.22328097    
05 May 2022 04:46:55.275    05 May 2022 04:49:54.933      179.65767287    
05 May 2022 08:03:27.695    05 May 2022 08:09:39.192      371.49684933    
05 May 2022 09:40:27.704    05 May 2022 09:48:37.482      489.77784282    
06 May 2022 00:51:19.688    06 May 2022 00:58:04.034      404.34591270    
06 May 2022 02:28:11.131    06 May 2022 02:36:07.169      476.03761955    
06 May 2022 04:08:36.786    06 May 2022 04:12:34.450      237.66389176    
06 May 2022 07:26:00.422    06 May 2022 07:31:34.163      333.74149312    
06 May 2022 09:02:49.466    06 May 2022 09:11:00.521      491.05499529    
06 May 2022 10:42:19.323    06 May 2022 10:45:52.350      213.02629468    
07 May 2022 00:14:16.313    07 May 2022 00:20:00.897      344.58437806    
07 May 2022 01:50:23.548    07 May 2022 01:58:32.785      489.23721289    
07 May 2022 03:30:22.252    07 May 2022 03:35:10.016      287.76395477    
07 May 2022 06:48:33.520    07 May 2022 06:53:24.514      290.99399785    
07 May 2022 08:25:12.484    07 May 2022 08:33:18.059      485.57532651    
07 May 2022 10:03:52.220    07 May 2022 10:09:14.491      322.27017822    
07 May 2022 23:37:30.409    07 May 2022 23:41:40.200      249.79081471    
08 May 2022 01:12:39.262    08 May 2022 01:20:55.628      496.36583294    
08 May 2022 02:52:10.725    08 May 2022 02:57:42.795      332.06941093    
08 May 2022 06:11:07.341    08 May 2022 06:15:10.043      242.70228980    
08 May 2022 07:47:36.416    08 May 2022 07:55:30.372      473.95607061    
08 May 2022 09:25:44.856    08 May 2022 09:32:13.239      388.38230863    
09 May 2022 00:34:58.560    09 May 2022 00:43:15.371      496.81025099    
09 May 2022 02:14:01.947    09 May 2022 02:20:13.224      371.27700605    
09 May 2022 05:33:42.804    09 May 2022 05:36:50.023      187.21833550    
09 May 2022 07:10:01.013    09 May 2022 07:17:37.666      456.65276349    
09 May 2022 08:47:46.548    09 May 2022 08:54:59.188      432.63971165    
09 May 2022 23:57:21.840    10 May 2022 00:05:31.564      489.72341681    
10 May 2022 01:35:55.886    10 May 2022 01:42:41.468      405.58165301    
10 May 2022 04:56:23.046    10 May 2022 04:58:21.563      118.51656163    
10 May 2022 06:32:26.092    10 May 2022 06:39:40.099      434.00742011    
10 May 2022 08:09:53.648    10 May 2022 08:17:35.895      462.24731830    
10 May 2022 23:19:49.680    10 May 2022 23:27:43.566      473.88599360    
11 May 2022 00:57:52.609    11 May 2022 01:05:07.560      434.95138156    
11 May 2022 02:39:16.783    11 May 2022 02:41:08.278      111.49513428    
11 May 2022 05:54:51.526    11 May 2022 06:01:37.800      406.27415139    
11 May 2022 07:32:04.346    11 May 2022 07:40:05.082      480.73586561    
11 May 2022 22:42:22.979    11 May 2022 22:49:50.415      447.43652431    
12 May 2022 00:19:52.225    12 May 2022 00:27:31.451      459.22605030    
12 May 2022 02:00:44.477    12 May 2022 02:03:48.349      183.87177695    
12 May 2022 05:17:17.247    12 May 2022 05:23:30.872      373.62538367    
12 May 2022 06:54:17.577    12 May 2022 07:02:27.731      490.15313593    
12 May 2022 22:05:03.249    12 May 2022 22:11:50.522      407.27263534    
12 May 2022 23:41:54.878    12 May 2022 23:49:53.028      478.15033661    
13 May 2022 01:22:19.577    13 May 2022 01:26:20.905      241.32864035    
13 May 2022 04:39:43.253    13 May 2022 04:45:19.386      336.13259926    
13 May 2022 06:16:32.647    13 May 2022 06:24:44.456      491.80931031    
13 May 2022 07:56:03.092    13 May 2022 07:59:34.768      211.67635984    
13 May 2022 21:27:53.444    13 May 2022 21:33:40.862      347.41815494    
13 May 2022 23:04:00.744    13 May 2022 23:12:12.118      491.37468118    
14 May 2022 00:43:58.551    14 May 2022 00:48:49.752      291.20102122    
14 May 2022 04:02:09.650    14 May 2022 04:07:03.348      293.69853049    
14 May 2022 05:38:49.071    14 May 2022 05:46:55.669      486.59850166    
14 May 2022 07:17:28.776    14 May 2022 07:22:51.331      322.55495653    
14 May 2022 20:51:01.213    14 May 2022 20:55:13.706      252.49337750    
14 May 2022 22:26:10.044    14 May 2022 22:34:28.478      498.43401317    
15 May 2022 00:05:40.569    15 May 2022 00:11:15.951      335.38214976    
15 May 2022 03:24:36.742    15 May 2022 03:28:42.609      245.86696661    
15 May 2022 05:01:06.501    15 May 2022 05:09:01.661      475.15956092    
15 May 2022 06:39:14.718    15 May 2022 06:45:44.089      389.37053501    
15 May 2022 21:48:23.073    15 May 2022 21:56:41.776      498.70302418    
15 May 2022 23:27:25.415    15 May 2022 23:33:39.902      374.48692282    
16 May 2022 02:47:05.336    16 May 2022 02:50:16.563      191.22687686    
16 May 2022 04:23:24.678    16 May 2022 04:31:02.643      457.96461767    
16 May 2022 06:01:09.923    16 May 2022 06:08:23.943      434.02043742    
16 May 2022 21:10:40.235    16 May 2022 21:18:51.551      491.31652638    
16 May 2022 22:49:13.081    16 May 2022 22:56:01.750      408.66925131    
17 May 2022 02:09:38.080    17 May 2022 02:11:42.815      124.73505096    
17 May 2022 03:45:43.411    17 May 2022 03:52:58.781      435.37014815    
17 May 2022 05:23:10.672    17 May 2022 05:30:54.519      463.84715152    
17 May 2022 20:33:02.120    17 May 2022 20:40:57.146      475.02545634    
17 May 2022 22:11:03.642    17 May 2022 22:18:21.515      437.87251557    
17 May 2022 23:52:23.447    17 May 2022 23:54:25.702      122.25561674    
18 May 2022 03:08:02.565    18 May 2022 03:14:50.210      407.64479247    
18 May 2022 04:45:15.125    18 May 2022 04:53:17.561      482.43526169    
18 May 2022 19:55:29.649    18 May 2022 20:02:57.564      447.91480105    
18 May 2022 21:32:57.215    18 May 2022 21:40:39.134      461.91926737    
18 May 2022 23:13:46.629    18 May 2022 23:16:57.813      191.18440199    
19 May 2022 02:30:22.061    19 May 2022 02:36:37.038      374.97785037    
19 May 2022 04:07:22.200    19 May 2022 04:15:34.060      491.85928929    
19 May 2022 19:18:04.386    19 May 2022 19:24:51.159      406.77255979    
19 May 2022 20:54:53.945    19 May 2022 21:02:54.485      480.53976899    
19 May 2022 22:35:16.210    19 May 2022 22:39:23.576      247.36654954    
20 May 2022 01:52:41.882    20 May 2022 01:58:19.346      337.46334101    
20 May 2022 03:29:31.189    20 May 2022 03:37:44.633      493.44466813    
20 May 2022 05:08:58.114    20 May 2022 05:12:38.426      220.31192235    
20 May 2022 18:40:49.414    20 May 2022 18:46:34.759      345.34489465    
20 May 2022 20:16:54.009    20 May 2022 20:25:07.379      493.36989642    
20 May 2022 21:56:49.474    20 May 2022 22:01:45.976      296.50217212    
21 May 2022 01:15:02.115    21 May 2022 01:19:57.153      295.03840014    
21 May 2022 02:51:41.597    21 May 2022 02:59:49.692      488.09522615    
21 May 2022 04:30:19.167    21 May 2022 04:35:47.602      328.43458856    
21 May 2022 18:03:52.930    21 May 2022 18:08:00.075      247.14449564    
21 May 2022 19:38:57.632    21 May 2022 19:47:17.559      499.92702050    
21 May 2022 21:18:25.759    21 May 2022 21:24:05.898      340.13932133    
22 May 2022 00:37:23.030    22 May 2022 00:41:30.338      247.30825298    
22 May 2022 02:13:53.066    22 May 2022 02:21:49.523      476.45684191    
22 May 2022 03:51:59.648    22 May 2022 03:58:33.856      394.20747128    
22 May 2022 19:01:05.111    22 May 2022 19:09:24.673      499.56165806    
22 May 2022 20:40:04.907    22 May 2022 20:46:23.672      378.76550993    
22 May 2022 23:59:45.363    23 May 2022 00:02:58.364      193.00081269    
23 May 2022 01:36:05.328    23 May 2022 01:43:44.336      459.00761266    
23 May 2022 03:13:49.230    23 May 2022 03:21:07.411      438.18155414    
23 May 2022 18:23:16.862    23 May 2022 18:31:28.234      491.37196419    
23 May 2022 20:01:46.934    23 May 2022 20:08:39.407      412.47300287    
23 May 2022 21:43:59.750    23 May 2022 21:44:03.862      4.1119100293    
23 May 2022 23:22:11.507    23 May 2022 23:24:19.085      127.57775079    
24 May 2022 00:58:18.183    24 May 2022 01:05:34.293      436.10997736    
24 May 2022 02:35:44.311    24 May 2022 02:43:31.762      467.45124457    
24 May 2022 17:45:33.499    24 May 2022 17:53:27.547      474.04848046    
24 May 2022 19:23:31.927    24 May 2022 19:30:53.096      441.16905491    
24 May 2022 21:04:46.491    24 May 2022 21:07:00.815      134.32425413    
25 May 2022 00:20:31.490    25 May 2022 00:27:19.529      408.03929471    
25 May 2022 01:57:43.086    25 May 2022 02:05:48.604      485.51760485    
25 May 2022 17:07:55.987    25 May 2022 17:15:21.554      445.56655042    
25 May 2022 18:45:20.010    25 May 2022 18:53:04.661      464.65091966    
25 May 2022 20:26:05.537    25 May 2022 20:29:25.299      199.76134450    
25 May 2022 23:42:45.160    25 May 2022 23:49:00.153      374.99286361    
26 May 2022 01:19:44.485    26 May 2022 01:27:58.903      494.41832446    
26 May 2022 16:30:26.002    26 May 2022 16:37:08.487      402.48540365    
26 May 2022 18:07:11.331    26 May 2022 18:15:13.958      482.62740572    
26 May 2022 19:47:30.037    26 May 2022 19:51:44.477      254.43950171    
26 May 2022 23:04:59.172    26 May 2022 23:10:36.246      337.07422216    
27 May 2022 00:41:47.803    27 May 2022 00:50:03.263      495.45979940    
27 May 2022 02:21:07.908    27 May 2022 02:25:04.611      236.70282431    
27 May 2022 15:53:06.921    27 May 2022 15:58:44.869      337.94816695    
27 May 2022 17:29:06.074    27 May 2022 17:37:20.786      494.71232212    
27 May 2022 19:08:57.998    27 May 2022 19:14:00.607      302.60941212    
27 May 2022 22:27:13.606    27 May 2022 22:32:07.838      294.23130113    
28 May 2022 00:03:52.551    28 May 2022 00:12:02.086      489.53499184    
28 May 2022 01:42:26.112    28 May 2022 01:48:04.908      338.79648387    
28 May 2022 15:16:08.255    28 May 2022 15:20:01.091      232.83561158    
28 May 2022 16:51:04.473    28 May 2022 16:59:24.869      500.39616181    
28 May 2022 18:30:28.926    28 May 2022 18:36:14.401      345.47502684    
28 May 2022 21:49:28.732    28 May 2022 21:53:34.812      246.07935984    
28 May 2022 23:25:58.370    28 May 2022 23:33:55.653      477.28323522    
29 May 2022 01:04:01.991    29 May 2022 01:10:44.028      402.03717132    
29 May 2022 16:13:06.842    29 May 2022 16:21:25.834      498.99224887    
29 May 2022 17:52:02.729    29 May 2022 17:58:26.122      383.39235348    
29 May 2022 21:11:45.292    29 May 2022 21:14:56.637      191.34470274    
29 May 2022 22:48:04.996    29 May 2022 22:55:44.175      459.17860349    
30 May 2022 00:25:46.517    30 May 2022 00:33:10.888      444.37089897    
30 May 2022 15:35:13.623    30 May 2022 15:43:23.165      489.54202007    
30 May 2022 17:13:39.455    30 May 2022 17:20:35.844      416.38925130    
30 May 2022 18:55:28.380    30 May 2022 18:56:21.882      53.502478986    
30 May 2022 20:34:05.735    30 May 2022 20:36:11.125      125.38984932    
30 May 2022 22:10:12.234    30 May 2022 22:17:27.815      435.58100121    
30 May 2022 23:47:36.359    30 May 2022 23:55:28.715      472.35566941    
31 May 2022 14:57:25.477    31 May 2022 15:05:16.119      470.64155586    
31 May 2022 16:35:19.209    31 May 2022 16:42:43.544      444.33478093    
31 May 2022 18:16:28.306    31 May 2022 18:18:54.133      145.82664032    
31 May 2022 21:32:19.945    31 May 2022 21:39:06.709      406.76373710    
31 May 2022 23:09:29.809    31 May 2022 23:17:39.110      489.30084977    
01 Jun 2022 14:19:43.462    01 Jun 2022 14:27:03.553      440.09156503    
01 Jun 2022 15:57:02.130    01 Jun 2022 16:04:49.129      466.99858314    
01 Jun 2022 17:37:43.076    01 Jun 2022 17:41:11.492      208.41609664    
01 Jun 2022 20:54:28.053    01 Jun 2022 21:00:40.974      372.92088638    
01 Jun 2022 22:31:25.844    01 Jun 2022 22:39:43.000      497.15588505    
02 Jun 2022 13:42:09.439    02 Jun 2022 13:48:43.515      394.07590453    
02 Jun 2022 15:18:48.382    02 Jun 2022 15:26:52.447      484.06466343    
02 Jun 2022 16:59:02.636    02 Jun 2022 17:03:24.333      261.69673390    
02 Jun 2022 20:16:36.548    02 Jun 2022 20:22:10.696      334.14801280    
02 Jun 2022 21:53:23.789    02 Jun 2022 22:01:40.969      497.17995421    
02 Jun 2022 23:32:34.786    02 Jun 2022 23:36:52.851      258.06488344    
03 Jun 2022 13:04:47.315    03 Jun 2022 13:10:12.008      324.69377326    
03 Jun 2022 14:40:38.165    03 Jun 2022 14:48:53.284      495.11951414    
03 Jun 2022 16:20:25.519    03 Jun 2022 16:25:34.398      308.87881019    
03 Jun 2022 19:38:45.532    03 Jun 2022 19:43:35.904      290.37134734    
03 Jun 2022 21:15:23.173    03 Jun 2022 21:23:33.411      490.23813754    
03 Jun 2022 22:53:51.172    03 Jun 2022 22:59:43.417      352.24505241    
04 Jun 2022 12:27:49.224    04 Jun 2022 12:31:16.809      207.58513593    
04 Jun 2022 14:02:31.733    04 Jun 2022 14:10:51.351      499.61852414    
04 Jun 2022 15:41:51.373    04 Jun 2022 15:47:42.266      350.89241881    
04 Jun 2022 19:00:55.319    04 Jun 2022 19:04:56.463      241.14435719    
04 Jun 2022 20:37:23.654    04 Jun 2022 20:45:20.606      476.95204422    
04 Jun 2022 22:15:23.134    04 Jun 2022 22:22:14.941      411.80675755    
05 Jun 2022 13:24:29.429    05 Jun 2022 13:32:46.254      496.82474309    
05 Jun 2022 15:03:20.163    05 Jun 2022 15:09:48.148      387.98495927    
05 Jun 2022 18:23:06.764    05 Jun 2022 18:26:11.754      184.98997899    
05 Jun 2022 19:59:24.983    05 Jun 2022 20:07:02.766      457.78353933    
05 Jun 2022 21:37:03.157    05 Jun 2022 21:44:34.840      451.68344857    
06 Jun 2022 12:46:31.740    06 Jun 2022 12:54:37.442      485.70123988    
06 Jun 2022 14:24:51.968    06 Jun 2022 14:31:52.098      420.12971677    
06 Jun 2022 16:06:30.977    06 Jun 2022 16:07:44.898      73.920402525    
06 Jun 2022 17:45:22.845    06 Jun 2022 17:47:19.091      116.24564381    
06 Jun 2022 19:21:26.977    06 Jun 2022 19:28:40.059      433.08274699    
06 Jun 2022 20:58:48.262    06 Jun 2022 21:06:45.998      477.73614937    
07 Jun 2022 12:08:39.398    07 Jun 2022 12:16:24.108      464.71089061    
07 Jun 2022 13:46:26.913    07 Jun 2022 13:53:54.075      447.16211170    
07 Jun 2022 15:27:30.545    07 Jun 2022 15:30:06.652      156.10706981    
07 Jun 2022 18:43:29.514    07 Jun 2022 18:50:12.627      403.11256216    
07 Jun 2022 20:20:36.879    07 Jun 2022 20:28:49.892      493.01295496    
08 Jun 2022 11:30:53.587    08 Jun 2022 11:38:04.989      431.40156521    
08 Jun 2022 13:08:05.151    08 Jun 2022 13:15:53.977      468.82576186    
08 Jun 2022 14:48:41.007    08 Jun 2022 14:52:17.675      216.66772817    
08 Jun 2022 18:05:32.535    08 Jun 2022 18:11:40.586      368.05142256    
08 Jun 2022 19:42:28.051    08 Jun 2022 19:50:47.391      499.33978646    
08 Jun 2022 21:22:50.621    08 Jun 2022 21:24:35.159      104.53768139    
09 Jun 2022 10:53:16.459    09 Jun 2022 10:59:37.850      381.39055164    
09 Jun 2022 12:29:46.861    09 Jun 2022 12:37:51.640      484.77908196    
09 Jun 2022 14:09:55.922    09 Jun 2022 14:14:24.739      268.81707347    
09 Jun 2022 17:27:36.056    09 Jun 2022 17:33:04.021      327.96494529    
09 Jun 2022 19:04:21.143    09 Jun 2022 19:12:39.051      497.90849425    
09 Jun 2022 20:43:21.709    09 Jun 2022 20:48:03.450      281.74106040    
10 Jun 2022 10:15:52.772    10 Jun 2022 10:20:57.846      305.07358761    
10 Jun 2022 11:51:32.258    10 Jun 2022 11:59:46.835      494.57786204    
10 Jun 2022 13:31:14.152    10 Jun 2022 13:36:29.255      315.10278034    
10 Jun 2022 16:49:40.222    10 Jun 2022 16:54:22.935      282.71327557    
10 Jun 2022 18:26:15.709    10 Jun 2022 18:34:25.252      489.54349706    
10 Jun 2022 20:04:37.008    10 Jun 2022 20:10:44.261      367.25350394    
11 Jun 2022 09:39:00.136    11 Jun 2022 09:41:47.284      167.14726025    
11 Jun 2022 11:13:21.617    11 Jun 2022 11:21:39.252      497.63535684    
11 Jun 2022 12:52:35.437    11 Jun 2022 12:58:31.707      356.26982533    
11 Jun 2022 16:11:45.439    11 Jun 2022 16:15:37.122      231.68310922    
11 Jun 2022 17:48:11.425    11 Jun 2022 17:56:06.264      474.83945321    
11 Jun 2022 19:26:05.830    11 Jun 2022 19:33:08.188      422.35808428    
12 Jun 2022 10:35:15.312    12 Jun 2022 10:43:28.463      493.15143584    
12 Jun 2022 12:13:59.776    12 Jun 2022 12:20:32.268      392.49163368    
12 Jun 2022 15:33:52.838    12 Jun 2022 15:36:45.706      172.86817383    
12 Jun 2022 17:10:08.055    12 Jun 2022 17:17:42.293      454.23812913    
12 Jun 2022 18:47:42.080    12 Jun 2022 18:55:21.232      459.15186543    
13 Jun 2022 09:57:13.877    13 Jun 2022 10:05:13.864      479.98721591    
13 Jun 2022 11:35:27.262    13 Jun 2022 11:42:30.966      423.70391849    
13 Jun 2022 13:16:58.919    13 Jun 2022 13:18:27.187      88.268386899    
13 Jun 2022 14:56:06.893    13 Jun 2022 14:57:44.521      97.627868608    
13 Jun 2022 16:32:05.429    13 Jun 2022 16:39:13.500      428.07160470    
13 Jun 2022 18:09:23.149    13 Jun 2022 18:17:25.901      482.75182920    
14 Jun 2022 09:19:18.128    14 Jun 2022 09:26:54.555      456.42681891    
14 Jun 2022 10:56:58.026    14 Jun 2022 11:04:27.743      449.71730711    
14 Jun 2022 12:37:56.155    14 Jun 2022 12:40:41.553      165.39814702    
14 Jun 2022 15:54:03.438    14 Jun 2022 16:00:40.020      396.58175809    
14 Jun 2022 17:31:07.614    14 Jun 2022 17:39:23.525      495.91096906    
15 Jun 2022 08:41:29.425    15 Jun 2022 08:48:29.091      419.66627380    
15 Jun 2022 10:18:32.224    15 Jun 2022 10:26:22.477      470.25320552    
15 Jun 2022 11:59:02.539    15 Jun 2022 12:02:47.173      224.63450565    
15 Jun 2022 15:16:02.040    15 Jun 2022 15:22:01.955      359.91503854    
15 Jun 2022 16:52:54.586    15 Jun 2022 17:01:14.896      500.31065665    
15 Jun 2022 18:32:48.106    15 Jun 2022 18:35:34.161      166.05447644    
16 Jun 2022 08:03:50.325    16 Jun 2022 08:09:54.815      364.48990685    
16 Jun 2022 09:40:10.039    16 Jun 2022 09:48:14.983      484.94426444    
16 Jun 2022 11:20:13.247    16 Jun 2022 11:24:49.180      275.93252220    
16 Jun 2022 14:38:01.284    16 Jun 2022 14:43:19.361      318.07752281    
16 Jun 2022 16:14:43.467    16 Jun 2022 16:23:00.529      497.06178729    
16 Jun 2022 17:53:33.042    16 Jun 2022 17:58:38.594      305.55266398    
17 Jun 2022 07:26:26.980    17 Jun 2022 07:31:05.477      278.49692566    
17 Jun 2022 09:01:51.694    17 Jun 2022 09:10:05.006      493.31143076    
17 Jun 2022 10:41:27.330    17 Jun 2022 10:46:48.777      321.44716135    
17 Jun 2022 14:00:01.379    17 Jun 2022 14:04:32.179      270.80041616    
17 Jun 2022 15:36:33.831    17 Jun 2022 15:44:40.770      486.93860586    
17 Jun 2022 17:14:47.700    17 Jun 2022 17:21:10.111      382.41081052    
18 Jun 2022 06:49:52.200    18 Jun 2022 06:51:28.166      95.966274384    
18 Jun 2022 08:23:37.480    18 Jun 2022 08:31:52.197      494.71681849    
18 Jun 2022 10:02:44.569    18 Jun 2022 10:08:46.381      361.81294648    
18 Jun 2022 13:22:02.899    18 Jun 2022 13:25:40.038      217.13937996    
18 Jun 2022 14:58:25.368    18 Jun 2022 15:06:15.870      470.50136727    
18 Jun 2022 16:36:14.023    18 Jun 2022 16:43:26.662      432.63959190    
19 Jun 2022 07:45:27.798    19 Jun 2022 07:53:36.079      488.28076817    
19 Jun 2022 09:24:04.971    19 Jun 2022 09:30:42.131      397.15974008    
19 Jun 2022 12:44:07.548    19 Jun 2022 12:46:41.489      153.94174699    
19 Jun 2022 14:20:17.850    19 Jun 2022 14:27:46.014      448.16476449    
19 Jun 2022 15:57:47.101    19 Jun 2022 16:05:33.042      465.94095302    
20 Jun 2022 07:07:23.239    20 Jun 2022 07:15:15.972      472.73277207    
20 Jun 2022 08:45:28.627    20 Jun 2022 08:52:36.027      427.40008822    
20 Jun 2022 10:26:53.745    20 Jun 2022 10:28:34.149      100.40392414    
20 Jun 2022 12:06:24.642    20 Jun 2022 12:07:27.525      62.883543572    
20 Jun 2022 13:42:11.116    20 Jun 2022 13:49:11.350      420.23465767    
20 Jun 2022 15:19:24.676    20 Jun 2022 15:27:31.398      486.72191931    
21 Jun 2022 06:29:24.728    21 Jun 2022 06:36:50.848      446.11979123    
21 Jun 2022 08:06:55.664    21 Jun 2022 08:14:27.991      452.32655386    
21 Jun 2022 09:47:47.982    21 Jun 2022 09:50:42.632      174.65032381    
21 Jun 2022 13:04:05.071    21 Jun 2022 13:10:31.991      386.91998567    
21 Jun 2022 14:41:05.464    21 Jun 2022 14:49:22.900      497.43680317    
22 Jun 2022 05:51:33.856    22 Jun 2022 05:58:19.008      405.15189775    
22 Jun 2022 07:28:26.236    22 Jun 2022 07:36:17.877      471.64033935    
22 Jun 2022 09:08:50.427    22 Jun 2022 09:12:43.447      233.01990386    
22 Jun 2022 12:25:59.697    22 Jun 2022 12:31:48.012      348.31473936    
22 Jun 2022 14:02:48.646    22 Jun 2022 14:11:08.261      499.61491416    
22 Jun 2022 15:42:20.052    22 Jun 2022 15:45:52.583      212.53126084    
23 Jun 2022 05:13:53.792    23 Jun 2022 05:19:37.171      343.37924510    
23 Jun 2022 06:50:00.527    23 Jun 2022 06:58:05.473      484.94649361    
23 Jun 2022 08:29:57.149    23 Jun 2022 08:34:40.810      283.66142440    
23 Jun 2022 11:47:55.093    23 Jun 2022 11:52:59.418      304.32496432    
23 Jun 2022 13:24:33.662    23 Jun 2022 13:32:47.941      494.27922720    
23 Jun 2022 15:03:12.121    23 Jun 2022 15:08:40.307      328.18591101    
24 Jun 2022 04:36:33.109    24 Jun 2022 04:40:36.646      243.53640662    
24 Jun 2022 06:11:38.770    24 Jun 2022 06:19:50.495      491.72512562    
24 Jun 2022 07:51:07.303    24 Jun 2022 07:56:35.794      328.49118684    
24 Jun 2022 11:09:51.582    24 Jun 2022 11:14:06.040      254.45816957    
24 Jun 2022 12:46:20.110    24 Jun 2022 12:54:22.258      482.14770950    
24 Jun 2022 14:24:26.105    24 Jun 2022 14:31:02.890      396.78560902    
25 Jun 2022 05:33:21.277    25 Jun 2022 05:41:32.553      491.27551876    
25 Jun 2022 07:12:20.690    25 Jun 2022 07:18:28.771      368.08068840    
25 Jun 2022 10:31:50.048    25 Jun 2022 10:35:07.200      197.15194940    
25 Jun 2022 12:08:07.695    25 Jun 2022 12:15:51.436      463.74055602    
25 Jun 2022 13:45:50.115    25 Jun 2022 13:53:12.100      441.98478864    
26 Jun 2022 04:55:08.494    26 Jun 2022 05:03:11.111      482.61754137    
26 Jun 2022 06:33:37.319    26 Jun 2022 06:40:19.855      402.53609897    
26 Jun 2022 09:53:53.494    26 Jun 2022 09:56:00.158      126.66406729    
26 Jun 2022 11:29:56.205    26 Jun 2022 11:37:15.644      439.43943117    


Number of events : 339


Observer: Hawaii
Start Time (UTC)            Stop Time (UTC)               Duration (s)         
27 Apr 2022 12:19:20.289    27 Apr 2022 12:24:52.409      332.12048752    
27 Apr 2022 13:55:56.004    27 Apr 2022 14:03:38.633      462.62938409    
28 Apr 2022 03:22:55.094    28 Apr 2022 03:31:00.156      485.06244424    
28 Apr 2022 05:03:13.577    28 Apr 2022 05:06:23.929      190.35175180    
28 Apr 2022 11:42:32.600    28 Apr 2022 11:46:28.045      235.44541940    
28 Apr 2022 13:18:17.107    28 Apr 2022 13:26:21.416      484.30940883    
29 Apr 2022 02:45:35.335    29 Apr 2022 02:53:22.443      467.10805090    
29 Apr 2022 04:24:39.108    29 Apr 2022 04:29:44.237      305.12936299    
29 Apr 2022 12:40:43.182    29 Apr 2022 12:48:55.743      492.56193805    
30 Apr 2022 02:08:23.002    30 Apr 2022 02:15:36.811      433.80821140    
30 Apr 2022 03:46:27.022    30 Apr 2022 03:52:43.308      376.28625110    
30 Apr 2022 12:03:13.489    30 Apr 2022 12:11:22.120      488.63156465    
01 May 2022 01:31:20.457    01 May 2022 01:37:40.677      380.21965959    
01 May 2022 03:08:26.442    01 May 2022 03:15:31.783      425.34175065    
01 May 2022 11:25:47.779    01 May 2022 11:33:40.558      472.77903892    
01 May 2022 13:04:56.984    01 May 2022 13:09:13.462      256.47886747    
02 May 2022 00:54:33.691    02 May 2022 00:59:27.833      294.14221679    
02 May 2022 02:30:34.061    02 May 2022 02:38:12.732      458.67113258    
02 May 2022 10:48:26.264    02 May 2022 10:55:50.600      444.33657381    
02 May 2022 12:26:35.095    02 May 2022 12:32:34.852      359.75657467    
03 May 2022 00:18:33.076    03 May 2022 00:20:27.689      114.61267043    
03 May 2022 01:52:48.452    03 May 2022 02:00:47.347      478.89451256    
03 May 2022 10:11:09.802    03 May 2022 10:17:51.145      401.34301961    
03 May 2022 11:48:32.194    03 May 2022 11:55:34.432      422.23817602    
04 May 2022 01:15:09.000    04 May 2022 01:23:16.016      487.01635451    
04 May 2022 09:34:00.560    04 May 2022 09:39:39.781      339.22101825    
04 May 2022 11:10:39.310    04 May 2022 11:18:20.957      461.64696071    
05 May 2022 00:37:35.602    05 May 2022 00:45:38.619      483.01757377    
05 May 2022 02:18:02.977    05 May 2022 02:20:53.574      170.59673234    
05 May 2022 08:57:04.789    05 May 2022 09:01:10.007      245.21741961    
05 May 2022 10:32:53.148    05 May 2022 10:40:57.500      484.35185101    
06 May 2022 00:00:08.642    06 May 2022 00:07:54.556      465.91456354    
06 May 2022 01:39:16.913    06 May 2022 01:44:11.693      294.77956749    
06 May 2022 09:55:12.133    06 May 2022 10:03:25.422      493.28923181    
06 May 2022 23:22:49.172    06 May 2022 23:30:02.564      433.39158503    
07 May 2022 01:00:56.371    07 May 2022 01:07:05.520      369.14862699    
07 May 2022 09:17:35.484    07 May 2022 09:25:45.284      489.80010023    
07 May 2022 22:45:39.532    07 May 2022 22:52:00.098      380.56549042    
08 May 2022 00:22:48.074    08 May 2022 00:29:48.106      420.03213570    
08 May 2022 08:40:02.932    08 May 2022 08:47:57.129      474.19675717    
08 May 2022 10:19:14.710    08 May 2022 10:23:26.098      251.38843636    
08 May 2022 22:08:45.636    08 May 2022 22:13:41.040      295.40404201    
08 May 2022 23:44:48.333    08 May 2022 23:52:22.917      454.58429219    
09 May 2022 08:02:34.685    09 May 2022 08:10:00.523      445.83796881    
09 May 2022 09:40:44.701    09 May 2022 09:46:42.237      357.53592815    
09 May 2022 21:32:36.754    09 May 2022 21:34:35.913      119.15945193    
09 May 2022 23:06:55.600    09 May 2022 23:14:51.280      475.67961286    
10 May 2022 07:25:11.604    10 May 2022 07:31:54.374      402.76963629    
10 May 2022 09:02:34.584    10 May 2022 09:09:35.751      421.16718820    
10 May 2022 22:29:09.211    10 May 2022 22:37:13.640      484.42856083    
11 May 2022 06:47:55.871    11 May 2022 06:53:36.265      340.39412312    
11 May 2022 08:24:34.836    11 May 2022 08:32:15.958      461.12188749    
11 May 2022 21:51:29.047    11 May 2022 21:59:29.904      480.85684602    
11 May 2022 23:32:00.430    11 May 2022 23:34:40.043      159.61375593    
12 May 2022 06:10:53.798    12 May 2022 06:14:59.649      245.85085764    
12 May 2022 07:46:42.036    12 May 2022 07:54:46.071      484.03419312    
12 May 2022 21:13:55.491    12 May 2022 21:21:39.479      463.98882464    
12 May 2022 22:53:04.928    12 May 2022 22:57:54.523      289.59483714    
13 May 2022 07:08:54.561    13 May 2022 07:17:07.500      492.93855100    
13 May 2022 20:36:29.611    13 May 2022 20:43:41.090      431.47819518    
13 May 2022 22:14:37.047    13 May 2022 22:20:42.783      365.73585884    
14 May 2022 06:31:11.613    14 May 2022 06:39:20.826      489.21372554    
14 May 2022 19:59:13.802    14 May 2022 20:05:32.136      378.33403061    
14 May 2022 21:36:21.920    14 May 2022 21:43:19.469      417.54829909    
15 May 2022 05:53:32.922    15 May 2022 06:01:26.097      473.17494617    
15 May 2022 07:32:43.490    15 May 2022 07:36:55.399      251.90855493    
15 May 2022 19:22:14.176    15 May 2022 19:27:06.299      292.12281547    
15 May 2022 20:58:15.629    15 May 2022 21:05:48.269      452.63961920    
16 May 2022 05:15:58.711    16 May 2022 05:23:22.859      444.14820228    
16 May 2022 06:54:07.259    16 May 2022 07:00:05.255      357.99576397    
16 May 2022 18:46:02.699    16 May 2022 18:47:51.402      108.70285474    
16 May 2022 20:20:16.555    16 May 2022 20:28:10.575      474.02058318    
17 May 2022 04:38:29.885    17 May 2022 04:45:09.968      400.08235801    
17 May 2022 06:15:51.083    17 May 2022 06:22:52.455      421.37154989    
17 May 2022 19:42:24.005    17 May 2022 19:50:26.851      482.84648205    
18 May 2022 04:01:08.762    18 May 2022 04:06:44.864      336.10139847    
18 May 2022 05:37:45.409    18 May 2022 05:45:26.335      460.92666343    
18 May 2022 19:04:37.855    18 May 2022 19:12:36.999      479.14316874    
18 May 2022 20:45:07.318    18 May 2022 20:47:47.514      160.19658193    
19 May 2022 03:24:02.236    19 May 2022 03:28:00.407      238.17135198    
19 May 2022 04:59:46.802    19 May 2022 05:07:50.110      483.30867151    
19 May 2022 18:26:58.502    19 May 2022 18:34:40.397      461.89518438    
19 May 2022 20:06:05.714    19 May 2022 20:10:56.098      290.38417259    
20 May 2022 04:21:53.635    20 May 2022 04:30:05.182      491.54703144    
20 May 2022 17:49:27.059    20 May 2022 17:56:35.710      428.65151914    
20 May 2022 19:27:31.879    20 May 2022 19:33:38.448      366.56930615    
21 May 2022 03:44:05.113    21 May 2022 03:52:12.112      486.99840456    
21 May 2022 17:12:06.046    21 May 2022 17:18:20.196      374.15048894    
21 May 2022 18:49:10.917    21 May 2022 18:56:09.217      418.29995338    
22 May 2022 03:06:20.983    22 May 2022 03:14:10.915      469.93134578    
22 May 2022 04:45:26.972    22 May 2022 04:49:44.384      257.41209893    
22 May 2022 16:35:02.053    22 May 2022 16:39:47.042      284.98847194    
22 May 2022 18:10:58.901    22 May 2022 18:18:32.088      453.18698881    
23 May 2022 02:28:41.504    23 May 2022 02:36:01.083      439.57849260    
23 May 2022 04:06:46.222    23 May 2022 04:12:47.062      360.84022620    
23 May 2022 15:58:55.414    23 May 2022 16:00:15.685      80.271743552    
23 May 2022 17:32:54.210    23 May 2022 17:40:48.438      474.22769582    
24 May 2022 01:51:07.677    24 May 2022 01:57:41.361      393.68409446    
24 May 2022 03:28:24.964    24 May 2022 03:35:27.694      422.72984568    
24 May 2022 16:54:56.158    24 May 2022 17:02:58.706      482.54804963    
25 May 2022 01:13:42.087    25 May 2022 01:19:08.902      326.81466329    
25 May 2022 02:50:14.089    25 May 2022 02:57:55.155      461.06582325    
25 May 2022 16:17:04.638    25 May 2022 16:25:02.760      478.12173965    
25 May 2022 17:57:26.306    25 May 2022 18:00:18.861      172.55540238    
26 May 2022 00:36:32.867    26 May 2022 00:40:15.311      222.44359864    
26 May 2022 02:12:10.263    26 May 2022 02:20:12.544      482.28103708    
26 May 2022 15:39:20.088    26 May 2022 15:46:59.927      459.83899551    
26 May 2022 17:18:21.743    26 May 2022 17:23:19.029      297.28646491    
27 May 2022 01:34:11.901    27 May 2022 01:42:21.207      489.30542754    
27 May 2022 15:01:43.709    27 May 2022 15:08:48.769      425.05979086    
27 May 2022 16:39:43.099    27 May 2022 16:45:54.852      371.75332143    
28 May 2022 00:56:18.242    28 May 2022 01:04:21.660      483.41758575    
28 May 2022 14:24:18.249    28 May 2022 14:30:26.309      368.05994790    
28 May 2022 16:01:17.047    28 May 2022 16:08:19.406      422.35849636    
29 May 2022 00:18:29.076    29 May 2022 00:26:13.867      464.79125504    
29 May 2022 01:57:27.511    29 May 2022 02:01:54.934      267.42233369    
29 May 2022 13:47:11.148    29 May 2022 13:51:44.875      273.72696184    
29 May 2022 15:22:59.884    29 May 2022 15:30:36.144      456.25968041    
29 May 2022 23:40:44.735    29 May 2022 23:47:57.238      432.50320440    
30 May 2022 01:18:43.458    30 May 2022 01:24:49.498      366.03976706    
30 May 2022 14:44:50.069    30 May 2022 14:52:46.357      476.28860014    
30 May 2022 23:03:06.382    30 May 2022 23:09:30.355      383.97255898    
31 May 2022 00:40:17.769    31 May 2022 00:47:23.137      425.36837932    
31 May 2022 14:06:46.969    31 May 2022 14:14:50.435      483.46619963    
31 May 2022 22:25:37.057    31 May 2022 22:30:49.916      312.85820799    
01 Jun 2022 00:02:02.151    01 Jun 2022 00:09:43.909      461.75838921    
01 Jun 2022 13:28:50.534    01 Jun 2022 13:36:48.193      477.65894858    
01 Jun 2022 15:08:59.591    01 Jun 2022 15:12:14.046      194.45496518    
01 Jun 2022 21:48:27.199    01 Jun 2022 21:51:45.221      198.02178129    
01 Jun 2022 23:23:53.476    01 Jun 2022 23:31:54.712      481.23629823    
02 Jun 2022 12:51:01.279    02 Jun 2022 12:58:38.881      457.60154474    
02 Jun 2022 14:29:54.193    02 Jun 2022 14:35:03.998      309.80430715    
02 Jun 2022 22:45:50.253    02 Jun 2022 22:53:56.802      486.54926196    
03 Jun 2022 12:13:20.558    03 Jun 2022 12:20:20.920      420.36201189    
03 Jun 2022 13:51:11.709    03 Jun 2022 13:57:32.664      380.95463756    
03 Jun 2022 22:07:51.788    03 Jun 2022 22:15:50.634      478.84602566    
03 Jun 2022 23:48:41.299    03 Jun 2022 23:49:31.089      49.789974291    
04 Jun 2022 11:35:51.479    04 Jun 2022 11:41:50.976      359.49646934    
04 Jun 2022 13:12:41.265    04 Jun 2022 13:19:50.676      429.41074575    
04 Jun 2022 21:29:57.944    04 Jun 2022 21:37:36.102      458.15793599    
04 Jun 2022 23:08:46.236    04 Jun 2022 23:13:27.881      281.64502579    
05 Jun 2022 10:58:42.924    05 Jun 2022 11:02:59.947      257.02330414    
05 Jun 2022 12:34:19.564    05 Jun 2022 12:42:01.088      461.52369393    
05 Jun 2022 20:52:09.171    05 Jun 2022 20:59:12.509      423.33845703    
05 Jun 2022 22:29:59.910    05 Jun 2022 22:36:13.647      373.73709977    
06 Jun 2022 11:56:05.218    06 Jun 2022 12:04:05.048      479.82988770    
06 Jun 2022 20:14:26.868    06 Jun 2022 20:20:38.205      371.33720174    
06 Jun 2022 21:51:30.469    06 Jun 2022 21:58:40.017      429.54811016    
07 Jun 2022 11:17:57.688    07 Jun 2022 11:26:02.863      485.17543209    
07 Jun 2022 19:36:54.776    07 Jun 2022 19:41:49.195      294.41894847    
07 Jun 2022 21:13:10.676    07 Jun 2022 21:20:54.001      463.32468622    
08 Jun 2022 10:39:57.006    08 Jun 2022 10:47:54.269      477.26363791    
08 Jun 2022 12:19:50.140    08 Jun 2022 12:23:32.589      222.44900748    
08 Jun 2022 18:59:47.761    08 Jun 2022 19:02:30.357      162.59619361    
08 Jun 2022 20:34:57.685    08 Jun 2022 20:42:58.219      480.53416716    
09 Jun 2022 10:02:03.804    09 Jun 2022 10:09:38.408      454.60364339    
09 Jun 2022 11:40:45.144    09 Jun 2022 11:46:11.855      326.71058363    
09 Jun 2022 19:56:50.133    09 Jun 2022 20:04:53.802      483.66891114    
10 Jun 2022 09:24:19.651    10 Jun 2022 09:31:13.491      413.83937923    
10 Jun 2022 11:01:59.863    10 Jun 2022 11:08:33.160      393.29631241    
10 Jun 2022 19:18:47.418    10 Jun 2022 19:26:41.117      473.69975379    
10 Jun 2022 20:58:57.124    10 Jun 2022 21:01:02.188      125.06433749    
11 Jun 2022 08:46:48.203    11 Jun 2022 08:52:35.637      347.43444087    
11 Jun 2022 10:23:25.936    11 Jun 2022 10:30:44.623      438.68709889    
11 Jun 2022 18:40:49.496    11 Jun 2022 18:48:19.963      450.46702079    
11 Jun 2022 20:19:25.582    11 Jun 2022 20:24:25.143      299.56149061    
12 Jun 2022 08:09:40.817    12 Jun 2022 08:13:33.267      232.44942661    
12 Jun 2022 09:45:00.559    12 Jun 2022 09:52:48.804      468.24484976    
12 Jun 2022 18:02:56.967    12 Jun 2022 18:09:49.491      412.52391979    
12 Jun 2022 19:40:38.003    12 Jun 2022 19:47:01.932      383.92886329    
13 Jun 2022 09:06:42.535    13 Jun 2022 09:14:46.658      484.12257149    
13 Jun 2022 17:25:11.553    13 Jun 2022 17:31:07.718      356.16537571    
13 Jun 2022 19:02:05.646    13 Jun 2022 19:09:21.068      435.42219662    
14 Jun 2022 08:28:31.437    14 Jun 2022 08:36:38.371      486.93350034    
14 Jun 2022 16:47:38.055    14 Jun 2022 16:52:09.579      271.52366177    
14 Jun 2022 18:23:42.414    14 Jun 2022 18:31:28.411      465.99732593    
15 Jun 2022 07:50:27.404    15 Jun 2022 07:58:23.565      476.16026052    
15 Jun 2022 09:30:02.642    15 Jun 2022 09:34:15.784      253.14212549    
15 Jun 2022 16:10:41.624    15 Jun 2022 16:12:29.659      108.03483351    
15 Jun 2022 17:45:25.787    15 Jun 2022 17:53:26.244      480.45704652    
16 Jun 2022 07:12:31.218    16 Jun 2022 07:20:01.219      450.00025890    
16 Jun 2022 08:50:58.637    16 Jun 2022 08:56:44.874      346.23679913    
16 Jun 2022 17:07:14.554    16 Jun 2022 17:15:15.533      480.97906925    
17 Jun 2022 06:34:44.744    17 Jun 2022 06:41:29.232      404.48832794    
17 Jun 2022 08:12:11.492    17 Jun 2022 08:18:58.954      407.46224185    
17 Jun 2022 16:29:08.213    17 Jun 2022 16:36:56.523      468.31025407    
17 Jun 2022 18:08:49.214    17 Jun 2022 18:11:47.717      178.50297057    
18 Jun 2022 05:57:12.473    18 Jun 2022 06:02:42.872      330.39976285    
18 Jun 2022 07:33:34.952    18 Jun 2022 07:41:04.018      449.06599992    
18 Jun 2022 15:51:06.834    18 Jun 2022 15:58:28.881      442.04674390    
18 Jun 2022 17:29:29.220    18 Jun 2022 17:34:49.629      320.40838801    
19 Jun 2022 05:20:10.495    19 Jun 2022 05:23:25.807      195.31257941    
19 Jun 2022 06:55:06.710    19 Jun 2022 07:03:02.112      475.40201208    
19 Jun 2022 15:13:11.203    19 Jun 2022 15:19:51.550      400.34677143    
19 Jun 2022 16:50:41.085    19 Jun 2022 16:57:17.487      396.40169407    
20 Jun 2022 06:16:45.770    20 Jun 2022 06:24:53.967      488.19665640    
20 Jun 2022 14:35:23.487    20 Jun 2022 14:41:02.079      338.59280456    
20 Jun 2022 16:12:06.441    20 Jun 2022 16:19:29.410      442.96880343    
21 Jun 2022 05:38:31.837    21 Jun 2022 05:46:39.622      487.78439123    
21 Jun 2022 07:19:19.342    21 Jun 2022 07:21:32.882      133.54087507    
21 Jun 2022 13:57:50.172    21 Jun 2022 14:01:53.699      243.52763768    
21 Jun 2022 15:33:40.295    21 Jun 2022 15:41:30.135      469.84025419    
22 Jun 2022 05:00:25.182    22 Jun 2022 05:08:18.547      473.36462340    
22 Jun 2022 06:39:41.319    22 Jun 2022 06:44:25.329      284.00964533    
22 Jun 2022 14:55:20.473    22 Jun 2022 15:03:21.578      481.10472111    
23 Jun 2022 04:22:26.791    23 Jun 2022 04:29:49.500      442.70866541    
23 Jun 2022 06:00:38.271    23 Jun 2022 06:06:44.904      366.63278933    
23 Jun 2022 14:17:05.933    23 Jun 2022 14:25:04.514      478.58165405    
24 Jun 2022 03:44:38.966    24 Jun 2022 03:51:09.926      390.96027254    
24 Jun 2022 05:21:49.725    24 Jun 2022 05:28:51.808      422.08278654    
24 Jun 2022 13:38:56.297    24 Jun 2022 13:46:39.047      462.75002409    
