GMAT/Constellation/Contact/ContactLocator1.txt

Target: HSEYE1

Observer: Bahrain
Start Time (UTC)            Stop Time (UTC)               Duration (s)         
27 Apr 2022 15:40:45.898    27 Apr 2022 15:47:42.107      416.20929415    
27 Apr 2022 17:18:11.766    27 Apr 2022 17:25:02.691      410.92480762    
28 Apr 2022 06:46:30.026    28 Apr 2022 06:53:38.402      428.37666962    
28 Apr 2022 08:24:01.557    28 Apr 2022 08:30:57.029      415.47183492    
28 Apr 2022 15:01:16.539    28 Apr 2022 15:07:21.461      364.92246618    
28 Apr 2022 16:38:04.887    28 Apr 2022 16:45:38.091      453.20399422    
29 Apr 2022 06:07:16.026    29 Apr 2022 06:13:21.177      365.15190034    
29 Apr 2022 07:43:48.230    29 Apr 2022 07:51:21.649      453.41912300    
29 Apr 2022 14:21:55.264    29 Apr 2022 14:26:46.669      291.40507740    
29 Apr 2022 15:58:05.582    29 Apr 2022 16:06:01.451      475.86901820    
30 Apr 2022 05:28:25.366    30 Apr 2022 05:32:40.486      255.11986697    
30 Apr 2022 07:03:42.677    30 Apr 2022 07:11:39.974      477.29689657    
30 Apr 2022 13:42:53.130    30 Apr 2022 13:45:46.479      173.34909589    
30 Apr 2022 15:18:11.768    30 Apr 2022 15:26:14.592      482.82322070    
01 May 2022 06:23:44.392    01 May 2022 06:31:52.279      487.88723530    
01 May 2022 08:04:35.446    01 May 2022 08:06:54.013      138.56696051    
01 May 2022 14:38:22.406    01 May 2022 14:46:18.283      475.87724651    
01 May 2022 16:17:46.631    01 May 2022 16:21:06.599      199.96775149    
02 May 2022 05:43:53.427    02 May 2022 05:51:58.261      484.83435474    
02 May 2022 07:23:23.089    02 May 2022 07:27:59.076      275.98624884    
02 May 2022 13:58:37.081    02 May 2022 14:06:12.668      455.58698773    
02 May 2022 15:36:50.642    02 May 2022 15:42:26.904      336.26216567    
03 May 2022 05:04:10.415    03 May 2022 05:11:57.036      466.62142233    
03 May 2022 06:42:40.392    03 May 2022 06:48:36.685      356.29319324    
03 May 2022 13:18:55.940    03 May 2022 13:25:57.330      421.38984214    
03 May 2022 14:56:24.113    03 May 2022 15:03:13.865      409.75216575    
04 May 2022 04:24:36.875    04 May 2022 04:31:46.826      429.95066280    
04 May 2022 06:02:10.967    04 May 2022 06:09:03.064      412.09676428    
04 May 2022 12:39:19.926    04 May 2022 12:45:31.068      371.14295427    
04 May 2022 14:16:10.330    04 May 2022 14:23:43.932      453.60258138    
05 May 2022 03:45:16.262    05 May 2022 03:51:23.921      367.65947262    
05 May 2022 05:21:50.980    05 May 2022 05:29:21.845      450.86442546    
05 May 2022 11:59:51.756    05 May 2022 12:04:50.924      299.16768334    
05 May 2022 13:36:04.407    05 May 2022 13:44:01.719      477.31173945    
06 May 2022 03:06:18.597    06 May 2022 03:10:38.043      259.44567489    
06 May 2022 04:41:38.951    06 May 2022 04:49:34.273      475.32204841    
06 May 2022 11:20:41.283    06 May 2022 11:23:46.835      185.55212579    
06 May 2022 12:56:04.148    06 May 2022 13:04:09.143      484.99506820    
07 May 2022 04:01:34.326    07 May 2022 04:09:40.650      486.32384042    
07 May 2022 05:42:30.250    07 May 2022 05:44:37.463      127.21374559    
07 May 2022 12:16:08.456    07 May 2022 12:24:07.018      478.56269167    
07 May 2022 13:55:35.179    07 May 2022 13:58:51.666      196.48673442    
08 May 2022 03:21:37.137    08 May 2022 03:29:40.682      483.54445623    
08 May 2022 05:01:08.562    08 May 2022 05:05:39.483      270.92150784    
08 May 2022 11:36:16.882    08 May 2022 11:43:55.510      458.62749503    
08 May 2022 13:14:31.510    08 May 2022 13:20:07.547      336.03723919    
09 May 2022 02:41:48.007    09 May 2022 02:49:33.479      465.47210152    
09 May 2022 04:20:18.979    09 May 2022 04:26:11.700      352.72122540    
09 May 2022 10:56:29.548    09 May 2022 11:03:34.217      424.66860535    
09 May 2022 12:33:58.366    09 May 2022 12:40:49.034      410.66774020    
10 May 2022 02:02:08.461    10 May 2022 02:09:17.246      428.78476343    
10 May 2022 03:39:43.094    10 May 2022 03:46:32.351      409.25668149    
10 May 2022 10:16:47.366    10 May 2022 10:23:01.957      374.59077366    
10 May 2022 11:53:38.251    10 May 2022 12:01:13.346      455.09536805    
11 May 2022 01:22:41.996    11 May 2022 01:28:48.223      366.22659496    
11 May 2022 02:59:16.852    11 May 2022 03:06:45.278      448.42626195    
11 May 2022 09:37:13.000    11 May 2022 09:42:15.822      302.82230229    
11 May 2022 11:13:26.145    11 May 2022 11:21:25.225      479.08019886    
12 May 2022 00:43:38.854    12 May 2022 00:47:55.903      257.04986838    
12 May 2022 02:18:58.708    12 May 2022 02:26:51.784      473.07552098    
12 May 2022 08:57:55.993    12 May 2022 09:01:06.057      190.06390760    
12 May 2022 10:33:19.805    12 May 2022 10:41:26.632      486.82764476    
13 May 2022 01:38:48.091    13 May 2022 01:46:52.186      484.09563540    
13 May 2022 03:19:45.818    13 May 2022 03:21:46.205      120.38640131    
13 May 2022 09:53:18.115    13 May 2022 10:01:18.400      480.28418329    
13 May 2022 11:32:43.428    13 May 2022 11:36:03.783      200.35516861    
14 May 2022 00:58:45.031    14 May 2022 01:06:46.189      481.15820603    
14 May 2022 02:38:16.198    14 May 2022 02:42:44.125      267.92768575    
14 May 2022 09:13:20.625    14 May 2022 09:21:00.697      460.07220908    
14 May 2022 10:51:34.249    14 May 2022 10:57:13.155      338.90600569    
15 May 2022 00:18:50.173    15 May 2022 00:26:32.883      462.70949392    
15 May 2022 01:57:20.279    15 May 2022 02:03:10.737      350.45816089    
15 May 2022 08:33:27.462    15 May 2022 08:40:33.119      425.65671166    
15 May 2022 10:10:55.288    15 May 2022 10:17:48.457      413.16959811    
15 May 2022 23:39:05.104    15 May 2022 23:46:10.417      425.31358588    
16 May 2022 01:16:38.348    16 May 2022 01:23:25.590      407.24126513    
16 May 2022 07:53:39.573    16 May 2022 07:59:54.461      374.88796734    
16 May 2022 09:30:29.372    16 May 2022 09:38:06.593      457.22080884    
16 May 2022 22:59:33.485    16 May 2022 23:05:34.871      361.38556089    
17 May 2022 00:36:06.229    17 May 2022 00:43:32.651      446.42243368    
17 May 2022 07:13:59.713    17 May 2022 07:19:01.730      302.01693237    
17 May 2022 08:50:11.524    17 May 2022 08:58:12.269      480.74518587    
17 May 2022 22:20:26.340    17 May 2022 22:24:34.964      248.62477107    
17 May 2022 23:55:42.352    18 May 2022 00:03:33.257      470.90492856    
18 May 2022 06:34:37.928    18 May 2022 06:37:44.686      186.75780252    
18 May 2022 08:09:59.519    18 May 2022 08:18:07.440      487.92154756    
18 May 2022 23:15:26.146    18 May 2022 23:23:27.728      481.58175533    
19 May 2022 00:56:22.053    19 May 2022 00:58:21.714      119.66042456    
19 May 2022 07:29:52.257    19 May 2022 07:37:52.930      480.67253142    
19 May 2022 09:09:12.757    19 May 2022 09:12:42.918      210.16077732    
19 May 2022 22:35:17.667    19 May 2022 22:43:15.756      478.08908920    
20 May 2022 00:14:46.548    20 May 2022 00:19:14.067      267.51904094    
20 May 2022 06:49:49.311    20 May 2022 06:57:28.895      459.58410760    
20 May 2022 08:28:00.034    20 May 2022 08:33:44.196      344.16231487    
20 May 2022 21:55:17.603    20 May 2022 22:02:56.389      458.78607896    
20 May 2022 23:33:45.038    20 May 2022 23:39:34.973      349.93416580    
21 May 2022 06:09:50.850    21 May 2022 06:16:54.901      424.05172577    
21 May 2022 07:47:16.151    21 May 2022 07:54:12.870      416.71893199    
21 May 2022 21:15:27.646    21 May 2022 21:22:27.681      420.03539458    
21 May 2022 22:52:57.665    21 May 2022 22:59:44.128      406.46243901    
22 May 2022 05:29:57.902    22 May 2022 05:36:09.669      371.76654493    
22 May 2022 07:06:45.126    22 May 2022 07:14:24.660      459.53321300    
22 May 2022 20:35:51.743    22 May 2022 20:41:45.426      353.68262823    
22 May 2022 22:12:20.245    22 May 2022 22:19:45.510      445.26515080    
23 May 2022 04:50:13.470    23 May 2022 04:55:09.968      296.49741644    
23 May 2022 06:26:22.164    23 May 2022 06:34:24.096      481.93229910    
23 May 2022 19:56:42.342    23 May 2022 20:00:36.926      234.58447211    
23 May 2022 21:31:51.216    23 May 2022 21:39:40.447      469.23071276    
24 May 2022 04:10:49.051    24 May 2022 04:13:44.113      175.06275808    
24 May 2022 05:46:05.103    24 May 2022 05:54:13.070      487.96740548    
24 May 2022 20:51:30.026    24 May 2022 20:59:29.242      479.21584802    
24 May 2022 22:32:20.216    24 May 2022 22:34:26.363      126.14684331    
25 May 2022 05:05:52.885    25 May 2022 05:13:52.368      479.48343954    
25 May 2022 06:45:05.991    25 May 2022 06:48:49.997      224.00602353    
25 May 2022 20:11:16.759    25 May 2022 20:19:11.548      474.78855421    
25 May 2022 21:50:41.356    25 May 2022 21:55:11.582      270.22624154    
26 May 2022 04:25:45.119    26 May 2022 04:33:22.106      456.98620628    
26 May 2022 06:03:51.329    26 May 2022 06:09:42.365      351.03660965    
26 May 2022 19:31:12.170    26 May 2022 19:38:46.346      454.17594819    
26 May 2022 21:09:35.213    26 May 2022 21:15:26.803      351.58973542    
27 May 2022 03:45:42.038    27 May 2022 03:52:41.783      419.74450776    
27 May 2022 05:23:03.470    27 May 2022 05:30:04.276      420.80537193    
27 May 2022 18:51:18.089    27 May 2022 18:58:11.539      413.44940731    
27 May 2022 20:28:43.156    27 May 2022 20:35:30.482      407.32610235    
28 May 2022 03:05:44.804    28 May 2022 03:11:49.979      365.17464967    
28 May 2022 04:42:28.103    28 May 2022 04:50:09.772      461.66902607    
28 May 2022 18:11:38.879    28 May 2022 18:17:22.497      343.61868601    
28 May 2022 19:48:01.120    28 May 2022 19:55:26.465      445.34543540    
29 May 2022 02:25:56.841    29 May 2022 02:30:43.037      286.19553420    
29 May 2022 04:02:00.706    29 May 2022 04:10:03.095      482.38906777    
29 May 2022 17:32:29.280    29 May 2022 17:36:04.214      214.93404717    
29 May 2022 19:07:27.583    29 May 2022 19:15:16.021      468.43830011    
30 May 2022 01:46:32.593    30 May 2022 01:49:06.317      153.72399614    
30 May 2022 03:21:39.216    30 May 2022 03:29:46.024      486.80748796    
30 May 2022 18:27:02.023    30 May 2022 18:34:59.405      477.38168665    
30 May 2022 20:07:42.938    30 May 2022 20:10:02.625      139.68726222    
31 May 2022 02:41:22.630    31 May 2022 02:49:19.274      476.64361292    
31 May 2022 04:20:26.556    31 May 2022 04:24:26.756      240.19977527    
31 May 2022 17:46:44.569    31 May 2022 17:54:36.207      471.63819380    
31 May 2022 19:26:02.949    31 May 2022 19:30:39.359      276.40933609    
01 Jun 2022 02:01:10.610    01 Jun 2022 02:08:42.890      452.28026721    
01 Jun 2022 03:39:10.985    01 Jun 2022 03:45:09.897      358.91123187    
01 Jun 2022 17:06:36.055    01 Jun 2022 17:14:05.307      449.25204674    
01 Jun 2022 18:44:53.050    01 Jun 2022 18:50:48.812      355.76137688    
02 Jun 2022 01:21:03.471    02 Jun 2022 01:27:56.269      412.79839023    
02 Jun 2022 02:58:19.867    02 Jun 2022 03:05:24.962      425.09446491    
02 Jun 2022 16:26:38.498    02 Jun 2022 16:33:24.398      405.89925810    
02 Jun 2022 18:03:56.938    02 Jun 2022 18:10:47.086      410.14764772    
03 Jun 2022 00:41:02.573    03 Jun 2022 00:46:57.777      355.20340522    
03 Jun 2022 02:17:40.705    03 Jun 2022 02:25:24.156      463.45080987    
03 Jun 2022 15:46:56.836    03 Jun 2022 15:52:28.256      331.42005536    
03 Jun 2022 17:23:10.796    03 Jun 2022 17:30:37.754      446.95863639    
04 Jun 2022 00:01:12.005    04 Jun 2022 00:05:43.074      271.06874131    
04 Jun 2022 01:37:09.315    04 Jun 2022 01:45:11.364      482.04845907    
04 Jun 2022 15:07:49.552    04 Jun 2022 15:10:58.109      188.55705316    
04 Jun 2022 16:42:33.182    04 Jun 2022 16:50:21.982      468.79943116    
04 Jun 2022 23:21:52.353    04 Jun 2022 23:23:51.363      119.01016468    
05 Jun 2022 00:56:43.758    05 Jun 2022 01:04:48.219      484.46064990    
05 Jun 2022 16:02:03.629    05 Jun 2022 16:09:59.949      476.32005899    
05 Jun 2022 17:42:32.366    05 Jun 2022 17:45:11.635      159.26904817    
06 Jun 2022 00:16:23.102    06 Jun 2022 00:24:15.343      472.24093928    
06 Jun 2022 01:55:16.571    06 Jun 2022 01:59:34.359      257.78843873    
06 Jun 2022 15:21:42.328    06 Jun 2022 15:29:31.164      468.83596379    
06 Jun 2022 17:00:52.586    06 Jun 2022 17:05:38.847      286.26155332    
06 Jun 2022 23:36:07.085    06 Jun 2022 23:43:32.692      445.60719375    
07 Jun 2022 01:14:00.502    07 Jun 2022 01:20:08.017      367.51445228    
07 Jun 2022 14:41:30.227    07 Jun 2022 14:48:54.375      444.14835724    
07 Jun 2022 16:19:39.497    07 Jun 2022 16:25:42.161      362.66459457    
07 Jun 2022 22:55:56.143    07 Jun 2022 23:02:39.526      403.38345846    
08 Jun 2022 00:33:06.445    08 Jun 2022 00:40:15.966      429.52133627    
08 Jun 2022 14:01:29.602    08 Jun 2022 14:08:07.007      397.40589835    
08 Jun 2022 15:38:39.670    08 Jun 2022 15:45:34.784      415.11313546    
08 Jun 2022 22:15:51.922    08 Jun 2022 22:21:33.913      341.99089799    
08 Jun 2022 23:52:23.687    09 Jun 2022 00:00:08.613      464.92572486    
09 Jun 2022 13:21:46.203    09 Jun 2022 13:27:03.010      316.80752460    
09 Jun 2022 14:57:49.657    09 Jun 2022 15:05:19.906      450.24835024    
09 Jun 2022 21:35:59.555    09 Jun 2022 21:40:10.464      250.90898657    
09 Jun 2022 23:11:48.422    09 Jun 2022 23:19:49.454      481.03129501    
10 Jun 2022 12:42:45.253    10 Jun 2022 12:45:16.866      151.61347714    
10 Jun 2022 14:17:08.148    10 Jun 2022 14:24:58.554      470.40581609    
10 Jun 2022 20:56:58.495    10 Jun 2022 20:57:49.515      51.020034822    
10 Jun 2022 22:31:18.863    10 Jun 2022 22:39:19.962      481.09874397    
11 Jun 2022 13:36:34.757    11 Jun 2022 13:44:30.816      476.05897046    
11 Jun 2022 15:16:49.101    11 Jun 2022 15:19:52.659      183.55793335    
11 Jun 2022 21:50:54.176    11 Jun 2022 21:58:40.656      466.48058341    
11 Jun 2022 23:29:36.155    11 Jun 2022 23:34:12.661      276.50583966    
12 Jun 2022 12:56:09.773    12 Jun 2022 13:03:56.101      466.32766858    
12 Jun 2022 14:35:10.018    12 Jun 2022 14:40:09.722      299.70428901    
12 Jun 2022 21:10:34.200    12 Jun 2022 21:17:51.386      437.18663743    
12 Jun 2022 22:48:19.631    12 Jun 2022 22:54:36.536      376.90521745    
13 Jun 2022 12:15:54.305    13 Jun 2022 12:23:12.999      438.69394229    
13 Jun 2022 13:53:54.087    13 Jun 2022 14:00:06.383      372.29634617    
13 Jun 2022 20:30:19.542    13 Jun 2022 20:36:51.244      391.70279737    
13 Jun 2022 22:07:22.733    13 Jun 2022 22:14:36.985      434.25280766    
14 Jun 2022 11:35:50.984    14 Jun 2022 11:42:18.581      387.59708859    
14 Jun 2022 13:12:50.765    14 Jun 2022 13:19:52.961      422.19580770    
14 Jun 2022 19:50:12.260    14 Jun 2022 19:55:37.892      325.63220453    
14 Jun 2022 21:26:36.427    14 Jun 2022 21:34:22.739      466.31198080    
15 Jun 2022 10:56:06.752    15 Jun 2022 11:01:05.608      298.85644357    
15 Jun 2022 12:31:57.057    15 Jun 2022 12:39:32.193      455.13625623    
15 Jun 2022 19:10:19.163    15 Jun 2022 19:14:04.272      225.10914789    
15 Jun 2022 20:45:57.310    15 Jun 2022 20:53:56.895      479.58441277    
16 Jun 2022 10:17:22.838    16 Jun 2022 10:18:52.564      89.726192749    
16 Jun 2022 11:51:11.825    16 Jun 2022 11:59:04.937      473.11206273    
16 Jun 2022 20:05:23.770    16 Jun 2022 20:13:20.755      476.98468555    
16 Jun 2022 21:45:46.645    16 Jun 2022 21:46:58.649      72.004006198    
17 Jun 2022 11:10:34.801    17 Jun 2022 11:18:31.172      476.37123460    
17 Jun 2022 12:50:33.125    17 Jun 2022 12:54:04.280      211.15459423    
17 Jun 2022 19:24:55.093    17 Jun 2022 19:32:34.725      459.63175055    
17 Jun 2022 21:03:24.724    17 Jun 2022 21:08:21.089      296.36495261    
18 Jun 2022 10:30:06.404    18 Jun 2022 10:37:50.187      463.78317077    
18 Jun 2022 12:08:54.811    18 Jun 2022 12:14:11.096      316.28541889    
18 Jun 2022 18:44:31.251    18 Jun 2022 18:51:38.532      427.28048076    
18 Jun 2022 20:22:07.761    18 Jun 2022 20:28:35.015      387.25429819    
19 Jun 2022 09:49:47.955    19 Jun 2022 09:57:00.368      432.41274805    
19 Jun 2022 11:27:36.421    19 Jun 2022 11:34:00.751      384.33055028    
19 Jun 2022 18:04:13.076    19 Jun 2022 18:10:31.053      377.97698008    
19 Jun 2022 19:41:08.185    19 Jun 2022 19:48:27.704      439.51885987    
20 Jun 2022 09:09:42.576    20 Jun 2022 09:15:58.303      375.72768631    
20 Jun 2022 10:46:29.957    20 Jun 2022 10:53:41.026      431.06895568    
20 Jun 2022 17:24:03.209    20 Jun 2022 17:29:09.380      306.17066002    
20 Jun 2022 19:00:18.495    20 Jun 2022 19:08:06.360      467.86484183    
21 Jun 2022 08:29:59.031    21 Jun 2022 08:34:34.944      275.91286234    
21 Jun 2022 10:05:32.912    21 Jun 2022 10:13:14.171      461.25908688    
21 Jun 2022 16:44:11.318    21 Jun 2022 16:47:23.612      192.29328849    
21 Jun 2022 18:19:35.700    21 Jun 2022 18:27:33.675      477.97480195    
22 Jun 2022 09:24:44.349    22 Jun 2022 09:32:40.851      476.50179175    
22 Jun 2022 17:38:58.378    22 Jun 2022 17:46:50.766      472.38822682    
22 Jun 2022 19:18:41.635    22 Jun 2022 19:21:10.444      148.80846256    
23 Jun 2022 08:44:04.138    23 Jun 2022 08:52:00.910      476.77208110    
23 Jun 2022 10:23:45.334    23 Jun 2022 10:27:45.899      240.56520938    
23 Jun 2022 16:58:25.949    23 Jun 2022 17:05:57.906      451.95675194    
23 Jun 2022 18:36:42.587    23 Jun 2022 18:41:59.876      317.28930571    
24 Jun 2022 08:03:32.857    24 Jun 2022 08:11:13.480      460.62302113    
24 Jun 2022 09:42:07.765    24 Jun 2022 09:47:42.892      335.12695256    
24 Jun 2022 16:17:58.543    24 Jun 2022 16:24:54.668      416.12528736    
24 Jun 2022 17:55:25.320    24 Jun 2022 18:02:03.961      398.64097734    
25 Jun 2022 07:23:12.103    25 Jun 2022 07:30:16.671      424.56845533    
25 Jun 2022 09:00:47.417    25 Jun 2022 09:07:25.497      398.08024561    
25 Jun 2022 15:37:37.277    25 Jun 2022 15:43:39.644      362.36696147    
25 Jun 2022 17:14:23.385    25 Jun 2022 17:21:48.852      445.46756654    
26 Jun 2022 06:43:05.683    26 Jun 2022 06:49:06.387      360.70369694    
26 Jun 2022 08:19:38.336    26 Jun 2022 08:26:59.437      441.10103985    


Number of events : 243


Observer: Cape_Town
Start Time (UTC)            Stop Time (UTC)               Duration (s)         
27 Apr 2022 22:16:40.595    27 Apr 2022 22:24:43.150      482.55487449    
27 Apr 2022 23:55:22.958    28 Apr 2022 00:01:35.219      372.26113494    
28 Apr 2022 03:15:10.249    28 Apr 2022 03:17:24.491      134.24118559    
28 Apr 2022 04:51:03.430    28 Apr 2022 04:58:27.151      443.72066738    
28 Apr 2022 06:28:28.632    28 Apr 2022 06:35:59.211      450.57907981    
28 Apr 2022 21:36:59.751    28 Apr 2022 21:44:48.536      468.78557618    
28 Apr 2022 23:15:06.829    28 Apr 2022 23:21:56.077      409.24825642    
29 Apr 2022 04:11:22.630    29 Apr 2022 04:18:15.153      412.52342976    
29 Apr 2022 05:48:29.126    29 Apr 2022 05:56:24.950      475.82430630    
29 Apr 2022 20:57:25.892    29 Apr 2022 21:04:47.753      441.86100920    
29 Apr 2022 22:34:54.763    29 Apr 2022 22:42:14.162      439.39905219    
30 Apr 2022 00:15:56.496    30 Apr 2022 00:18:06.346      129.84998720    
30 Apr 2022 03:31:42.654    30 Apr 2022 03:37:56.951      374.29740998    
30 Apr 2022 05:08:33.616    30 Apr 2022 05:16:41.796      488.17990150    
30 Apr 2022 20:18:01.076    30 Apr 2022 20:24:38.614      397.53826599    
30 Apr 2022 21:54:46.915    30 Apr 2022 22:02:29.352      462.43629019    
30 Apr 2022 23:35:11.107    30 Apr 2022 23:38:40.040      208.93302548    
01 May 2022 02:52:03.584    01 May 2022 02:57:32.544      328.95981800    
01 May 2022 04:28:40.928    01 May 2022 04:36:50.786      489.85813904    
01 May 2022 06:08:02.398    01 May 2022 06:11:31.399      209.00078563    
01 May 2022 19:38:49.717    01 May 2022 19:44:16.566      326.84931785    
01 May 2022 21:14:43.511    01 May 2022 21:22:41.401      477.88960892    
01 May 2022 22:54:34.502    01 May 2022 22:59:05.517      271.01487606    
02 May 2022 02:12:25.800    02 May 2022 02:17:01.702      275.90195570    
02 May 2022 03:48:50.304    02 May 2022 03:56:52.557      482.25282988    
02 May 2022 05:27:14.770    02 May 2022 05:32:46.974      332.20397065    
02 May 2022 19:00:06.367    02 May 2022 19:03:26.919      200.55225533    
02 May 2022 20:34:44.867    02 May 2022 20:42:49.936      485.06912986    
02 May 2022 22:14:03.071    02 May 2022 22:19:26.707      323.63624750    
03 May 2022 01:32:50.417    03 May 2022 01:36:23.534      213.11664165    
03 May 2022 03:09:01.228    03 May 2022 03:16:47.518      466.28908374    
03 May 2022 04:46:51.665    03 May 2022 04:53:33.626      401.96078934    
03 May 2022 19:54:51.436    03 May 2022 20:02:54.411      482.97590765    
03 May 2022 21:33:35.975    03 May 2022 21:39:44.683      368.70767623    
04 May 2022 00:53:21.468    04 May 2022 00:55:34.312      132.84443856    
04 May 2022 02:29:13.351    04 May 2022 02:36:35.943      442.59198398    
04 May 2022 04:06:39.288    04 May 2022 04:14:04.994      445.70557633    
04 May 2022 19:15:03.907    04 May 2022 19:22:54.025      470.11776413    
04 May 2022 20:53:13.025    04 May 2022 20:59:59.797      406.77192706    
05 May 2022 01:49:26.449    05 May 2022 01:56:18.015      411.56528770    
05 May 2022 03:26:33.237    05 May 2022 03:34:25.325      472.08808449    
05 May 2022 18:35:23.398    05 May 2022 18:42:47.525      444.12710974    
05 May 2022 20:12:54.250    05 May 2022 20:20:12.104      437.85396307    
05 May 2022 21:53:59.408    05 May 2022 21:56:00.899      121.49044694    
06 May 2022 01:09:40.430    06 May 2022 01:15:53.835      373.40486271    
06 May 2022 02:46:31.372    06 May 2022 02:54:36.599      485.22632763    
06 May 2022 17:55:51.913    06 May 2022 18:02:32.768      400.85538081    
06 May 2022 19:32:39.789    06 May 2022 19:40:21.496      461.70681379    
06 May 2022 21:13:05.855    06 May 2022 21:16:30.325      204.47047896    
07 May 2022 00:29:55.367    07 May 2022 00:35:23.394      328.02717369    
07 May 2022 02:06:32.452    07 May 2022 02:14:39.909      487.45710317    
07 May 2022 03:45:58.553    07 May 2022 03:49:14.140      195.58722776    
07 May 2022 17:16:33.715    07 May 2022 17:22:05.339      331.62451858    
07 May 2022 18:52:29.855    07 May 2022 19:00:27.731      477.87579827    
07 May 2022 20:32:22.188    07 May 2022 20:36:50.466      268.27788785    
07 May 2022 23:50:11.642    07 May 2022 23:54:46.450      274.80709045    
08 May 2022 01:26:35.678    08 May 2022 01:34:35.919      480.24053348    
08 May 2022 03:05:01.679    08 May 2022 03:10:27.116      325.43730517    
08 May 2022 16:37:42.438    08 May 2022 16:41:11.456      209.01794411    
08 May 2022 18:12:24.757    08 May 2022 18:20:30.436      485.67944546    
08 May 2022 19:51:43.998    08 May 2022 19:57:06.051      322.05317609    
08 May 2022 23:10:30.399    08 May 2022 23:14:02.072      211.67244182    
09 May 2022 00:46:40.509    09 May 2022 00:54:25.050      464.54056394    
09 May 2022 02:24:31.557    09 May 2022 02:31:08.940      397.38307830    
09 May 2022 17:32:24.942    09 May 2022 17:40:29.066      484.12336169    
09 May 2022 19:11:10.299    09 May 2022 19:17:18.307      368.00742983    
09 May 2022 22:30:55.851    09 May 2022 22:33:06.346      130.49483289    
10 May 2022 00:06:46.578    10 May 2022 00:14:07.584      441.00663154    
10 May 2022 01:44:12.670    10 May 2022 01:51:34.966      442.29670325    
10 May 2022 16:52:31.098    10 May 2022 17:00:22.816      471.71802105    
10 May 2022 18:30:40.852    10 May 2022 18:37:27.633      406.78086322    
10 May 2022 23:26:53.650    10 May 2022 23:33:43.708      410.05862940    
11 May 2022 01:04:00.324    11 May 2022 01:11:49.724      469.40000217    
11 May 2022 16:12:44.337    11 May 2022 16:20:10.435      446.09866475    
11 May 2022 17:50:15.670    11 May 2022 17:57:34.107      438.43684847    
11 May 2022 19:31:21.397    11 May 2022 19:33:21.854      120.45644908    
11 May 2022 22:47:01.623    11 May 2022 22:53:13.527      371.90346080    
12 May 2022 00:23:52.282    12 May 2022 00:31:55.287      483.00552489    
12 May 2022 15:33:06.658    12 May 2022 15:39:49.784      403.12522020    
12 May 2022 17:09:54.884    12 May 2022 17:17:37.628      462.74391903    
12 May 2022 18:50:21.000    12 May 2022 18:53:45.864      204.86334013    
12 May 2022 22:07:10.571    12 May 2022 22:12:37.035      326.46435716    
12 May 2022 23:43:47.256    12 May 2022 23:51:52.794      485.53805145    
13 May 2022 01:23:14.925    13 May 2022 01:26:24.382      189.45678330    
13 May 2022 14:53:42.308    13 May 2022 14:59:16.468      334.16035714    
13 May 2022 16:29:38.710    13 May 2022 16:37:37.962      479.25176112    
13 May 2022 18:09:30.844    13 May 2022 18:14:00.267      269.42294959    
13 May 2022 21:27:20.875    13 May 2022 21:31:53.990      273.11529592    
13 May 2022 23:03:44.425    13 May 2022 23:11:42.929      478.50459722    
14 May 2022 00:42:10.514    14 May 2022 00:47:33.067      322.55204685    
14 May 2022 14:14:44.741    14 May 2022 14:18:16.885      212.14449846    
14 May 2022 15:49:27.461    14 May 2022 15:57:34.737      487.27606223    
14 May 2022 17:28:46.301    14 May 2022 17:34:10.029      323.72797779    
14 May 2022 20:47:33.699    14 May 2022 20:51:03.453      209.75400178    
14 May 2022 22:23:43.235    14 May 2022 22:31:26.133      462.89726354    
15 May 2022 00:01:33.988    15 May 2022 00:08:09.464      395.47584979    
15 May 2022 15:09:21.594    15 May 2022 15:17:27.407      485.81264103    
15 May 2022 16:48:06.350    15 May 2022 16:54:16.421      370.07097256    
15 May 2022 20:07:53.391    15 May 2022 20:10:01.389      127.99820151    
15 May 2022 21:43:43.314    15 May 2022 21:51:02.699      439.38442807    
15 May 2022 23:21:08.951    15 May 2022 23:28:29.812      440.86078611    
16 May 2022 14:29:21.810    16 May 2022 14:37:15.162      473.35232024    
16 May 2022 16:07:30.751    16 May 2022 16:14:19.866      409.11524598    
16 May 2022 21:03:44.425    16 May 2022 21:10:32.825      408.40060272    
16 May 2022 22:40:50.575    16 May 2022 22:48:38.780      468.20541406    
17 May 2022 13:49:29.247    17 May 2022 13:56:56.739      447.49238770    
17 May 2022 15:26:59.520    17 May 2022 15:34:20.450      440.92948482    
17 May 2022 17:08:02.854    17 May 2022 17:10:09.593      126.73911749    
17 May 2022 20:23:46.465    17 May 2022 20:29:56.631      370.16598531    
17 May 2022 22:00:36.582    17 May 2022 22:08:38.497      481.91555740    
18 May 2022 13:09:45.950    18 May 2022 13:16:29.962      404.01198647    
18 May 2022 14:46:32.799    18 May 2022 14:54:18.078      465.27944044    
18 May 2022 16:26:57.142    18 May 2022 16:30:26.978      209.83609592    
18 May 2022 19:43:49.508    18 May 2022 19:49:14.126      324.61772697    
18 May 2022 21:20:25.667    18 May 2022 21:28:30.126      484.45842104    
18 May 2022 22:59:51.286    18 May 2022 23:03:03.400      192.11371763    
19 May 2022 12:30:16.280    19 May 2022 12:35:50.336      334.05547659    
19 May 2022 14:06:10.814    19 May 2022 14:14:12.520      481.70617662    
19 May 2022 15:46:01.223    19 May 2022 15:50:35.326      274.10389571    
19 May 2022 19:03:53.937    19 May 2022 19:08:25.082      271.14468544    
19 May 2022 20:40:17.004    19 May 2022 20:48:14.368      477.36442663    
19 May 2022 22:18:41.636    19 May 2022 22:24:05.745      324.10938571    
20 May 2022 11:51:14.258    20 May 2022 11:54:43.701      209.44332780    
20 May 2022 13:25:53.891    20 May 2022 13:34:03.401      489.51009822    
20 May 2022 15:05:10.908    20 May 2022 15:10:39.180      328.27160696    
20 May 2022 18:24:00.922    20 May 2022 18:27:28.574      207.65195625    
20 May 2022 20:00:10.036    20 May 2022 20:07:51.678      461.64117657    
20 May 2022 21:37:59.555    20 May 2022 21:44:36.181      396.62616573    
21 May 2022 12:45:42.507    21 May 2022 12:53:50.169      487.66158273    
21 May 2022 14:24:25.265    21 May 2022 14:30:39.742      374.47732785    
21 May 2022 17:44:14.877    21 May 2022 17:46:20.519      125.64256528    
21 May 2022 19:20:04.390    21 May 2022 19:27:22.360      437.96963239    
21 May 2022 20:57:28.951    21 May 2022 21:04:50.650      441.69941030    
22 May 2022 12:05:37.386    22 May 2022 12:13:31.994      474.60761543    
22 May 2022 13:43:44.083    22 May 2022 13:50:37.412      413.32871325    
22 May 2022 18:39:59.828    22 May 2022 18:46:46.624      406.79678957    
22 May 2022 20:17:05.041    22 May 2022 20:24:53.788      468.74722426    
23 May 2022 11:25:39.713    23 May 2022 11:33:07.576      447.86316465    
23 May 2022 13:03:07.401    23 May 2022 13:10:32.266      444.86498387    
23 May 2022 14:44:06.045    23 May 2022 14:46:24.582      138.53609887    
23 May 2022 17:59:56.245    23 May 2022 18:06:04.602      368.35723965    
23 May 2022 19:36:45.559    23 May 2022 19:44:47.711      482.15192392    
24 May 2022 10:45:51.622    24 May 2022 10:52:34.650      403.02798488    
24 May 2022 12:22:35.371    24 May 2022 12:30:24.202      468.83025100    
24 May 2022 14:02:56.362    24 May 2022 14:06:34.781      218.41893228    
24 May 2022 17:19:53.711    24 May 2022 17:25:16.317      322.60626163    
24 May 2022 18:56:29.208    24 May 2022 19:04:33.580      484.37187423    
24 May 2022 20:35:49.349    24 May 2022 20:39:12.701      203.35234953    
25 May 2022 10:06:17.731    25 May 2022 10:11:48.464      330.73214544    
25 May 2022 11:42:08.232    25 May 2022 11:50:12.976      484.74394649    
25 May 2022 13:21:55.540    25 May 2022 13:26:37.066      281.52520648    
25 May 2022 16:39:52.602    25 May 2022 16:44:21.558      268.95616476    
25 May 2022 18:16:15.162    25 May 2022 18:24:12.097      476.93438785    
25 May 2022 19:54:36.856    25 May 2022 20:00:06.956      330.10059429    
26 May 2022 09:27:13.548    26 May 2022 09:30:33.371      199.82378162    
26 May 2022 11:01:46.322    26 May 2022 11:09:58.200      491.87884983    
26 May 2022 12:41:00.209    26 May 2022 12:46:35.167      334.95836849    
26 May 2022 15:59:54.080    26 May 2022 16:03:19.418      205.33803172    
26 May 2022 17:36:02.866    26 May 2022 17:43:43.713      460.84728597    
26 May 2022 19:13:50.253    26 May 2022 19:20:31.076      400.82355828    
27 May 2022 10:21:30.134    27 May 2022 10:29:39.298      489.16373964    
27 May 2022 12:00:09.590    27 May 2022 12:06:30.128      380.53821393    
27 May 2022 15:20:02.591    27 May 2022 15:22:05.793      123.20139402    
27 May 2022 16:55:51.942    27 May 2022 17:03:08.736      436.79463185    
27 May 2022 18:33:14.830    27 May 2022 18:40:39.616      444.78618256    
28 May 2022 09:41:20.425    28 May 2022 09:49:15.400      474.97532680    
28 May 2022 11:19:23.528    28 May 2022 11:26:22.287      418.75939787    
28 May 2022 16:15:42.148    28 May 2022 16:22:27.377      405.22970895    
28 May 2022 17:52:46.011    28 May 2022 18:00:36.990      470.97843041    
29 May 2022 09:01:18.438    29 May 2022 09:08:45.133      446.69531775    
29 May 2022 10:38:42.081    29 May 2022 10:46:11.686      449.60548226    
29 May 2022 12:19:34.669    29 May 2022 12:22:07.998      153.32911955    
29 May 2022 15:35:33.373    29 May 2022 15:41:39.770      366.39717026    
29 May 2022 17:12:21.598    29 May 2022 17:20:25.241      483.64272629    
30 May 2022 08:21:26.451    30 May 2022 08:28:06.077      399.62593226    
30 May 2022 09:58:05.413    30 May 2022 10:05:58.197      472.78341082    
30 May 2022 11:38:21.842    30 May 2022 11:42:11.077      229.23532999    
30 May 2022 14:55:25.675    30 May 2022 15:00:45.942      320.26647599    
30 May 2022 16:32:00.315    30 May 2022 16:40:05.491      485.17629679    
30 May 2022 18:11:12.382    30 May 2022 18:14:53.742      221.36051069    
31 May 2022 07:41:49.518    31 May 2022 07:47:13.023      323.50528581    
31 May 2022 09:17:33.771    31 May 2022 09:25:41.549      487.77837104    
31 May 2022 10:57:16.830    31 May 2022 11:02:07.456      290.62565030    
31 May 2022 14:15:19.424    31 May 2022 14:19:45.691      266.26650643    
31 May 2022 15:51:41.345    31 May 2022 15:59:38.420      477.07560898    
31 May 2022 17:29:58.808    31 May 2022 17:35:38.763      339.95497751    
01 Jun 2022 07:02:46.079    01 Jun 2022 07:05:47.376      181.29717690    
01 Jun 2022 08:37:07.502    01 Jun 2022 08:45:21.324      493.82149482    
01 Jun 2022 10:16:17.110    01 Jun 2022 10:21:59.998      342.88781653    
01 Jun 2022 13:35:15.777    01 Jun 2022 13:38:38.108      202.33118478    
01 Jun 2022 15:11:24.132    01 Jun 2022 15:19:04.465      460.33230938    
01 Jun 2022 16:49:08.560    01 Jun 2022 16:55:56.241      407.68119623    
02 Jun 2022 07:56:47.122    02 Jun 2022 08:04:56.902      489.78034513    
02 Jun 2022 09:35:22.087    02 Jun 2022 09:41:49.547      387.46021452    
02 Jun 2022 12:55:19.285    02 Jun 2022 12:57:18.987      119.70165409    
02 Jun 2022 14:31:08.297    02 Jun 2022 14:38:23.920      435.62284713    
02 Jun 2022 16:08:28.923    02 Jun 2022 16:15:58.714      449.79031454    
03 Jun 2022 07:16:33.425    03 Jun 2022 07:24:27.354      473.92878783    
03 Jun 2022 08:54:31.662    03 Jun 2022 09:01:36.357      424.69569985    
03 Jun 2022 10:36:07.784    03 Jun 2022 10:37:05.129      57.345264545    
03 Jun 2022 13:50:53.592    03 Jun 2022 13:57:36.991      403.39857104    
03 Jun 2022 15:27:55.660    03 Jun 2022 15:35:50.241      474.58106533    
04 Jun 2022 06:36:27.745    04 Jun 2022 06:43:51.197      443.45170573    
04 Jun 2022 08:13:45.918    04 Jun 2022 08:21:20.425      454.50631472    
04 Jun 2022 09:54:31.780    04 Jun 2022 09:57:20.786      169.00618417    
04 Jun 2022 13:10:39.901    04 Jun 2022 13:16:43.807      363.90572141    
04 Jun 2022 14:47:26.677    04 Jun 2022 14:55:32.738      486.06112810    
05 Jun 2022 05:56:32.573    05 Jun 2022 06:03:05.773      393.20024763    
05 Jun 2022 07:33:05.033    05 Jun 2022 07:41:01.584      476.55045498    
05 Jun 2022 09:13:16.001    05 Jun 2022 09:17:17.005      241.00393160    
05 Jun 2022 12:30:27.281    05 Jun 2022 12:35:44.396      317.11499722    
05 Jun 2022 14:07:00.745    05 Jun 2022 14:15:07.268      486.52221618    
05 Jun 2022 15:46:03.072    05 Jun 2022 15:50:06.924      243.85273021    
06 Jun 2022 05:16:53.671    06 Jun 2022 05:22:05.152      311.48152943    
06 Jun 2022 06:52:29.264    06 Jun 2022 07:00:39.532      490.26787014    
06 Jun 2022 08:32:07.101    06 Jun 2022 08:37:07.544      300.44266133    
06 Jun 2022 11:50:16.103    06 Jun 2022 11:54:38.547      262.44354355    
06 Jun 2022 13:26:37.067    06 Jun 2022 13:34:34.473      477.40546317    
06 Jun 2022 15:04:49.220    06 Jun 2022 15:10:42.006      352.78614219    
07 Jun 2022 04:37:55.379    07 Jun 2022 04:40:24.820      149.44131877    
07 Jun 2022 06:11:58.978    07 Jun 2022 06:20:13.812      494.83364546    
07 Jun 2022 07:51:03.265    07 Jun 2022 07:56:54.541      351.27590219    
07 Jun 2022 11:10:07.572    07 Jun 2022 11:13:25.313      197.74055168    
07 Jun 2022 12:46:15.100    07 Jun 2022 12:53:54.770      459.67084427    
07 Jun 2022 14:23:55.799    07 Jun 2022 14:30:52.369      416.57006247    
08 Jun 2022 05:31:34.723    08 Jun 2022 05:39:43.754      489.03183468    
08 Jun 2022 07:10:04.068    08 Jun 2022 07:16:38.647      394.57973371    
08 Jun 2022 10:30:06.613    08 Jun 2022 10:32:00.121      113.50799646    
08 Jun 2022 12:05:54.468    08 Jun 2022 12:13:08.444      433.97572740    
08 Jun 2022 13:43:12.232    08 Jun 2022 13:50:48.402      456.16946106    
09 Jun 2022 04:51:17.358    09 Jun 2022 04:59:08.352      470.99384568    
09 Jun 2022 06:29:09.475    09 Jun 2022 06:36:20.040      430.56441676    
09 Jun 2022 08:10:30.867    09 Jun 2022 08:12:00.486      89.619195869    
09 Jun 2022 11:25:34.932    09 Jun 2022 11:32:15.691      400.75889358    
09 Jun 2022 13:02:34.696    09 Jun 2022 13:10:33.737      479.04118277    
10 Jun 2022 04:11:08.351    10 Jun 2022 04:18:25.977      437.62577581    
10 Jun 2022 05:48:19.601    10 Jun 2022 05:55:58.667      459.06629898    
10 Jun 2022 07:28:58.410    10 Jun 2022 07:32:02.690      184.27979972    
10 Jun 2022 10:45:16.384    10 Jun 2022 10:51:16.638      360.25471841    
10 Jun 2022 12:22:01.246    10 Jun 2022 12:30:10.139      488.89344181    
11 Jun 2022 03:31:10.522    11 Jun 2022 03:37:33.637      383.11508778    
11 Jun 2022 05:07:34.643    11 Jun 2022 05:15:34.332      479.68885641    
11 Jun 2022 06:47:39.437    11 Jun 2022 06:51:52.262      252.82438147    
11 Jun 2022 10:04:58.897    11 Jun 2022 10:10:11.309      312.41165791    
11 Jun 2022 11:41:30.720    11 Jun 2022 11:49:38.599      487.87961395    
11 Jun 2022 13:20:22.336    11 Jun 2022 13:24:51.177      268.84053284    
12 Jun 2022 02:51:30.772    12 Jun 2022 02:56:24.259      293.48703056    
12 Jun 2022 04:26:54.883    12 Jun 2022 04:35:06.700      491.81671258    
12 Jun 2022 06:06:26.628    12 Jun 2022 06:11:36.929      310.30110118    
12 Jun 2022 09:24:42.888    12 Jun 2022 09:28:59.468      256.58051460    
12 Jun 2022 11:01:02.359    12 Jun 2022 11:08:59.725      477.36656276    
12 Jun 2022 12:39:08.304    12 Jun 2022 12:45:15.914      367.61002138    
13 Jun 2022 02:12:48.675    13 Jun 2022 02:14:18.094      89.419387118    
13 Jun 2022 03:46:20.721    13 Jun 2022 03:54:35.274      494.55346662    
13 Jun 2022 05:25:18.698    13 Jun 2022 05:31:18.290      359.59221697    
13 Jun 2022 08:44:29.703    13 Jun 2022 08:47:40.051      190.34819179    
13 Jun 2022 10:20:35.645    13 Jun 2022 10:28:13.915      458.27020719    
13 Jun 2022 11:58:11.897    13 Jun 2022 12:05:18.644      426.74751682    
14 Jun 2022 03:05:52.757    14 Jun 2022 03:13:59.330      486.57342981    
14 Jun 2022 04:44:15.371    14 Jun 2022 04:50:56.841      401.47025061    
14 Jun 2022 08:04:25.270    14 Jun 2022 08:06:07.512      102.24182373    
14 Jun 2022 09:40:10.226    14 Jun 2022 09:47:21.445      431.21901616    
14 Jun 2022 11:17:24.514    14 Jun 2022 11:25:07.781      463.26698028    
15 Jun 2022 02:25:31.949    15 Jun 2022 02:33:17.765      465.81623345    
15 Jun 2022 04:03:16.674    15 Jun 2022 04:10:32.692      436.01813328    
15 Jun 2022 05:44:27.053    15 Jun 2022 05:46:20.347      113.29418187    
15 Jun 2022 08:59:45.881    15 Jun 2022 09:06:22.510      396.62843859    
15 Jun 2022 10:36:42.784    15 Jun 2022 10:44:46.518      483.73444243    
16 Jun 2022 01:45:19.958    16 Jun 2022 01:52:28.759      428.80097267    
16 Jun 2022 03:22:22.756    16 Jun 2022 03:30:05.756      462.99977631    
16 Jun 2022 05:02:54.282    16 Jun 2022 05:06:12.894      198.61145007    
16 Jun 2022 08:19:22.530    16 Jun 2022 08:25:17.234      354.70402620    
16 Jun 2022 09:56:04.930    16 Jun 2022 10:04:16.454      491.52482150    
16 Jun 2022 11:36:17.069    16 Jun 2022 11:37:54.017      96.948275948    
17 Jun 2022 01:05:20.095    17 Jun 2022 01:11:28.839      368.74426607    
17 Jun 2022 02:41:33.843    17 Jun 2022 02:49:35.804      481.96118680    
17 Jun 2022 04:21:31.829    17 Jun 2022 04:25:56.094      264.26506229    
17 Jun 2022 07:39:00.290    17 Jun 2022 07:44:05.627      305.33699332    
17 Jun 2022 09:15:29.877    17 Jun 2022 09:23:38.510      488.63313562    
17 Jun 2022 10:54:10.296    17 Jun 2022 10:59:05.023      294.72758534    
18 Jun 2022 00:25:41.140    18 Jun 2022 00:30:09.057      267.91691364    
18 Jun 2022 02:00:50.248    18 Jun 2022 02:09:02.472      492.22402812    
18 Jun 2022 03:40:15.080    18 Jun 2022 03:45:34.967      319.88677515    
18 Jun 2022 06:58:39.672    18 Jun 2022 07:02:47.394      247.72185936    
18 Jun 2022 08:34:56.918    18 Jun 2022 08:42:53.257      476.33905940    
18 Jun 2022 10:12:55.953    18 Jun 2022 10:19:19.357      383.40462490    
19 Jun 2022 01:20:12.418    19 Jun 2022 01:28:25.223      492.80492859    
19 Jun 2022 02:59:03.127    19 Jun 2022 03:05:10.733      367.60638405    
19 Jun 2022 06:18:22.336    19 Jun 2022 06:21:21.197      178.86097224    
19 Jun 2022 07:54:25.572    19 Jun 2022 08:02:01.077      455.50449818    
19 Jun 2022 09:31:56.742    19 Jun 2022 09:39:14.142      437.39989348    
20 Jun 2022 00:39:41.024    20 Jun 2022 00:47:43.263      482.23874734    
20 Jun 2022 02:17:55.809    20 Jun 2022 02:24:43.773      407.96370419    
20 Jun 2022 05:38:16.752    20 Jun 2022 05:39:38.985      82.232731394    
20 Jun 2022 07:13:55.518    20 Jun 2022 07:21:02.237      426.71896073    
20 Jun 2022 08:51:05.751    20 Jun 2022 08:58:56.115      470.36467959    
20 Jun 2022 23:59:17.154    21 Jun 2022 00:06:55.367      458.21225859    
21 Jun 2022 01:36:53.203    21 Jun 2022 01:44:14.141      440.93834711    
21 Jun 2022 03:17:54.096    21 Jun 2022 03:20:06.721      132.62484296    
21 Jun 2022 06:33:26.566    21 Jun 2022 06:39:56.927      390.36086201    
21 Jun 2022 08:10:20.045    21 Jun 2022 08:18:28.042      487.99731222    
21 Jun 2022 23:19:02.739    21 Jun 2022 23:25:59.450      416.71144391    
22 Jun 2022 00:55:55.487    22 Jun 2022 01:03:41.717      466.22996083    
22 Jun 2022 02:36:19.477    22 Jun 2022 02:39:51.464      211.98743961    
22 Jun 2022 05:52:58.678    22 Jun 2022 05:58:45.261      346.58279624    
22 Jun 2022 07:29:38.027    22 Jun 2022 07:37:51.356      493.32920532    
22 Jun 2022 09:09:16.621    22 Jun 2022 09:12:05.441      168.82021185    
22 Jun 2022 22:39:01.808    22 Jun 2022 22:44:51.325      349.51691204    
23 Jun 2022 00:15:02.915    23 Jun 2022 00:23:06.242      483.32649227    
23 Jun 2022 01:54:53.489    23 Jun 2022 01:59:28.748      275.25812307    
23 Jun 2022 05:12:32.040    23 Jun 2022 05:17:27.206      295.16611677    
23 Jun 2022 06:48:58.713    23 Jun 2022 06:57:06.899      488.18651231    
23 Jun 2022 08:27:27.806    23 Jun 2022 08:32:48.002      320.19609504    
23 Jun 2022 21:59:26.457    23 Jun 2022 22:03:18.734      232.27735294    
23 Jun 2022 23:34:15.833    23 Jun 2022 23:42:27.311      491.47829942    
24 Jun 2022 01:13:32.968    24 Jun 2022 01:19:02.133      329.16503465    
24 Jun 2022 04:32:07.332    24 Jun 2022 04:36:02.336      235.00367026    
24 Jun 2022 06:08:21.449    24 Jun 2022 06:16:15.202      473.75319408    
24 Jun 2022 07:46:13.079    24 Jun 2022 07:52:52.252      399.17243191    
24 Jun 2022 22:53:34.736    24 Jun 2022 23:01:44.332      489.59635209    
25 Jun 2022 00:32:17.254    25 Jun 2022 00:38:32.577      375.32334707    
25 Jun 2022 03:51:46.826    25 Jun 2022 03:54:28.731      161.90520240    
25 Jun 2022 05:27:45.791    25 Jun 2022 05:35:16.620      450.82921016    
25 Jun 2022 07:05:11.365    25 Jun 2022 07:12:39.091      447.72507290    
25 Jun 2022 22:13:00.383    25 Jun 2022 22:20:56.422      476.03872974    
25 Jun 2022 23:51:06.263    25 Jun 2022 23:58:00.365      414.10237884    
26 Jun 2022 03:11:47.895    26 Jun 2022 03:12:29.472      41.576503264    
26 Jun 2022 04:47:11.450    26 Jun 2022 04:54:11.405      419.95524232    
26 Jun 2022 06:24:17.117    26 Jun 2022 06:32:13.893      476.77553203    


Number of events : 329


Observer: Hawaii
Start Time (UTC)            Stop Time (UTC)               Duration (s)         
27 Apr 2022 19:51:00.619    27 Apr 2022 19:55:09.678      249.05839248    
27 Apr 2022 21:26:22.243    27 Apr 2022 21:34:10.168      467.92494416    
28 Apr 2022 05:43:46.547    28 Apr 2022 05:50:38.797      412.24970520    
28 Apr 2022 07:21:23.016    28 Apr 2022 07:27:40.676      377.66045092    
28 Apr 2022 20:46:23.114    28 Apr 2022 20:54:28.648      485.53392881    
29 Apr 2022 05:04:23.714    29 Apr 2022 05:10:13.119      349.40479046    
29 Apr 2022 06:41:07.404    29 Apr 2022 06:48:23.413      436.00919744    
29 Apr 2022 20:06:32.475    29 Apr 2022 20:14:39.272      486.79701729    
29 Apr 2022 21:47:30.473    29 Apr 2022 21:49:09.907      99.433811463    
30 Apr 2022 04:25:16.726    30 Apr 2022 04:29:25.601      248.87502274    
30 Apr 2022 06:01:02.854    30 Apr 2022 06:08:51.332      468.47819629    
30 Apr 2022 19:26:50.604    30 Apr 2022 19:34:41.424      470.81989740    
30 Apr 2022 21:05:59.145    30 Apr 2022 21:10:41.502      282.35724124    
01 May 2022 05:21:06.045    01 May 2022 05:29:07.412      481.36659953    
01 May 2022 18:47:18.868    01 May 2022 18:54:33.402      434.53417935    
01 May 2022 20:25:15.652    01 May 2022 20:31:27.470      371.81781546    
02 May 2022 04:41:15.537    02 May 2022 04:49:12.744      477.20696074    
02 May 2022 18:08:00.808    02 May 2022 18:14:11.335      370.52665242    
02 May 2022 19:44:49.140    02 May 2022 19:51:58.305      429.16500050    
03 May 2022 04:01:30.913    03 May 2022 04:09:07.384      456.47084088    
03 May 2022 05:40:16.344    03 May 2022 05:44:45.409      269.06480428    
03 May 2022 17:29:07.396    03 May 2022 17:33:23.915      256.51989144    
03 May 2022 19:04:34.022    03 May 2022 19:12:19.227      465.20587227    
04 May 2022 03:21:52.700    04 May 2022 03:28:50.425      417.72561972    
04 May 2022 04:59:32.256    04 May 2022 05:05:47.729      375.47284806    
04 May 2022 18:24:28.249    04 May 2022 18:32:31.923      483.67370737    
05 May 2022 02:42:22.978    05 May 2022 02:48:19.401      356.42342978    
05 May 2022 04:19:09.497    05 May 2022 04:26:25.362      435.86470956    
05 May 2022 17:44:31.134    05 May 2022 17:52:36.716      485.58141146    
05 May 2022 19:25:41.599    05 May 2022 19:26:54.932      73.333479348    
06 May 2022 02:03:08.373    06 May 2022 02:07:27.289      258.91613171    
06 May 2022 03:38:58.209    06 May 2022 03:46:47.819      469.60925753    
06 May 2022 17:04:42.915    06 May 2022 17:12:33.013      470.09806152    
06 May 2022 18:43:54.484    06 May 2022 18:48:29.880      275.39588981    
07 May 2022 02:58:54.880    07 May 2022 03:06:58.254      483.37388219    
07 May 2022 16:25:04.933    07 May 2022 16:32:19.123      434.18989718    
07 May 2022 18:03:03.604    07 May 2022 18:09:10.918      367.31387879    
08 May 2022 02:18:57.986    08 May 2022 02:26:57.827      479.84031468    
08 May 2022 15:45:40.711    08 May 2022 15:51:51.173      370.46206378    
08 May 2022 17:22:30.409    08 May 2022 17:29:36.221      425.81130402    
09 May 2022 01:39:07.064    09 May 2022 01:46:46.625      459.56073435    
09 May 2022 03:17:53.934    09 May 2022 03:22:22.253      268.31942667    
09 May 2022 15:06:41.209    09 May 2022 15:10:57.856      256.64761907    
09 May 2022 16:42:08.903    09 May 2022 16:49:51.402      462.49868424    
10 May 2022 00:59:22.603    10 May 2022 01:06:23.768      421.16503101    
10 May 2022 02:37:02.990    10 May 2022 02:43:19.311      376.32091949    
10 May 2022 16:01:56.926    10 May 2022 16:09:58.246      481.31934854    
11 May 2022 00:19:46.634    11 May 2022 00:25:46.831      360.19758704    
11 May 2022 01:56:33.831    11 May 2022 02:03:51.241      437.40927220    
11 May 2022 15:21:53.751    11 May 2022 15:29:57.106      483.35429588    
11 May 2022 17:03:12.781    11 May 2022 17:04:05.946      53.164542653    
11 May 2022 23:40:25.611    11 May 2022 23:44:48.954      263.34250895    
12 May 2022 01:16:16.331    12 May 2022 01:24:07.809      471.47845222    
12 May 2022 14:41:59.612    12 May 2022 14:49:47.387      467.77478153    
12 May 2022 16:21:11.642    12 May 2022 16:25:42.846      271.20401454    
13 May 2022 00:36:06.911    13 May 2022 00:44:12.237      485.32658421    
13 May 2022 14:02:15.881    13 May 2022 14:09:27.361      431.47956751    
13 May 2022 15:40:14.126    13 May 2022 15:46:18.529      364.40342290    
13 May 2022 23:56:04.024    14 May 2022 00:04:05.704      481.67960169    
14 May 2022 13:22:46.202    14 May 2022 13:28:53.037      366.83485082    
14 May 2022 14:59:34.744    14 May 2022 15:06:38.106      423.36120887    
14 May 2022 23:16:07.206    14 May 2022 23:23:48.300      461.09480839    
15 May 2022 00:54:52.395    15 May 2022 00:59:25.071      272.67609687    
15 May 2022 12:43:42.136    15 May 2022 12:47:52.508      250.37112362    
15 May 2022 14:19:07.266    15 May 2022 14:26:47.429      460.16264374    
15 May 2022 22:36:16.964    15 May 2022 22:43:19.134      422.16987431    
16 May 2022 00:13:55.971    16 May 2022 00:20:15.623      379.65240853    
16 May 2022 13:38:49.478    16 May 2022 13:46:48.335      478.85669688    
16 May 2022 21:56:35.386    16 May 2022 22:02:35.725      360.33837410    
16 May 2022 23:33:21.136    16 May 2022 23:40:41.280      440.14424561    
17 May 2022 12:58:40.654    17 May 2022 13:06:41.186      480.53284952    
17 May 2022 14:39:59.271    17 May 2022 14:40:48.832      49.561705627    
17 May 2022 21:17:09.159    17 May 2022 21:21:30.992      261.83322701    
17 May 2022 22:52:57.979    17 May 2022 23:00:51.603      473.62353274    
18 May 2022 12:18:41.057    18 May 2022 12:26:25.362      464.30499736    
18 May 2022 13:57:50.925    18 May 2022 14:02:21.340      270.41555290    
18 May 2022 22:12:42.975    18 May 2022 22:20:49.767      486.79227418    
19 May 2022 11:38:52.147    19 May 2022 11:45:59.053      426.90607278    
19 May 2022 13:16:47.700    19 May 2022 13:22:51.262      363.56169165    
19 May 2022 21:32:34.608    19 May 2022 21:40:36.929      482.32031531    
20 May 2022 10:59:17.818    20 May 2022 11:05:18.027      360.20911824    
20 May 2022 12:36:02.784    20 May 2022 12:43:05.038      422.25376008    
20 May 2022 20:52:32.451    20 May 2022 21:00:13.147      460.69645101    
20 May 2022 22:31:13.178    20 May 2022 22:35:54.239      281.06124834    
21 May 2022 10:20:10.896    21 May 2022 10:24:09.116      238.21985177    
21 May 2022 11:55:29.918    21 May 2022 12:03:08.549      458.63068728    
21 May 2022 20:12:37.079    21 May 2022 20:19:37.469      420.39045986    
21 May 2022 21:50:12.648    21 May 2022 21:56:37.435      384.78750188    
22 May 2022 11:15:06.900    22 May 2022 11:23:03.625      476.72517932    
22 May 2022 19:32:50.744    22 May 2022 19:38:47.255      356.51169154    
22 May 2022 21:09:33.008    22 May 2022 21:16:56.540      443.53117748    
23 May 2022 10:34:53.031    23 May 2022 10:42:50.602      477.57076855    
23 May 2022 12:16:00.224    23 May 2022 12:17:07.392      67.167790351    
23 May 2022 18:53:20.796    23 May 2022 18:57:34.764      253.96749222    
23 May 2022 20:29:04.935    23 May 2022 20:37:00.530      475.59481650    
24 May 2022 09:54:48.634    24 May 2022 10:02:28.798      460.16355653    
24 May 2022 11:33:53.751    24 May 2022 11:38:27.316      273.56574107    
24 May 2022 19:48:45.043    24 May 2022 19:56:52.436      487.39360553    
25 May 2022 09:14:55.300    25 May 2022 09:21:56.272      420.97151717    
25 May 2022 10:52:45.995    25 May 2022 10:58:51.215      365.22001787    
25 May 2022 19:08:31.889    25 May 2022 19:16:33.342      481.45245861    
26 May 2022 08:35:17.302    26 May 2022 08:41:08.405      351.10313168    
26 May 2022 10:11:56.390    26 May 2022 10:18:59.277      422.88750708    
26 May 2022 18:28:25.113    26 May 2022 18:36:03.234      458.12087028    
26 May 2022 20:06:59.114    26 May 2022 20:11:51.291      292.17658674    
27 May 2022 07:56:09.579    27 May 2022 07:59:49.909      220.33059398    
27 May 2022 09:31:18.880    27 May 2022 09:38:57.170      458.29009713    
27 May 2022 17:48:25.399    27 May 2022 17:55:21.038      415.63971145    
27 May 2022 19:25:55.723    27 May 2022 19:32:26.737      391.01373389    
28 May 2022 08:50:51.332    28 May 2022 08:58:46.643      475.31083374    
28 May 2022 17:08:35.278    28 May 2022 17:14:23.827      348.54871515    
28 May 2022 18:45:12.167    28 May 2022 18:52:39.243      447.07674013    
29 May 2022 08:10:33.102    29 May 2022 08:18:27.960      474.85781964    
29 May 2022 09:51:23.254    29 May 2022 09:52:58.977      95.723420894    
29 May 2022 16:29:03.337    29 May 2022 16:33:02.607      239.26979295    
29 May 2022 18:04:39.928    29 May 2022 18:12:36.965      477.03783510    
30 May 2022 07:30:24.598    30 May 2022 07:38:00.342      455.74411321    
30 May 2022 09:09:22.524    30 May 2022 09:14:03.388      280.86454069    
30 May 2022 17:24:15.828    30 May 2022 17:32:22.711      486.88302253    
31 May 2022 06:50:27.588    31 May 2022 06:57:21.650      414.06264547    
31 May 2022 08:28:11.375    31 May 2022 08:34:21.006      369.63103140    
31 May 2022 16:43:58.524    31 May 2022 16:51:57.441      478.91651349    
31 May 2022 18:24:25.642    31 May 2022 18:25:41.004      75.362206902    
01 Jun 2022 06:10:46.878    01 Jun 2022 06:16:26.710      339.83216429    
01 Jun 2022 07:47:17.856    01 Jun 2022 07:54:23.376      425.51946732    
01 Jun 2022 16:03:47.749    01 Jun 2022 16:11:21.028      453.27897056    
01 Jun 2022 17:42:13.250    01 Jun 2022 17:47:18.178      304.92787702    
02 Jun 2022 05:31:40.839    02 Jun 2022 05:34:56.780      195.94096534    
02 Jun 2022 07:06:36.332    02 Jun 2022 07:14:15.726      459.39380047    
02 Jun 2022 15:23:44.346    02 Jun 2022 15:30:32.216      407.86968061    
02 Jun 2022 17:01:07.838    02 Jun 2022 17:07:45.645      397.80659303    
03 Jun 2022 06:26:04.800    03 Jun 2022 06:33:59.654      474.85426561    
03 Jun 2022 14:43:51.275    03 Jun 2022 14:49:27.624      336.34950018    
03 Jun 2022 16:20:20.975    03 Jun 2022 16:27:51.454      450.47967316    
04 Jun 2022 05:45:42.703    04 Jun 2022 05:53:35.314      472.61069468    
04 Jun 2022 07:26:13.634    04 Jun 2022 07:28:22.269      128.63502981    
04 Jun 2022 14:04:19.268    04 Jun 2022 14:07:56.093      216.82581422    
04 Jun 2022 15:39:45.048    04 Jun 2022 15:47:42.834      477.78595736    
05 Jun 2022 05:05:30.566    05 Jun 2022 05:13:01.787      451.22030075    
05 Jun 2022 06:44:19.009    05 Jun 2022 06:49:11.254      292.24501576    
05 Jun 2022 14:59:17.130    05 Jun 2022 15:07:22.318      485.18839125    
06 Jun 2022 04:25:30.403    06 Jun 2022 04:32:16.671      406.26788791    
06 Jun 2022 06:03:05.254    06 Jun 2022 06:09:22.132      376.87812704    
06 Jun 2022 14:18:56.009    06 Jun 2022 14:26:50.717      474.70810711    
06 Jun 2022 15:58:53.473    06 Jun 2022 16:01:04.519      131.04607367    
07 Jun 2022 03:45:47.775    07 Jun 2022 03:51:14.017      326.24181889    
07 Jun 2022 05:22:08.301    07 Jun 2022 05:29:18.547      430.24592026    
07 Jun 2022 13:38:41.547    07 Jun 2022 13:46:07.753      446.20630725    
07 Jun 2022 15:16:57.076    07 Jun 2022 15:22:15.807      318.73096644    
08 Jun 2022 03:06:47.043    08 Jun 2022 03:09:29.078      162.03484299    
08 Jun 2022 04:41:23.106    08 Jun 2022 04:49:05.122      462.01626663    
08 Jun 2022 12:58:34.819    08 Jun 2022 13:05:11.924      397.10543604    
08 Jun 2022 14:35:50.000    08 Jun 2022 14:42:34.964      404.96330744    
09 Jun 2022 04:00:47.859    09 Jun 2022 04:08:43.247      475.38763848    
09 Jun 2022 12:18:39.430    09 Jun 2022 12:23:59.187      319.75668225    
09 Jun 2022 13:55:00.073    09 Jun 2022 14:02:33.765      453.69162234    
10 Jun 2022 03:20:22.137    10 Jun 2022 03:28:12.934      470.79758876    
10 Jun 2022 05:00:32.798    10 Jun 2022 05:03:16.427      163.62912466    
10 Jun 2022 11:39:10.001    10 Jun 2022 11:42:14.483      184.48135578    
10 Jun 2022 13:14:20.617    10 Jun 2022 13:22:18.495      477.87808590    
11 Jun 2022 02:40:06.631    11 Jun 2022 02:47:33.093      446.46203377    
11 Jun 2022 04:18:43.405    11 Jun 2022 04:23:50.776      307.37121804    
11 Jun 2022 12:33:48.991    11 Jun 2022 12:41:51.392      482.40126689    
12 Jun 2022 02:00:03.694    12 Jun 2022 02:06:40.975      397.28069723    
12 Jun 2022 03:37:27.496    12 Jun 2022 03:43:54.324      386.82808438    
12 Jun 2022 11:53:24.148    12 Jun 2022 12:01:13.093      468.94429245    
12 Jun 2022 13:32:57.706    12 Jun 2022 13:35:51.692      173.98651920    
13 Jun 2022 01:20:19.989    13 Jun 2022 01:25:29.530      309.54111612    
13 Jun 2022 02:56:27.385    13 Jun 2022 03:03:44.333      436.94828250    
13 Jun 2022 11:13:06.128    13 Jun 2022 11:20:23.140      437.01189455    
13 Jun 2022 12:51:10.349    13 Jun 2022 12:56:43.813      333.46369683    
14 Jun 2022 00:41:32.801    14 Jun 2022 00:43:21.084      108.28284627    
14 Jun 2022 02:15:38.726    14 Jun 2022 02:23:24.729      466.00277469    
14 Jun 2022 10:32:56.328    14 Jun 2022 10:39:19.705      383.37684361    
14 Jun 2022 12:10:01.727    14 Jun 2022 12:16:54.283      412.55607926    
15 Jun 2022 01:34:59.960    15 Jun 2022 01:42:56.652      476.69164469    
15 Jun 2022 09:52:59.335    15 Jun 2022 09:57:57.765      298.42981675    
15 Jun 2022 11:29:08.844    15 Jun 2022 11:36:45.704      456.85919436    
16 Jun 2022 00:54:30.841    16 Jun 2022 01:02:19.947      469.10592498    
16 Jun 2022 02:34:20.573    16 Jun 2022 02:37:40.188      199.61473276    
16 Jun 2022 09:13:37.904    16 Jun 2022 09:15:54.128      136.22336278    
16 Jun 2022 10:48:25.945    16 Jun 2022 10:56:23.441      477.49564574    
17 Jun 2022 00:14:12.284    17 Jun 2022 00:21:33.301      441.01674892    
17 Jun 2022 01:52:35.307    17 Jun 2022 01:58:00.900      325.59233161    
17 Jun 2022 10:07:50.704    17 Jun 2022 10:15:49.421      478.71713724    
17 Jun 2022 23:34:07.116    17 Jun 2022 23:40:33.506      386.39061505    
18 Jun 2022 01:11:17.620    18 Jun 2022 01:17:56.677      399.05705082    
18 Jun 2022 09:27:22.274    18 Jun 2022 09:35:04.090      461.81594334    
18 Jun 2022 11:06:33.808    18 Jun 2022 11:10:06.005      212.19757319    
18 Jun 2022 22:54:23.657    18 Jun 2022 22:59:11.859      288.20232967    
19 Jun 2022 00:30:14.693    19 Jun 2022 00:37:39.923      445.23038592    
19 Jun 2022 08:47:00.916    19 Jun 2022 08:54:06.767      425.85012617    
19 Jun 2022 10:24:52.608    19 Jun 2022 10:30:41.762      349.15395981    
19 Jun 2022 23:49:22.910    19 Jun 2022 23:57:13.838      470.92759428    
20 Jun 2022 08:06:48.476    20 Jun 2022 08:12:55.184      366.70802089    
20 Jun 2022 09:43:42.613    20 Jun 2022 09:50:43.343      420.73022146    
20 Jun 2022 23:08:41.004    20 Jun 2022 23:16:39.285      478.28153560    
21 Jun 2022 07:26:51.055    21 Jun 2022 07:31:22.808      271.75328485    
21 Jun 2022 09:02:47.007    21 Jun 2022 09:10:27.181      460.17429406    
21 Jun 2022 22:28:08.940    21 Jun 2022 22:35:55.901      466.96111069    
22 Jun 2022 00:07:37.316    22 Jun 2022 00:11:32.897      235.58120088    
22 Jun 2022 06:48:04.266    22 Jun 2022 06:48:33.592      29.325901461    
22 Jun 2022 08:22:00.913    22 Jun 2022 08:29:57.763      476.84980334    
22 Jun 2022 21:47:47.929    22 Jun 2022 21:55:02.089      434.15992067    
22 Jun 2022 23:25:55.282    22 Jun 2022 23:31:41.172      345.89010424    
23 Jun 2022 07:41:22.338    23 Jun 2022 07:49:16.687      474.34905530    
23 Jun 2022 21:07:41.447    23 Jun 2022 21:13:53.989      372.54150300    
23 Jun 2022 22:44:36.277    23 Jun 2022 22:51:29.080      412.80356742    
24 Jun 2022 07:00:50.655    24 Jun 2022 07:08:24.172      453.51702844    
24 Jun 2022 08:39:41.096    24 Jun 2022 08:43:48.977      247.88094400    
24 Jun 2022 20:28:00.490    24 Jun 2022 20:32:20.224      259.73338456    
24 Jun 2022 22:03:31.051    24 Jun 2022 22:11:05.456      454.40556529    
25 Jun 2022 06:20:26.406    25 Jun 2022 06:27:19.258      412.85253806    
25 Jun 2022 07:58:04.489    25 Jun 2022 08:04:10.237      365.74704585    
25 Jun 2022 21:22:36.688    25 Jun 2022 21:30:32.801      476.11319656    
26 Jun 2022 05:40:12.040    26 Jun 2022 05:45:59.064      347.02376900    
26 Jun 2022 07:16:53.415    26 Jun 2022 07:24:02.969      429.55443494    


Number of events : 217


Observer: Ireland
Start Time (UTC)            Stop Time (UTC)               Duration (s)         
27 Apr 2022 13:50:13.043    27 Apr 2022 13:57:25.153      432.11064907    
27 Apr 2022 15:26:54.134    27 Apr 2022 15:34:53.388      479.25402486    
27 Apr 2022 17:04:11.693    27 Apr 2022 17:12:02.745      471.05191749    
27 Apr 2022 18:41:54.793    27 Apr 2022 18:48:11.507      376.71464472    
