GMAT/Constellation/Contact/ContactLocator17.txt

Target: HSEYE17

Observer: Bahrain
Start Time (UTC)            Stop Time (UTC)               Duration (s)         
27 Apr 2022 13:18:25.358    27 Apr 2022 13:26:02.822      457.46408006    
27 Apr 2022 14:56:30.484    27 Apr 2022 15:02:27.240      356.75618547    
28 Apr 2022 04:24:04.940    28 Apr 2022 04:31:41.537      456.59667881    
28 Apr 2022 06:02:28.603    28 Apr 2022 06:08:23.696      355.09302844    
28 Apr 2022 12:38:44.166    28 Apr 2022 12:45:44.786      420.61938011    
28 Apr 2022 14:16:05.846    28 Apr 2022 14:23:09.855      424.00860779    
29 Apr 2022 03:44:32.378    29 Apr 2022 03:51:28.980      416.60238445    
29 Apr 2022 05:21:59.239    29 Apr 2022 05:28:48.731      409.49208650    
29 Apr 2022 11:59:08.386    29 Apr 2022 12:05:15.443      367.05771913    
29 Apr 2022 13:35:52.777    29 Apr 2022 13:43:36.663      463.88572692    
30 Apr 2022 03:05:13.766    30 Apr 2022 03:11:02.647      348.88178296    
30 Apr 2022 04:41:39.277    30 Apr 2022 04:49:06.165      446.88805521    
30 Apr 2022 11:19:41.222    30 Apr 2022 11:24:31.352      290.13059540    
30 Apr 2022 12:55:47.108    30 Apr 2022 13:03:51.554      484.44622946    
01 May 2022 02:26:22.148    01 May 2022 02:30:09.233      227.08542023    
01 May 2022 04:01:27.283    01 May 2022 04:09:17.187      469.90363490    
01 May 2022 10:40:35.451    01 May 2022 10:43:19.532      164.08156073    
01 May 2022 12:15:46.895    01 May 2022 12:23:56.190      489.29542552    
02 May 2022 03:21:22.745    02 May 2022 03:29:22.046      479.30096750    
02 May 2022 05:02:12.382    02 May 2022 05:04:20.617      128.23502758    
02 May 2022 11:35:51.175    02 May 2022 11:43:51.250      480.07529536    
02 May 2022 13:15:00.246    02 May 2022 13:18:55.013      234.76710068    
03 May 2022 02:41:25.753    03 May 2022 02:49:20.380      474.62705118    
03 May 2022 04:20:50.975    03 May 2022 04:25:20.938      269.96325923    
03 May 2022 10:55:59.603    03 May 2022 11:03:36.792      457.18878640    
03 May 2022 12:34:04.557    03 May 2022 12:40:00.269      355.71224437    
04 May 2022 02:01:37.039    04 May 2022 02:09:11.185      454.14587801    
04 May 2022 03:40:01.243    04 May 2022 03:45:51.848      350.60501561    
04 May 2022 10:16:12.429    04 May 2022 10:23:12.286      419.85698672    
04 May 2022 11:53:33.513    04 May 2022 12:00:36.910      423.39677056    
05 May 2022 01:21:58.366    05 May 2022 01:28:52.424      414.05812082    
05 May 2022 02:59:25.152    05 May 2022 03:06:11.192      406.03963182    
05 May 2022 09:36:30.812    05 May 2022 09:42:36.311      365.49932730    
05 May 2022 11:13:14.234    05 May 2022 11:20:57.544      463.30962520    
06 May 2022 00:42:33.896    06 May 2022 00:48:19.670      345.77344669    
06 May 2022 02:18:58.697    06 May 2022 02:26:22.752      444.05548093    
06 May 2022 08:56:58.110    06 May 2022 09:01:45.265      287.15433885    
06 May 2022 10:33:02.471    06 May 2022 10:41:06.136      483.66538854    
07 May 2022 00:03:37.276    07 May 2022 00:07:19.008      221.73221709    
07 May 2022 01:38:40.363    07 May 2022 01:46:27.793      467.43003982    
07 May 2022 08:17:48.227    07 May 2022 08:20:25.045      156.81847179    
07 May 2022 09:52:56.256    07 May 2022 10:01:04.374      488.11802262    
08 May 2022 00:58:29.616    08 May 2022 01:06:26.588      476.97219537    
08 May 2022 02:39:20.405    08 May 2022 02:41:22.514      122.10852848    
08 May 2022 09:12:54.623    08 May 2022 09:20:52.939      478.31582807    
08 May 2022 10:52:01.612    08 May 2022 10:55:58.069      236.45700929    
09 May 2022 00:18:26.550    09 May 2022 00:26:18.774      472.22355605    
09 May 2022 01:57:50.929    09 May 2022 02:02:18.614      267.68535844    
09 May 2022 08:32:57.244    09 May 2022 08:40:31.878      454.63449435    
09 May 2022 10:11:00.257    09 May 2022 10:16:56.697      356.44027741    
09 May 2022 23:38:31.928    09 May 2022 23:46:03.320      451.39231846    
10 May 2022 01:16:54.651    10 May 2022 01:22:43.851      349.20061233    
10 May 2022 07:53:04.412    10 May 2022 08:00:00.627      416.21590653    
10 May 2022 09:30:23.417    10 May 2022 09:37:26.863      423.44615422    
10 May 2022 22:58:47.592    10 May 2022 23:05:38.120      410.52785274    
11 May 2022 00:36:12.305    11 May 2022 00:42:57.313      405.00821171    
11 May 2022 07:13:17.392    11 May 2022 07:19:17.664      360.27180303    
11 May 2022 08:49:58.364    11 May 2022 08:57:41.026      462.66241518    
11 May 2022 22:19:17.937    11 May 2022 22:24:58.519      340.58209956    
11 May 2022 23:55:39.767    12 May 2022 00:03:02.907      443.13969368    
12 May 2022 06:33:39.902    12 May 2022 06:38:19.044      279.14199012    
12 May 2022 08:09:40.885    12 May 2022 08:17:43.130      482.24452205    
12 May 2022 21:40:17.928    12 May 2022 21:43:49.294      211.36603255    
12 May 2022 23:15:15.501    12 May 2022 23:23:01.929      466.42740463    
13 May 2022 05:54:28.685    13 May 2022 05:56:47.834      139.14847956    
13 May 2022 07:29:29.034    13 May 2022 07:37:34.846      485.81209600    
13 May 2022 22:34:58.978    13 May 2022 22:42:54.655      475.67707471    
14 May 2022 00:15:45.543    14 May 2022 00:17:52.616      127.07265961    
14 May 2022 06:49:21.871    14 May 2022 06:57:16.843      474.97234074    
14 May 2022 08:28:24.164    14 May 2022 08:32:26.442      242.27745807    
14 May 2022 21:54:50.319    14 May 2022 22:02:40.705      470.38619175    
14 May 2022 23:34:11.333    14 May 2022 23:38:41.719      270.38601612    
15 May 2022 06:09:19.106    15 May 2022 06:16:49.138      450.03235645    
15 May 2022 07:47:18.553    15 May 2022 07:53:17.475      358.92232207    
15 May 2022 21:14:50.342    15 May 2022 21:22:19.001      448.65896066    
15 May 2022 22:53:09.522    15 May 2022 22:59:00.900      351.37823140    
16 May 2022 05:29:21.105    16 May 2022 05:36:11.102      409.99690359    
16 May 2022 07:06:36.687    16 May 2022 07:13:40.907      424.22054746    
16 May 2022 20:35:01.014    16 May 2022 20:41:47.316      406.30201881    
16 May 2022 22:12:21.663    16 May 2022 22:19:08.435      406.77151498    
17 May 2022 04:49:29.306    17 May 2022 04:55:21.049      351.74297841    
17 May 2022 06:26:06.483    17 May 2022 06:33:48.558      462.07531756    
17 May 2022 19:55:27.094    17 May 2022 20:01:00.637      333.54303846    
17 May 2022 21:31:43.715    17 May 2022 21:39:08.149      444.43388802    
18 May 2022 04:09:48.007    18 May 2022 04:14:14.459      266.45183974    
18 May 2022 05:45:43.861    18 May 2022 05:53:44.240      480.37945441    
18 May 2022 19:16:25.806    18 May 2022 19:19:41.484      195.67847525    
18 May 2022 20:51:14.175    18 May 2022 20:59:01.305      467.12925376    
19 May 2022 03:30:40.052    19 May 2022 03:32:28.302      108.25028446    
19 May 2022 05:05:26.931    19 May 2022 05:13:29.570      482.63839345    
19 May 2022 20:10:52.545    19 May 2022 20:18:48.145      475.60063553    
19 May 2022 21:51:29.903    19 May 2022 21:53:52.538      142.63506200    
20 May 2022 04:25:14.796    20 May 2022 04:33:05.168      470.37205892    
20 May 2022 06:04:10.158    20 May 2022 06:08:22.002      251.84416494    
20 May 2022 19:30:38.986    20 May 2022 19:38:28.243      469.25667854    
20 May 2022 21:09:54.177    20 May 2022 21:14:32.361      278.18446350    
21 May 2022 03:45:07.217    21 May 2022 03:52:30.995      443.77813350    
21 May 2022 05:23:01.681    21 May 2022 05:29:04.856      363.17479442    
21 May 2022 18:50:34.392    21 May 2022 18:58:00.435      446.04297832    
21 May 2022 20:28:48.025    21 May 2022 20:34:45.241      357.21565196    
22 May 2022 03:05:04.654    22 May 2022 03:11:46.318      401.66469075    
22 May 2022 04:42:15.642    22 May 2022 04:49:21.507      425.86487539    
22 May 2022 18:10:40.899    22 May 2022 18:17:22.317      401.41789976    
22 May 2022 19:47:55.538    22 May 2022 19:54:46.899      411.36134688    
23 May 2022 02:25:08.778    23 May 2022 02:30:49.210      340.43213180    
23 May 2022 04:01:40.971    23 May 2022 04:09:22.751      461.77975866    
23 May 2022 17:31:03.785    23 May 2022 17:36:28.338      324.55367142    
23 May 2022 19:07:12.946    23 May 2022 19:14:40.874      447.92715388    
24 May 2022 01:45:24.761    24 May 2022 01:49:34.262      249.50099312    
24 May 2022 03:21:13.799    24 May 2022 03:29:12.173      478.37351012    
24 May 2022 16:52:04.056    24 May 2022 16:54:57.225      173.16911328    
24 May 2022 18:26:38.838    24 May 2022 18:34:28.321      469.48320963    
25 May 2022 01:06:33.214    25 May 2022 01:07:20.670      47.455773829    
25 May 2022 02:40:52.322    25 May 2022 02:48:51.287      478.96455845    
25 May 2022 17:46:12.766    25 May 2022 17:54:09.414      476.64745896    
25 May 2022 19:26:37.411    25 May 2022 19:29:23.228      165.81685703    
26 May 2022 02:00:35.699    26 May 2022 02:08:20.640      464.94106532    
26 May 2022 03:39:22.325    26 May 2022 03:43:47.064      264.73961589    
26 May 2022 17:05:54.954    26 May 2022 17:13:43.644      468.69030381    
26 May 2022 18:45:02.079    26 May 2022 18:49:52.636      290.55648231    
27 May 2022 01:20:23.757    27 May 2022 01:27:40.106      436.34917843    
27 May 2022 02:58:12.025    27 May 2022 03:04:21.302      369.27713037    
27 May 2022 16:25:46.397    27 May 2022 16:33:09.731      443.33367428    
27 May 2022 18:03:52.563    27 May 2022 18:09:58.930      366.36644346    
28 May 2022 00:40:17.078    28 May 2022 00:46:48.812      391.73431154    
28 May 2022 02:17:22.451    28 May 2022 02:24:31.055      428.60369766    
28 May 2022 15:45:49.463    28 May 2022 15:52:25.015      395.55179800    
28 May 2022 17:22:56.150    28 May 2022 17:29:54.614      418.46411841    
29 May 2022 00:00:17.648    29 May 2022 00:05:44.496      326.84796879    
29 May 2022 01:36:43.773    29 May 2022 01:44:25.855      462.08114162    
29 May 2022 15:06:10.186    29 May 2022 15:11:23.175      312.98921745    
29 May 2022 16:42:09.488    29 May 2022 16:49:42.788      453.30032618    
29 May 2022 23:20:31.952    29 May 2022 23:24:20.422      228.46934296    
30 May 2022 00:56:12.402    30 May 2022 01:04:08.987      476.58467389    
30 May 2022 14:27:16.548    30 May 2022 14:29:35.938      139.39042435    
30 May 2022 16:01:31.304    30 May 2022 16:09:24.449      473.14497312    
31 May 2022 00:15:46.649    31 May 2022 00:23:41.831      475.18224078    
31 May 2022 15:21:01.236    31 May 2022 15:28:59.666      478.43051482    
31 May 2022 17:01:11.043    31 May 2022 17:04:24.493      193.44973527    
31 May 2022 23:35:25.749    31 May 2022 23:43:04.838      459.08878584    
01 Jun 2022 01:14:02.163    01 Jun 2022 01:18:42.889      280.72584230    
01 Jun 2022 14:40:39.596    01 Jun 2022 14:48:27.830      468.23389409    
01 Jun 2022 16:19:36.646    01 Jun 2022 16:24:43.201      306.55520424    
01 Jun 2022 22:55:09.621    01 Jun 2022 23:02:17.777      428.15631777    
02 Jun 2022 00:32:50.603    02 Jun 2022 00:39:08.015      377.41267767    
02 Jun 2022 14:00:27.527    02 Jun 2022 14:07:47.498      439.97103253    
02 Jun 2022 15:38:24.335    02 Jun 2022 15:44:42.515      378.18038121    
02 Jun 2022 22:14:59.008    02 Jun 2022 22:21:19.601      380.59286750    
02 Jun 2022 23:51:57.809    02 Jun 2022 23:59:10.528      432.71892378    
03 Jun 2022 13:20:27.729    03 Jun 2022 13:26:55.671      387.94134215    
03 Jun 2022 14:57:24.407    03 Jun 2022 15:04:31.916      427.50846968    
03 Jun 2022 21:34:56.328    03 Jun 2022 21:40:07.605      311.27744245    
03 Jun 2022 23:11:15.302    03 Jun 2022 23:18:58.598      463.29525600    
04 Jun 2022 12:40:47.374    04 Jun 2022 12:45:44.880      297.50619472    
04 Jun 2022 14:16:34.005    04 Jun 2022 14:24:13.998      459.99273009    
04 Jun 2022 20:55:10.109    04 Jun 2022 20:58:33.011      202.90245633    
04 Jun 2022 22:30:39.830    04 Jun 2022 22:38:35.166      475.33545831    
05 Jun 2022 12:02:12.137    05 Jun 2022 12:03:29.157      77.019824018    
05 Jun 2022 13:35:52.039    05 Jun 2022 13:43:49.570      477.53008939    
05 Jun 2022 21:50:09.853    05 Jun 2022 21:58:01.456      471.60364233    
05 Jun 2022 23:30:18.861    05 Jun 2022 23:31:53.546      94.685628859    
06 Jun 2022 12:55:18.266    06 Jun 2022 13:03:18.581      480.31517443    
06 Jun 2022 14:35:11.929    06 Jun 2022 14:38:55.136      223.20691897    
06 Jun 2022 21:09:44.710    06 Jun 2022 21:17:17.812      453.10232729    
06 Jun 2022 22:48:09.699    06 Jun 2022 22:53:09.309      299.61012932    
07 Jun 2022 12:14:53.123    07 Jun 2022 12:22:40.294      467.17109308    
07 Jun 2022 13:53:38.275    07 Jun 2022 13:59:03.312      325.03707757    
07 Jun 2022 20:29:24.440    07 Jun 2022 20:36:23.883      419.44303490    
07 Jun 2022 22:06:57.128    07 Jun 2022 22:13:24.844      387.71617867    
08 Jun 2022 11:34:37.963    08 Jun 2022 11:41:53.063      435.10013163    
08 Jun 2022 13:12:23.500    08 Jun 2022 13:18:55.298      391.79766553    
08 Jun 2022 19:49:10.005    08 Jun 2022 19:55:18.409      368.40352222    
08 Jun 2022 21:26:01.294    08 Jun 2022 21:33:19.701      438.40665068    
09 Jun 2022 10:54:35.967    09 Jun 2022 11:00:53.410      377.44353994    
09 Jun 2022 12:31:20.375    09 Jun 2022 12:38:38.098      437.72315509    
09 Jun 2022 19:09:04.421    09 Jun 2022 19:13:58.094      293.67243082    
09 Jun 2022 20:45:15.077    09 Jun 2022 20:53:00.697      465.61988003    
10 Jun 2022 10:14:56.114    10 Jun 2022 10:19:32.068      275.95363799    
10 Jun 2022 11:50:26.549    10 Jun 2022 11:58:13.803      467.25484935    
10 Jun 2022 18:29:19.637    10 Jun 2022 18:32:10.749      171.11128868    
10 Jun 2022 20:04:35.599    10 Jun 2022 20:12:30.400      474.80071813    
11 Jun 2022 11:09:41.141    11 Jun 2022 11:17:43.017      481.87619462    
11 Jun 2022 12:51:08.885    11 Jun 2022 12:52:03.860      54.974593373    
11 Jun 2022 19:24:01.498    11 Jun 2022 19:31:49.863      468.36519430    
11 Jun 2022 21:03:36.805    11 Jun 2022 21:06:17.909      161.10406826    
12 Jun 2022 10:29:04.053    12 Jun 2022 10:37:05.551      481.49786924    
12 Jun 2022 12:08:40.704    12 Jun 2022 12:12:54.075      253.37044381    
12 Jun 2022 18:43:32.242    12 Jun 2022 18:50:59.307      447.06526205    
12 Jun 2022 20:21:44.876    12 Jun 2022 20:27:05.866      320.98966817    
13 Jun 2022 09:48:35.889    13 Jun 2022 09:56:20.508      464.61887208    
13 Jun 2022 11:27:07.492    13 Jun 2022 11:32:52.246      344.75442781    
13 Jun 2022 18:03:08.019    13 Jun 2022 18:09:58.238      410.21893047    
13 Jun 2022 19:40:31.502    13 Jun 2022 19:47:11.583      400.08130440    
14 Jun 2022 09:08:18.283    14 Jun 2022 09:15:25.963      427.68050154    
14 Jun 2022 10:45:50.614    14 Jun 2022 10:52:36.829      406.21519728    
14 Jun 2022 17:22:50.070    14 Jun 2022 17:28:45.121      355.05079968    
14 Jun 2022 18:59:32.910    14 Jun 2022 19:06:58.535      445.62553031    
15 Jun 2022 08:28:15.120    15 Jun 2022 08:34:17.744      362.62423665    
15 Jun 2022 10:04:44.731    15 Jun 2022 10:12:12.937      448.20593304    
15 Jun 2022 16:42:42.258    15 Jun 2022 16:47:15.829      273.57117003    
15 Jun 2022 18:18:43.254    15 Jun 2022 18:26:32.269      469.01473878    
16 Jun 2022 07:48:38.480    16 Jun 2022 07:52:43.485      245.00511439    
16 Jun 2022 09:23:47.962    16 Jun 2022 09:31:42.189      474.22671325    
16 Jun 2022 16:03:03.195    16 Jun 2022 16:05:11.520      128.32447464    
16 Jun 2022 17:38:00.047    16 Jun 2022 17:45:54.962      474.91515626    
17 Jun 2022 08:42:59.641    17 Jun 2022 08:51:04.973      485.33273485    
17 Jun 2022 10:23:43.357    17 Jun 2022 10:26:03.955      140.59754853    
17 Jun 2022 16:57:22.118    17 Jun 2022 17:05:07.478      465.36017891    
17 Jun 2022 18:36:31.227    17 Jun 2022 18:40:04.653      213.42615201    
18 Jun 2022 08:02:19.830    18 Jun 2022 08:10:20.938      481.10781246    
18 Jun 2022 09:41:38.834    18 Jun 2022 09:46:21.444      282.60992356    
18 Jun 2022 16:16:49.080    18 Jun 2022 16:24:09.891      440.81142006    
18 Jun 2022 17:54:48.751    18 Jun 2022 18:00:32.857      344.10655929    
19 Jun 2022 07:21:49.340    19 Jun 2022 07:29:28.980      459.63958689    
19 Jun 2022 09:00:05.897    19 Jun 2022 09:06:10.373      364.47647999    
19 Jun 2022 15:36:21.301    19 Jun 2022 15:43:01.526      400.22537612    
19 Jun 2022 17:13:34.794    19 Jun 2022 17:20:28.840      414.04554796    
20 Jun 2022 06:41:30.190    20 Jun 2022 06:48:26.786      416.59595972    
20 Jun 2022 08:18:47.348    20 Jun 2022 08:25:47.745      420.39668091    
20 Jun 2022 14:56:00.390    20 Jun 2022 15:01:40.484      340.09379345    
20 Jun 2022 16:32:33.821    20 Jun 2022 16:40:07.835      454.01382406    
21 Jun 2022 06:01:27.327    21 Jun 2022 06:07:09.112      341.78476635    
21 Jun 2022 07:37:39.237    21 Jun 2022 07:45:17.270      458.03264718    
21 Jun 2022 14:15:51.462    21 Jun 2022 14:20:01.381      249.91876173    
21 Jun 2022 15:51:41.110    21 Jun 2022 15:59:34.253      473.14323963    
22 Jun 2022 05:21:58.948    22 Jun 2022 05:25:17.469      198.52145420    
22 Jun 2022 06:56:40.092    22 Jun 2022 07:04:40.143      480.05146226    
22 Jun 2022 13:36:34.279    22 Jun 2022 13:37:24.235      49.955615052    
22 Jun 2022 15:10:54.555    22 Jun 2022 15:18:49.883      475.32877238    
23 Jun 2022 06:15:49.454    23 Jun 2022 06:23:56.531      487.07691198    
23 Jun 2022 07:56:04.197    23 Jun 2022 07:59:17.931      193.73363379    
23 Jun 2022 14:30:13.182    23 Jun 2022 14:37:55.378      462.19642841    
23 Jun 2022 16:08:59.526    23 Jun 2022 16:13:18.934      259.40794941    
24 Jun 2022 05:35:07.568    24 Jun 2022 05:43:05.885      478.31639982    
24 Jun 2022 07:14:08.372    24 Jun 2022 07:19:18.318      309.94584134    
24 Jun 2022 13:49:36.765    24 Jun 2022 13:56:50.639      433.87380241    
24 Jun 2022 15:27:23.119    24 Jun 2022 15:33:31.104      367.98535127    
25 Jun 2022 04:54:35.503    25 Jun 2022 05:02:06.829      451.32643136    
25 Jun 2022 06:32:35.584    25 Jun 2022 06:38:58.760      383.17547111    
25 Jun 2022 13:09:05.896    25 Jun 2022 13:15:34.759      388.86305342    
25 Jun 2022 14:46:08.681    25 Jun 2022 14:53:17.548      428.86753147    
26 Jun 2022 04:14:15.819    26 Jun 2022 04:20:56.494      400.67496537    
26 Jun 2022 05:51:15.704    26 Jun 2022 05:58:29.165      433.46057794    


Number of events : 243


Observer: Cape_Town
Start Time (UTC)            Stop Time (UTC)               Duration (s)         
27 Apr 2022 18:20:01.378    27 Apr 2022 18:23:16.651      195.27283441    
27 Apr 2022 19:54:33.412    27 Apr 2022 20:02:43.988      490.57622444    
27 Apr 2022 21:33:49.391    27 Apr 2022 21:39:20.903      331.51149899    
28 Apr 2022 00:52:49.669    28 Apr 2022 00:56:04.625      194.95644387    
28 Apr 2022 02:28:55.926    28 Apr 2022 02:36:34.741      458.81520052    
28 Apr 2022 04:06:42.738    28 Apr 2022 04:13:25.548      402.80977042    
28 Apr 2022 19:14:39.192    28 Apr 2022 19:22:47.326      488.13370317    
28 Apr 2022 20:53:21.055    28 Apr 2022 20:59:38.116      377.06129216    
29 Apr 2022 00:13:23.750    29 Apr 2022 00:15:09.954      106.20368805    
29 Apr 2022 01:49:07.217    29 Apr 2022 01:56:21.695      434.47811416    
29 Apr 2022 03:26:30.082    29 Apr 2022 03:33:55.119      445.03704653    
29 Apr 2022 18:34:50.978    29 Apr 2022 18:42:45.637      474.65929583    
29 Apr 2022 20:12:56.972    29 Apr 2022 20:19:52.315      415.34336895    
30 Apr 2022 01:09:19.416    30 Apr 2022 01:16:02.236      402.82024863    
30 Apr 2022 02:46:23.489    30 Apr 2022 02:54:13.792      470.30370313    
30 Apr 2022 17:55:09.925    30 Apr 2022 18:02:37.631      447.70649651    
30 Apr 2022 19:32:37.152    30 Apr 2022 19:40:03.573      446.42048583    
30 Apr 2022 21:13:37.974    30 Apr 2022 21:15:54.997      137.02309410    
01 May 2022 00:29:32.439    01 May 2022 00:35:36.453      364.01400953    
01 May 2022 02:06:20.903    01 May 2022 02:14:23.457      482.55375456    
01 May 2022 17:15:38.122    01 May 2022 17:22:21.075      402.95301295    
01 May 2022 18:52:21.723    01 May 2022 19:00:11.785      470.06193028    
01 May 2022 20:32:44.403    01 May 2022 20:36:22.094      217.69105765    
01 May 2022 23:49:46.384    01 May 2022 23:55:04.318      317.93388800    
02 May 2022 01:26:21.121    02 May 2022 01:34:25.162      484.04056410    
02 May 2022 03:05:37.370    02 May 2022 03:09:10.439      213.06874818    
02 May 2022 16:36:20.074    02 May 2022 16:41:51.312      331.23790172    
02 May 2022 18:12:10.898    02 May 2022 18:20:16.712      485.81445781    
02 May 2022 19:51:59.827    02 May 2022 19:56:40.765      280.93792844    
02 May 2022 23:10:01.683    02 May 2022 23:14:25.535      263.85204684    
03 May 2022 00:46:23.365    03 May 2022 00:54:19.543      476.17765758    
03 May 2022 02:24:43.925    03 May 2022 02:30:17.627      333.70198072    
03 May 2022 15:57:30.717    03 May 2022 16:00:53.257      202.53966032    
03 May 2022 17:32:04.990    03 May 2022 17:40:17.974      492.98418229    
03 May 2022 19:11:20.610    03 May 2022 19:16:54.971      334.36053931    
03 May 2022 22:30:19.658    03 May 2022 22:33:39.006      199.34789215    
04 May 2022 00:06:27.107    04 May 2022 00:14:07.008      459.90093662    
04 May 2022 01:44:14.209    04 May 2022 01:50:56.551      402.34211114    
04 May 2022 16:52:04.461    04 May 2022 17:00:15.008      490.54683130    
04 May 2022 18:30:45.889    04 May 2022 18:37:05.813      379.92373514    
04 May 2022 21:50:45.640    04 May 2022 21:52:39.714      114.07420964    
04 May 2022 23:26:31.986    04 May 2022 23:33:47.829      435.84301259    
05 May 2022 01:03:54.979    05 May 2022 01:11:20.287      445.30879684    
05 May 2022 16:12:10.027    05 May 2022 16:20:06.981      476.95494510    
05 May 2022 17:50:15.459    05 May 2022 17:57:13.654      418.19524005    
05 May 2022 22:46:37.773    05 May 2022 22:53:22.188      404.41497036    
06 May 2022 00:23:41.926    06 May 2022 00:31:32.973      471.04714389    
06 May 2022 15:32:22.857    06 May 2022 15:39:52.587      449.73076447    
06 May 2022 17:09:49.351    06 May 2022 17:17:18.558      449.20710538    
06 May 2022 18:50:47.037    06 May 2022 18:53:12.507      145.46981421    
06 May 2022 22:06:44.369    06 May 2022 22:12:50.191      365.82114995    
06 May 2022 23:43:32.948    06 May 2022 23:51:36.549      483.60036268    
07 May 2022 14:52:45.074    07 May 2022 14:59:29.561      404.48718003    
07 May 2022 16:29:27.704    07 May 2022 16:37:20.411      472.70659350    
07 May 2022 18:09:48.331    07 May 2022 18:13:32.009      223.67824543    
07 May 2022 21:26:51.851    07 May 2022 21:32:11.837      319.98581121    
07 May 2022 23:03:26.818    07 May 2022 23:11:32.087      485.26900305    
08 May 2022 00:42:41.578    08 May 2022 00:46:18.398      216.82009577    
08 May 2022 14:13:21.273    08 May 2022 14:18:53.162      331.88928027    
08 May 2022 15:49:10.747    08 May 2022 15:57:18.968      488.22068752    
08 May 2022 17:28:57.883    08 May 2022 17:33:43.892      286.00918689    
08 May 2022 20:47:00.609    08 May 2022 20:51:26.887      266.27764818    
08 May 2022 22:23:22.746    08 May 2022 22:31:20.239      477.49368092    
09 May 2022 00:01:42.301    09 May 2022 00:07:19.013      336.71169615    
09 May 2022 13:34:26.851    09 May 2022 13:37:47.846      200.99458534    
09 May 2022 15:08:58.807    09 May 2022 15:17:13.840      495.03335425    
09 May 2022 16:48:12.648    09 May 2022 16:53:51.538      338.89003942    
09 May 2022 20:07:11.848    09 May 2022 20:10:34.377      202.52928645    
09 May 2022 21:43:20.199    09 May 2022 21:51:01.428      461.22907265    
09 May 2022 23:21:06.486    09 May 2022 23:27:51.626      405.13978380    
10 May 2022 14:28:52.366    10 May 2022 14:37:04.456      492.09015551    
10 May 2022 16:07:31.902    10 May 2022 16:13:55.926      384.02338946    
10 May 2022 19:27:30.257    10 May 2022 19:29:29.951      119.69398245    
10 May 2022 21:03:18.814    10 May 2022 21:10:35.938      437.12399129    
10 May 2022 22:40:41.134    10 May 2022 22:48:09.075      447.94043899    
11 May 2022 13:48:52.167    11 May 2022 13:56:49.963      477.79553882    
11 May 2022 15:26:55.501    11 May 2022 15:33:57.376      421.87520148    
11 May 2022 20:23:18.361    11 May 2022 20:30:03.968      405.60702881    
11 May 2022 22:00:21.978    11 May 2022 22:08:15.468      473.48966107    
12 May 2022 13:08:59.432    12 May 2022 13:16:29.015      449.58322453    
12 May 2022 14:46:23.508    12 May 2022 14:53:55.932      452.42458944    
12 May 2022 16:27:16.704    12 May 2022 16:29:53.013      156.30850360    
12 May 2022 19:43:18.739    12 May 2022 19:49:25.645      366.90528961    
12 May 2022 21:20:06.929    12 May 2022 21:28:12.741      485.81177193    
13 May 2022 12:29:16.385    13 May 2022 12:35:59.257      402.87178257    
13 May 2022 14:05:56.086    13 May 2022 14:13:51.470      475.38360511    
13 May 2022 15:46:13.409    13 May 2022 15:50:04.819      231.40988695    
13 May 2022 19:03:20.017    13 May 2022 19:08:40.994      320.97736626    
13 May 2022 20:39:54.771    13 May 2022 20:48:01.972      487.20099851    
13 May 2022 22:19:04.773    13 May 2022 22:22:53.319      228.54560392    
14 May 2022 11:49:47.911    14 May 2022 11:55:15.665      327.75379488    
14 May 2022 13:25:33.484    14 May 2022 13:33:43.733      490.24877292    
14 May 2022 15:05:17.587    14 May 2022 15:10:09.958      292.37103160    
14 May 2022 18:23:22.567    14 May 2022 18:27:49.820      267.25280320    
14 May 2022 19:59:44.721    14 May 2022 20:07:43.817      479.09635309    
14 May 2022 21:38:01.642    14 May 2022 21:43:45.677      344.03542617    
15 May 2022 11:10:51.221    15 May 2022 11:14:00.896      189.67479849    
15 May 2022 12:45:16.052    15 May 2022 12:53:32.322      496.26964966    
15 May 2022 14:24:26.844    15 May 2022 14:30:11.177      344.33341414    
15 May 2022 17:43:27.536    15 May 2022 17:46:51.240      203.70472327    
15 May 2022 19:19:36.251    15 May 2022 19:27:18.705      462.45363413    
15 May 2022 20:57:20.639    15 May 2022 21:04:11.438      410.79908945    
16 May 2022 12:05:04.300    16 May 2022 12:13:16.643      492.34355260    
16 May 2022 13:43:40.617    16 May 2022 13:50:09.307      388.69083108    
16 May 2022 17:03:39.323    16 May 2022 17:05:41.215      121.89202361    
16 May 2022 18:39:29.005    16 May 2022 18:46:46.931      437.92516283    
16 May 2022 20:16:49.843    16 May 2022 20:24:22.372      452.52879106    
17 May 2022 11:24:59.012    17 May 2022 11:32:55.808      476.79558699    
17 May 2022 13:02:58.823    17 May 2022 13:10:04.612      425.78862259    
17 May 2022 14:44:37.718    17 May 2022 14:45:32.551      54.832881584    
17 May 2022 17:59:22.756    17 May 2022 18:06:08.702      405.94557869    
17 May 2022 19:36:25.182    17 May 2022 19:44:22.399      477.21625617    
18 May 2022 10:45:01.487    18 May 2022 10:52:28.396      446.90918986    
18 May 2022 12:22:21.559    18 May 2022 12:29:57.103      455.54325274    
18 May 2022 14:03:09.563    18 May 2022 14:05:57.266      167.70361693    
18 May 2022 17:19:17.404    18 May 2022 17:25:24.155      366.75068844    
18 May 2022 18:56:04.635    18 May 2022 19:04:13.391      488.75599159    
19 May 2022 10:05:14.118    19 May 2022 10:11:51.880      397.76209581    
19 May 2022 11:41:49.010    19 May 2022 11:49:46.634      477.62427391    
19 May 2022 13:22:02.126    19 May 2022 13:26:01.857      239.73178281    
19 May 2022 16:39:13.019    19 May 2022 16:44:33.329      320.30968921    
19 May 2022 18:15:47.013    19 May 2022 18:23:56.398      489.38477797    
19 May 2022 19:54:49.792    19 May 2022 19:58:55.937      246.14439294    
20 May 2022 09:25:42.318    20 May 2022 09:31:00.707      318.38890779    
20 May 2022 11:01:21.438    20 May 2022 11:09:32.928      491.48953421    
20 May 2022 12:41:01.511    20 May 2022 12:46:00.660      299.14847013    
20 May 2022 15:59:09.977    20 May 2022 16:03:36.037      266.06031130    
20 May 2022 17:35:31.549    20 May 2022 17:43:32.061      480.51216875    
20 May 2022 19:13:44.439    20 May 2022 19:19:39.120      354.68080634    
21 May 2022 08:46:47.226    21 May 2022 08:49:33.596      166.37071328    
21 May 2022 10:20:59.213    21 May 2022 10:29:15.556      496.34241883    
21 May 2022 12:00:05.879    21 May 2022 12:05:55.863      349.98406243    
21 May 2022 15:19:09.437    21 May 2022 15:22:31.395      201.95832074    
21 May 2022 16:55:17.724    21 May 2022 17:03:00.802      463.07750830    
21 May 2022 18:32:59.230    21 May 2022 18:39:57.783      418.55277589    
22 May 2022 09:40:42.873    22 May 2022 09:48:53.886      491.01285328    
22 May 2022 11:19:14.804    22 May 2022 11:25:48.146      393.34224168    
22 May 2022 14:39:15.939    22 May 2022 14:41:15.236      119.29610723    
22 May 2022 16:15:05.184    22 May 2022 16:22:22.907      437.72313497    
22 May 2022 17:52:23.768    22 May 2022 18:00:02.164      458.39632801    
23 May 2022 09:00:33.251    23 May 2022 09:08:26.963      473.71211353    
23 May 2022 10:38:28.255    23 May 2022 10:45:37.706      429.45156384    
23 May 2022 12:19:55.260    23 May 2022 12:21:14.962      79.702165886    
23 May 2022 15:34:53.704    23 May 2022 15:41:38.580      404.87601820    
23 May 2022 17:11:54.279    23 May 2022 17:19:55.873      481.59464848    
24 May 2022 08:20:31.748    24 May 2022 08:27:53.250      441.50250776    
24 May 2022 09:57:46.348    24 May 2022 10:05:24.515      458.16604643    
24 May 2022 11:38:28.863    24 May 2022 11:41:27.306      178.44311184    
24 May 2022 14:54:43.191    24 May 2022 15:00:47.953      364.76164270    
24 May 2022 16:31:28.843    24 May 2022 16:39:40.670      491.82639431    
25 May 2022 07:40:41.009    25 May 2022 07:47:09.951      388.94234601    
25 May 2022 09:17:09.282    25 May 2022 09:25:08.392      479.11032373    
25 May 2022 10:57:17.546    25 May 2022 11:01:25.364      247.81861471    
25 May 2022 14:14:33.725    25 May 2022 14:19:51.051      317.32580754    
25 May 2022 15:51:06.317    25 May 2022 15:59:17.546      491.22872322    
25 May 2022 17:30:00.323    25 May 2022 17:34:27.431      267.10774514    
26 May 2022 07:01:07.299    26 May 2022 07:06:10.642      303.34278516    
26 May 2022 08:36:37.331    26 May 2022 08:44:49.028      491.69763287    
26 May 2022 10:16:12.568    26 May 2022 10:21:18.300      305.73222603    
26 May 2022 13:34:25.717    26 May 2022 13:38:47.656      261.93842660    
26 May 2022 15:10:45.954    26 May 2022 15:18:47.111      481.15702858    
26 May 2022 16:48:53.711    26 May 2022 16:55:01.084      367.37343703    
27 May 2022 06:22:20.438    27 May 2022 06:24:25.344      124.90600187    
27 May 2022 07:56:10.880    27 May 2022 08:04:25.953      495.07363171    
27 May 2022 09:35:12.494    27 May 2022 09:41:07.874      355.37986995    
27 May 2022 12:54:20.453    27 May 2022 12:57:36.761      196.30886436    
27 May 2022 14:30:27.245    27 May 2022 14:38:09.762      462.51705475    
27 May 2022 16:08:05.018    27 May 2022 16:15:12.466      427.44831140    
28 May 2022 07:15:50.500    28 May 2022 07:23:58.480      487.97945090    
28 May 2022 08:54:17.004    28 May 2022 09:00:54.635      397.63087953    
28 May 2022 12:14:23.287    28 May 2022 12:16:13.390      110.10328154    
28 May 2022 13:50:09.845    28 May 2022 13:57:25.772      435.92662081    
28 May 2022 15:27:25.451    28 May 2022 15:35:10.190      464.73879449    
29 May 2022 06:35:37.094    29 May 2022 06:43:25.565      468.47148270    
29 May 2022 08:13:26.104    29 May 2022 08:20:38.719      432.61538192    
29 May 2022 09:54:44.357    29 May 2022 09:56:21.416      97.059046570    
29 May 2022 13:09:53.538    29 May 2022 13:16:35.327      401.78909507    
29 May 2022 14:46:51.591    29 May 2022 14:54:57.496      485.90518887    
30 May 2022 05:55:32.204    30 May 2022 06:02:45.506      433.30255821    
30 May 2022 07:32:39.923    30 May 2022 07:40:20.054      460.13075301    
30 May 2022 09:13:16.809    30 May 2022 09:16:24.845      188.03637981    
30 May 2022 12:29:38.245    30 May 2022 12:35:38.541      360.29649015    
30 May 2022 14:06:21.646    30 May 2022 14:14:36.003      494.35667284    
30 May 2022 15:46:47.864    30 May 2022 15:47:58.661      70.796711021    
31 May 2022 05:15:38.846    31 May 2022 05:21:55.119      376.27297605    
31 May 2022 06:51:58.672    31 May 2022 06:59:58.428      479.75569339    
31 May 2022 08:32:01.559    31 May 2022 08:36:16.894      255.33563130    
31 May 2022 11:49:24.082    31 May 2022 11:54:35.410      311.32754527    
31 May 2022 13:25:54.529    31 May 2022 13:34:06.631      492.10193565    
31 May 2022 15:04:38.873    31 May 2022 15:09:28.256      289.38269630    
01 Jun 2022 04:36:04.657    01 Jun 2022 04:40:46.595      281.93767313    
01 Jun 2022 06:11:22.639    01 Jun 2022 06:19:33.492      490.85210870    
01 Jun 2022 07:50:52.322    01 Jun 2022 07:56:04.249      311.92774036    
01 Jun 2022 11:09:11.549    01 Jun 2022 11:13:25.628      254.07927936    
01 Jun 2022 12:45:29.526    01 Jun 2022 12:53:29.950      480.42437125    
01 Jun 2022 14:23:31.287    01 Jun 2022 14:29:52.219      380.93251846    
02 Jun 2022 05:30:52.237    02 Jun 2022 05:39:04.732      492.49419111    
02 Jun 2022 07:09:47.937    02 Jun 2022 07:15:48.373      360.43574583    
02 Jun 2022 10:29:02.238    02 Jun 2022 10:32:07.898      185.66016244    
02 Jun 2022 12:05:06.149    02 Jun 2022 12:12:46.332      460.18294701    
02 Jun 2022 13:42:39.438    02 Jun 2022 13:49:56.032      436.59385059    
03 Jun 2022 04:50:28.087    03 Jun 2022 04:58:31.396      483.30884533    
03 Jun 2022 06:28:48.160    03 Jun 2022 06:35:29.719      401.55884743    
03 Jun 2022 09:49:03.762    03 Jun 2022 09:50:35.001      91.238980321    
03 Jun 2022 11:24:44.073    03 Jun 2022 11:31:56.031      431.95835219    
03 Jun 2022 13:01:56.015    03 Jun 2022 13:09:46.822      470.80747825    
04 Jun 2022 04:10:11.185    04 Jun 2022 04:17:52.333      461.14768008    
04 Jun 2022 05:47:53.024    04 Jun 2022 05:55:08.376      435.35208504    
04 Jun 2022 07:29:03.896    04 Jun 2022 07:30:54.380      110.48433491    
04 Jun 2022 10:44:23.104    04 Jun 2022 10:50:59.218      396.11397183    
04 Jun 2022 12:21:17.967    04 Jun 2022 12:29:27.453      489.48660961    
05 Jun 2022 03:30:03.285    05 Jun 2022 03:37:05.626      422.34055678    
05 Jun 2022 05:07:02.676    05 Jun 2022 05:14:44.241      461.56492692    
05 Jun 2022 06:47:33.702    05 Jun 2022 06:50:50.487      196.78574174    
05 Jun 2022 10:04:03.203    05 Jun 2022 10:09:55.983      352.78045235    
05 Jun 2022 11:40:43.649    05 Jun 2022 11:48:59.396      495.74720731    
05 Jun 2022 13:20:34.170    05 Jun 2022 13:23:00.038      145.86837968    
06 Jun 2022 02:50:07.949    06 Jun 2022 02:56:07.541      359.59181244    
06 Jun 2022 04:26:17.343    06 Jun 2022 04:34:17.074      479.73086609    
06 Jun 2022 06:06:14.290    06 Jun 2022 06:10:36.827      262.53663265    
06 Jun 2022 09:23:44.557    06 Jun 2022 09:28:46.267      301.71056867    
06 Jun 2022 11:00:12.048    06 Jun 2022 11:08:23.502      491.45336116    
06 Jun 2022 12:38:46.237    06 Jun 2022 12:43:57.814      311.57698254    
07 Jun 2022 02:10:35.089    07 Jun 2022 02:14:47.990      252.90089012    
07 Jun 2022 03:45:37.339    07 Jun 2022 03:53:46.493      489.15441247    
07 Jun 2022 05:25:00.721    07 Jun 2022 05:30:18.729      318.00744171    
07 Jun 2022 08:43:27.844    07 Jun 2022 08:47:29.615      241.77090561    
07 Jun 2022 10:19:42.498    07 Jun 2022 10:27:40.303      477.80471920    
07 Jun 2022 11:57:37.587    07 Jun 2022 12:04:12.016      394.42902919    
08 Jun 2022 03:05:03.117    08 Jun 2022 03:13:11.941      488.82357634    
08 Jun 2022 04:43:52.016    08 Jun 2022 04:49:57.464      365.44775030    
08 Jun 2022 08:03:15.288    08 Jun 2022 08:06:04.128      168.83909659    
08 Jun 2022 09:39:14.545    08 Jun 2022 09:46:50.149      455.60322903    
08 Jun 2022 11:16:42.704    08 Jun 2022 11:24:07.979      445.27454996    
09 Jun 2022 02:24:35.371    09 Jun 2022 02:32:32.592      477.22145630    
09 Jun 2022 04:02:47.983    09 Jun 2022 04:09:33.426      405.44319728    
09 Jun 2022 07:23:21.872    09 Jun 2022 07:24:15.250      53.378031927    
09 Jun 2022 08:58:47.897    09 Jun 2022 09:05:53.278      425.38075761    
09 Jun 2022 10:35:55.550    09 Jun 2022 10:43:51.561      476.01050651    
10 Jun 2022 01:44:15.232    10 Jun 2022 01:51:47.165      451.93295813    
10 Jun 2022 03:21:48.677    10 Jun 2022 03:29:06.673      437.99557113    
10 Jun 2022 05:02:52.545    10 Jun 2022 05:04:54.873      122.32808007    
10 Jun 2022 08:18:22.402    10 Jun 2022 08:24:49.845      387.44291270    
10 Jun 2022 09:55:13.440    10 Jun 2022 10:03:25.273      491.83268293    
11 Jun 2022 01:04:04.744    11 Jun 2022 01:10:53.458      408.71331319    
11 Jun 2022 02:40:54.265    11 Jun 2022 02:48:37.079      462.81439208    
11 Jun 2022 04:21:18.979    11 Jun 2022 04:24:44.504      205.52466820    
11 Jun 2022 07:37:58.081    11 Jun 2022 07:43:39.905      341.82464556    
11 Jun 2022 09:14:34.882    11 Jun 2022 09:22:50.443      495.56050828    
11 Jun 2022 10:54:01.450    11 Jun 2022 10:57:17.759      196.30978784    
12 Jun 2022 00:24:08.273    12 Jun 2022 00:29:46.937      338.66314685    
12 Jun 2022 02:00:04.993    12 Jun 2022 02:08:04.381      479.38765262    
12 Jun 2022 03:39:55.322    12 Jun 2022 03:44:25.393      270.07040164    
12 Jun 2022 06:57:35.242    12 Jun 2022 07:02:23.313      288.07119762    
12 Jun 2022 08:33:58.946    12 Jun 2022 08:42:07.853      488.90697900    
12 Jun 2022 10:12:22.736    12 Jun 2022 10:17:55.557      332.82119127    
12 Jun 2022 23:44:39.817    12 Jun 2022 23:48:13.440      213.62288859    
13 Jun 2022 01:19:21.209    13 Jun 2022 01:27:28.164      486.95477424    
13 Jun 2022 02:58:37.474    13 Jun 2022 03:04:02.020      324.54589385    
13 Jun 2022 06:17:14.873    13 Jun 2022 06:20:59.339      224.46665898    
13 Jun 2022 07:53:25.018    13 Jun 2022 08:01:17.999      472.98158101    
13 Jun 2022 09:31:12.934    13 Jun 2022 09:38:00.141      407.20675233    
14 Jun 2022 00:38:43.417    14 Jun 2022 00:46:47.817      484.39998367    
14 Jun 2022 02:17:24.579    14 Jun 2022 02:23:35.527      370.94751082    
14 Jun 2022 05:37:00.485    14 Jun 2022 05:39:24.833      144.34811943    
14 Jun 2022 07:12:52.686    14 Jun 2022 07:20:21.208      448.52198255    
14 Jun 2022 08:50:15.196    14 Jun 2022 08:57:48.187      452.99086516    
14 Jun 2022 23:58:12.402    15 Jun 2022 00:06:02.428      470.02678129    
15 Jun 2022 01:36:16.477    15 Jun 2022 01:43:06.261      409.78422024    
15 Jun 2022 06:32:21.699    15 Jun 2022 06:39:17.700      416.00035279    
15 Jun 2022 08:09:24.544    15 Jun 2022 08:17:24.502      479.95828798    
15 Jun 2022 23:17:49.469    15 Jun 2022 23:25:10.544      441.07493138    
16 Jun 2022 00:55:13.238    16 Jun 2022 01:02:34.257      441.01909376    
16 Jun 2022 02:36:09.693    16 Jun 2022 02:38:24.415      134.72242041    
16 Jun 2022 05:51:51.957    16 Jun 2022 05:58:07.601      375.64400830    
16 Jun 2022 07:28:38.627    16 Jun 2022 07:36:51.270      492.64385523    
16 Jun 2022 22:37:37.053    16 Jun 2022 22:44:09.570      392.51660242    
17 Jun 2022 00:14:15.042    17 Jun 2022 00:21:59.368      464.32633381    
17 Jun 2022 01:54:32.716    17 Jun 2022 01:58:08.076      215.35987908    
17 Jun 2022 05:11:23.564    17 Jun 2022 05:16:50.910      327.34651454    
17 Jun 2022 06:47:56.101    17 Jun 2022 06:56:09.680      493.57920208    
17 Jun 2022 08:27:02.870    17 Jun 2022 08:30:59.981      237.11125067    
17 Jun 2022 21:57:40.729    17 Jun 2022 22:02:53.769      313.04058291    
17 Jun 2022 23:33:22.154    17 Jun 2022 23:41:21.301      479.14619817    
18 Jun 2022 01:13:05.036    18 Jun 2022 01:17:43.808      278.77200841    
18 Jun 2022 04:30:57.007    18 Jun 2022 04:35:27.330      270.32338476    
18 Jun 2022 06:07:16.117    18 Jun 2022 06:15:20.442      484.32504914    
18 Jun 2022 07:45:29.473    18 Jun 2022 07:51:22.061      352.58882632    
18 Jun 2022 21:18:23.122    18 Jun 2022 21:21:00.352      157.22985466    
18 Jun 2022 22:52:34.955    18 Jun 2022 23:00:39.598      484.64319612    
19 Jun 2022 00:31:43.197    19 Jun 2022 00:37:15.428      332.23086210    
19 Jun 2022 03:50:33.803    19 Jun 2022 03:53:55.634      201.83103913    
19 Jun 2022 05:26:38.114    19 Jun 2022 05:34:24.010      465.89622446    
19 Jun 2022 07:04:18.545    19 Jun 2022 07:11:17.399      418.85367039    
19 Jun 2022 22:11:54.008    19 Jun 2022 22:19:53.584      479.57607571    
19 Jun 2022 23:50:26.438    19 Jun 2022 23:56:43.963      377.52453428    
20 Jun 2022 03:10:20.474    20 Jun 2022 03:12:09.689      109.21540823    
20 Jun 2022 04:46:01.722    20 Jun 2022 04:53:20.680      438.95872976    
20 Jun 2022 06:23:18.218    20 Jun 2022 06:30:57.687      459.46854923    
20 Jun 2022 21:31:20.205    20 Jun 2022 21:39:02.228      462.02331529    
20 Jun 2022 23:09:14.618    20 Jun 2022 23:16:09.717      415.09882378    
21 Jun 2022 04:05:26.729    21 Jun 2022 04:12:10.642      403.91230071    
21 Jun 2022 05:42:24.378    21 Jun 2022 05:50:26.868      482.48949784    
21 Jun 2022 20:50:55.072    21 Jun 2022 20:58:03.847      428.77476864    
21 Jun 2022 22:28:07.814    21 Jun 2022 22:35:32.695      444.88162373    
22 Jun 2022 00:08:55.882    22 Jun 2022 00:11:25.247      149.36493397    
22 Jun 2022 03:24:53.096    22 Jun 2022 03:30:53.976      360.88033612    
22 Jun 2022 05:01:34.969    22 Jun 2022 05:09:46.825      491.85607850    
22 Jun 2022 20:10:41.583    22 Jun 2022 20:16:55.299      373.71648846    
22 Jun 2022 21:47:06.212    22 Jun 2022 21:54:52.721      466.50931647    
22 Jun 2022 23:27:15.868    22 Jun 2022 23:31:03.175      227.30693225    
23 Jun 2022 02:44:21.036    23 Jun 2022 02:49:30.590      309.55323887    
23 Jun 2022 04:20:48.782    23 Jun 2022 04:28:58.609      489.82699891    
23 Jun 2022 05:59:38.146    23 Jun 2022 06:04:09.988      271.84205046    
23 Jun 2022 19:30:47.213    23 Jun 2022 19:35:28.936      281.72220992    
23 Jun 2022 21:06:10.094    23 Jun 2022 21:14:09.460      479.36614549    
23 Jun 2022 22:45:44.554    23 Jun 2022 22:50:33.953      289.39920383    
24 Jun 2022 02:03:51.305    24 Jun 2022 02:07:59.934      248.62885913    
24 Jun 2022 03:40:05.043    24 Jun 2022 03:48:02.856      477.81310781    
24 Jun 2022 05:18:08.078    24 Jun 2022 05:24:18.779      370.70173445    
24 Jun 2022 18:52:10.303    24 Jun 2022 18:52:46.243      35.939590191    
24 Jun 2022 20:25:19.877    24 Jun 2022 20:33:22.403      482.52562940    
24 Jun 2022 22:04:19.092    24 Jun 2022 22:10:00.761      341.66812452    
25 Jun 2022 01:23:26.373    25 Jun 2022 01:26:19.847      173.47356464    
25 Jun 2022 02:59:23.235    25 Jun 2022 03:06:59.967      456.73235123    
25 Jun 2022 04:36:56.025    25 Jun 2022 04:44:05.274      429.24894851    
25 Jun 2022 19:44:36.192    25 Jun 2022 19:52:30.783      474.59103183    
25 Jun 2022 21:22:58.815    25 Jun 2022 21:29:24.492      385.67764617    
26 Jun 2022 00:43:23.865    26 Jun 2022 00:44:13.115      49.249883427    
26 Jun 2022 02:18:43.030    26 Jun 2022 02:25:50.203      427.17287599    
26 Jun 2022 03:55:53.291    26 Jun 2022 04:03:37.985      464.69358973    


Number of events : 331


Observer: Hawaii
Start Time (UTC)            Stop Time (UTC)               Duration (s)         
27 Apr 2022 17:28:00.746    27 Apr 2022 17:33:52.510      351.76464552    
27 Apr 2022 19:04:39.395    27 Apr 2022 19:11:45.869      426.47400002    
28 Apr 2022 03:21:18.673    28 Apr 2022 03:28:57.408      458.73569796    
28 Apr 2022 04:59:51.630    28 Apr 2022 05:04:49.131      297.50081040    
28 Apr 2022 16:49:13.908    28 Apr 2022 16:52:57.074      223.16601193    
28 Apr 2022 18:24:24.544    28 Apr 2022 18:32:05.266      460.72167341    
29 Apr 2022 02:41:40.624    29 Apr 2022 02:48:37.539      416.91507386    
29 Apr 2022 04:19:11.647    29 Apr 2022 04:25:44.949      393.30194819    
29 Apr 2022 17:44:19.034    29 Apr 2022 17:52:16.372      477.33722872    
30 Apr 2022 02:02:11.556    30 Apr 2022 02:08:02.995      351.43892937    
30 Apr 2022 03:38:50.265    30 Apr 2022 03:46:18.711      448.44633451    
30 Apr 2022 17:04:22.261    30 Apr 2022 17:12:19.421      477.16010925    
30 Apr 2022 18:45:19.868    30 Apr 2022 18:46:46.143      86.274378968    
01 May 2022 01:22:59.327    01 May 2022 01:27:05.516      246.18936352    
01 May 2022 02:58:39.552    01 May 2022 03:06:37.993      478.44152707    
01 May 2022 16:24:34.582    01 May 2022 16:32:13.691      459.10905014    
01 May 2022 18:03:37.977    01 May 2022 18:08:14.601      276.62383527    
02 May 2022 02:18:36.477    02 May 2022 02:26:45.466      488.98923785    
02 May 2022 15:44:57.590    02 May 2022 15:51:57.237      419.64713100    
02 May 2022 17:22:47.627    02 May 2022 17:28:53.765      366.13747354    
03 May 2022 01:38:39.729    03 May 2022 01:46:42.070      482.34070565    
03 May 2022 03:19:38.621    03 May 2022 03:19:55.284      16.663207998    
03 May 2022 15:05:35.504    03 May 2022 15:11:25.484      349.97992596    
03 May 2022 16:42:14.616    03 May 2022 16:49:17.452      422.83653924    
04 May 2022 00:58:49.000    04 May 2022 01:06:27.733      458.73208232    
04 May 2022 02:37:21.770    04 May 2022 02:42:18.657      296.88741539    
04 May 2022 14:26:42.982    04 May 2022 14:30:23.424      220.44260837    
04 May 2022 16:01:53.189    04 May 2022 16:09:31.029      457.83976230    
05 May 2022 00:19:04.982    05 May 2022 00:26:01.370      416.38767498    
05 May 2022 01:56:35.332    05 May 2022 02:03:08.526      393.19377638    
05 May 2022 15:21:41.283    05 May 2022 15:29:36.175      474.89156738    
05 May 2022 23:39:30.145    05 May 2022 23:45:20.113      349.96808170    
06 May 2022 01:16:07.742    06 May 2022 01:23:36.094      448.35176904    
06 May 2022 14:41:38.260    06 May 2022 14:49:33.154      474.89392416    
06 May 2022 16:22:39.909    06 May 2022 16:23:54.603      74.693734618    
06 May 2022 23:00:12.715    06 May 2022 23:04:15.330      242.61497541    
07 May 2022 00:35:50.954    07 May 2022 00:43:49.052      478.09774341    
07 May 2022 14:01:44.484    07 May 2022 14:09:21.237      456.75212330    
07 May 2022 15:40:47.384    07 May 2022 15:45:21.340      273.95558443    
07 May 2022 23:55:41.909    08 May 2022 00:03:50.094      488.18546121    
08 May 2022 13:22:01.599    08 May 2022 13:28:58.424      416.82516632    
08 May 2022 14:59:50.357    08 May 2022 15:05:54.885      364.52750440    
08 May 2022 23:15:39.300    08 May 2022 23:23:40.161      480.86181795    
09 May 2022 00:56:22.687    09 May 2022 00:57:08.150      45.463105221    
09 May 2022 12:42:34.005    09 May 2022 12:48:19.967      345.96249936    
09 May 2022 14:19:11.021    09 May 2022 14:26:12.661      421.63965502    
09 May 2022 22:35:42.846    09 May 2022 22:43:19.156      456.31025566    
10 May 2022 00:14:12.862    10 May 2022 00:19:12.223      299.36096049    
10 May 2022 12:03:37.435    10 May 2022 12:07:09.784      212.34814287    
10 May 2022 13:38:43.454    10 May 2022 13:46:20.205      456.75063687    
10 May 2022 21:55:53.314    10 May 2022 22:02:45.927      412.61303587    
10 May 2022 23:33:20.953    10 May 2022 23:39:55.321      394.36845883    
11 May 2022 12:58:25.563    11 May 2022 13:06:19.235      473.67227424    
11 May 2022 21:16:13.383    11 May 2022 21:21:57.400      344.01680451    
11 May 2022 22:52:47.755    11 May 2022 23:00:16.301      448.54593164    
12 May 2022 12:18:16.719    12 May 2022 12:26:10.012      473.29315427    
12 May 2022 13:59:11.761    12 May 2022 14:00:36.196      84.435726888    
12 May 2022 20:36:52.272    12 May 2022 20:40:43.964      231.69155472    
12 May 2022 22:12:25.382    12 May 2022 22:20:22.697      477.31552985    
13 May 2022 11:38:17.333    13 May 2022 11:45:51.771      454.43837604    
13 May 2022 13:17:16.653    13 May 2022 13:21:53.606      276.95292158    
13 May 2022 21:32:10.831    13 May 2022 21:40:17.159      486.32764025    
14 May 2022 10:58:29.153    14 May 2022 11:05:22.412      413.25889556    
14 May 2022 12:36:14.143    14 May 2022 12:42:20.841      366.69860854    
14 May 2022 20:52:02.841    14 May 2022 21:00:00.586      477.74569625    
14 May 2022 22:32:27.020    14 May 2022 22:33:47.385      80.364995159    
15 May 2022 10:18:56.903    15 May 2022 10:24:36.871      339.96801304    
15 May 2022 11:55:29.264    15 May 2022 12:02:32.489      423.22478963    
15 May 2022 20:12:01.195    15 May 2022 20:19:32.826      451.63081137    
15 May 2022 21:50:26.115    15 May 2022 21:55:30.792      304.67703725    
16 May 2022 09:39:58.343    16 May 2022 09:43:17.049      198.70598945    
16 May 2022 11:14:56.234    16 May 2022 11:22:33.953      457.71907924    
16 May 2022 19:32:06.788    16 May 2022 19:38:52.603      405.81418293    
16 May 2022 21:09:29.845    16 May 2022 21:16:06.606      396.76069496    
17 May 2022 10:34:33.014    17 May 2022 10:42:26.902      473.88767113    
17 May 2022 18:52:22.654    17 May 2022 18:57:56.492      333.83767703    
17 May 2022 20:28:51.815    17 May 2022 20:36:20.875      449.06009696    
18 May 2022 09:54:19.026    18 May 2022 10:02:11.546      472.52014907    
18 May 2022 11:34:59.407    18 May 2022 11:36:49.979      110.57183129    
18 May 2022 18:12:59.832    18 May 2022 18:16:33.058      213.22570079    
18 May 2022 19:48:24.535    18 May 2022 19:56:20.740      476.20513241    
19 May 2022 09:14:14.755    19 May 2022 09:21:47.043      452.28766414    
19 May 2022 10:53:07.529    19 May 2022 10:57:53.127      285.59780371    
19 May 2022 19:08:05.122    19 May 2022 19:16:08.722      483.59955016    
20 May 2022 08:34:22.111    20 May 2022 08:41:11.127      409.01669052    
20 May 2022 10:12:00.919    20 May 2022 10:18:13.571      372.65175311    
20 May 2022 18:27:52.392    20 May 2022 18:35:45.640      473.24762733    
20 May 2022 20:07:56.891    20 May 2022 20:09:52.101      115.21083154    
21 May 2022 07:54:46.297    21 May 2022 08:00:18.247      331.94978682    
21 May 2022 09:31:11.468    21 May 2022 09:38:19.038      427.57005561    
21 May 2022 17:47:46.219    21 May 2022 17:55:11.238      445.01813758    
21 May 2022 19:26:04.020    21 May 2022 19:31:16.580      312.56046739    
22 May 2022 07:15:48.537    22 May 2022 07:18:46.823      178.28552274    
22 May 2022 08:50:33.807    22 May 2022 08:58:14.502      460.69432682    
22 May 2022 17:07:47.676    22 May 2022 17:14:24.049      396.37306945    
22 May 2022 18:45:04.483    22 May 2022 18:51:44.856      400.37254138    
23 May 2022 08:10:06.031    23 May 2022 08:18:01.485      475.45469046    
23 May 2022 16:28:00.316    23 May 2022 16:33:20.111      319.79536327    
23 May 2022 18:04:22.410    23 May 2022 18:11:52.435      450.02513618    
24 May 2022 07:29:47.645    24 May 2022 07:37:40.099      472.45373328    
24 May 2022 09:10:09.811    24 May 2022 09:12:33.867      144.05584456    
24 May 2022 15:48:38.356    24 May 2022 15:51:44.795      186.43892538    
24 May 2022 17:23:50.881    24 May 2022 17:31:45.870      474.98942505    
25 May 2022 06:49:39.245    25 May 2022 06:57:09.372      450.12736574    
25 May 2022 08:28:22.828    25 May 2022 08:33:21.955      299.12694729    
25 May 2022 16:43:27.189    25 May 2022 16:51:27.489      480.29948036    
26 May 2022 06:09:42.964    26 May 2022 06:16:26.801      403.83693745    
26 May 2022 07:47:13.296    26 May 2022 07:53:35.229      381.93259601    
26 May 2022 16:03:10.254    26 May 2022 16:10:57.983      467.72908989    
26 May 2022 17:42:54.983    26 May 2022 17:45:24.604      149.62142837    
27 May 2022 05:30:04.706    27 May 2022 05:35:26.107      321.40130721    
27 May 2022 07:06:20.104    27 May 2022 07:13:34.397      434.29337869    
27 May 2022 15:23:00.072    27 May 2022 15:30:16.953      436.88114535    
27 May 2022 17:01:09.036    27 May 2022 17:06:31.864      322.82837337    
28 May 2022 04:51:11.981    28 May 2022 04:53:39.409      147.42803791    
28 May 2022 06:25:38.496    28 May 2022 06:33:23.803      465.30751343    
28 May 2022 14:42:57.956    28 May 2022 14:49:22.667      384.71012759    
28 May 2022 16:20:07.009    28 May 2022 16:26:52.326      405.31687152    
29 May 2022 05:45:06.763    29 May 2022 05:53:04.751      477.98864498    
29 May 2022 14:03:08.219    29 May 2022 14:08:10.383      302.16381914    
29 May 2022 15:39:21.416    29 May 2022 15:46:53.091      451.67521964    
30 May 2022 05:04:44.539    30 May 2022 05:12:37.206      472.66720684    
30 May 2022 06:44:47.170    30 May 2022 06:47:47.161      179.99128194    
30 May 2022 13:23:51.012    30 May 2022 13:26:19.511      148.49876643    
30 May 2022 14:58:46.028    30 May 2022 15:06:40.000      473.97207334    
31 May 2022 04:24:32.574    31 May 2022 04:32:00.024      447.44973964    
31 May 2022 06:03:04.658    31 May 2022 06:08:21.001      316.34259929    
31 May 2022 14:18:18.363    31 May 2022 14:26:15.134      476.77169699    
01 Jun 2022 03:44:33.320    01 Jun 2022 03:51:10.364      397.04417229    
01 Jun 2022 05:21:52.913    01 Jun 2022 05:28:26.690      393.77691199    
01 Jun 2022 13:37:57.478    01 Jun 2022 13:45:39.029      461.55114487    
01 Jun 2022 15:17:22.348    01 Jun 2022 15:20:26.332      183.98391078    
02 Jun 2022 03:04:53.735    02 Jun 2022 03:10:00.883      307.14760950    
02 Jun 2022 04:40:56.495    02 Jun 2022 04:48:19.246      442.75085080    
02 Jun 2022 12:57:43.535    02 Jun 2022 13:04:51.103      427.56869649    
02 Jun 2022 14:35:42.132    02 Jun 2022 14:41:17.618      335.48680684    
03 Jun 2022 02:26:15.834    03 Jun 2022 02:27:49.176      93.342116545    
03 Jun 2022 04:00:11.355    03 Jun 2022 04:08:02.297      470.94266001    
03 Jun 2022 12:17:38.177    03 Jun 2022 12:23:49.277      371.10023989    
03 Jun 2022 13:54:38.015    03 Jun 2022 14:01:29.828      411.81305781    
04 Jun 2022 03:19:36.034    04 Jun 2022 03:27:36.887      480.85330676    
04 Jun 2022 11:37:46.828    04 Jun 2022 11:42:27.684      280.85651543    
04 Jun 2022 13:13:49.138    04 Jun 2022 13:21:23.429      454.29176021    
05 Jun 2022 02:39:10.339    05 Jun 2022 02:47:02.802      472.46269332    
05 Jun 2022 04:18:52.834    05 Jun 2022 04:22:29.027      216.19293569    
05 Jun 2022 10:58:43.996    05 Jun 2022 11:00:11.371      87.374539592    
05 Jun 2022 12:33:10.036    05 Jun 2022 12:41:03.487      473.45072420    
06 Jun 2022 01:58:55.240    06 Jun 2022 02:06:18.676      443.43571463    
06 Jun 2022 03:37:13.740    06 Jun 2022 03:42:49.677      335.93713695    
06 Jun 2022 11:52:38.503    06 Jun 2022 12:00:31.807      473.30455910    
07 Jun 2022 01:18:53.648    07 Jun 2022 01:25:21.206      387.55803038    
07 Jun 2022 02:56:00.144    07 Jun 2022 03:02:47.397      407.25296511    
07 Jun 2022 11:12:13.771    07 Jun 2022 11:19:48.741      454.96949555    
07 Jun 2022 12:51:18.673    07 Jun 2022 12:54:57.330      218.65701751    
08 Jun 2022 00:39:14.178    08 Jun 2022 00:44:01.395      287.21653582    
08 Jun 2022 02:15:00.842    08 Jun 2022 02:22:32.967      452.12467310    
08 Jun 2022 10:31:56.219    08 Jun 2022 10:38:53.487      417.26822524    
08 Jun 2022 12:09:43.047    08 Jun 2022 12:15:33.582      350.53485876    
09 Jun 2022 01:34:12.498    09 Jun 2022 01:42:09.307      476.80886770    
09 Jun 2022 09:51:47.944    09 Jun 2022 09:57:43.513      355.56833862    
09 Jun 2022 11:28:37.084    09 Jun 2022 11:35:37.101      420.01730507    
10 Jun 2022 00:53:33.941    10 Jun 2022 01:01:37.178      483.23680696    
10 Jun 2022 09:11:56.061    10 Jun 2022 09:16:11.261      255.20020186    
10 Jun 2022 10:47:45.111    10 Jun 2022 10:55:23.168      458.05738239    
11 Jun 2022 00:13:05.196    11 Jun 2022 00:20:56.157      470.96105882    
11 Jun 2022 01:52:27.136    11 Jun 2022 01:56:38.524      251.38727934    
11 Jun 2022 10:07:02.462    11 Jun 2022 10:14:56.055      473.59258246    
11 Jun 2022 23:32:47.526    11 Jun 2022 23:40:04.586      437.06022869    
12 Jun 2022 01:10:50.500    12 Jun 2022 01:16:47.082      356.58142311    
12 Jun 2022 09:26:27.237    12 Jun 2022 09:34:17.262      470.02581098    
12 Jun 2022 22:52:44.514    12 Jun 2022 22:58:58.503      373.98906481    
13 Jun 2022 00:29:35.375    13 Jun 2022 00:36:36.698      421.32288886    
13 Jun 2022 08:45:58.882    13 Jun 2022 08:53:26.930      448.04794758    
13 Jun 2022 10:24:43.797    13 Jun 2022 10:28:57.404      253.60666607    
13 Jun 2022 22:13:07.551    13 Jun 2022 22:17:26.131      258.58045378    
13 Jun 2022 23:48:33.611    13 Jun 2022 23:56:15.101      461.48969976    
14 Jun 2022 08:05:38.049    14 Jun 2022 08:12:23.984      405.93501341    
14 Jun 2022 09:43:11.854    14 Jun 2022 09:49:19.581      367.72742984    
14 Jun 2022 23:07:42.535    14 Jun 2022 23:15:44.555      482.02033894    
15 Jun 2022 07:25:27.453    15 Jun 2022 07:31:05.271      337.81819664    
15 Jun 2022 09:02:04.353    15 Jun 2022 09:09:14.196      429.84301181    
15 Jun 2022 22:27:01.276    15 Jun 2022 22:35:05.522      484.24659516    
16 Jun 2022 00:08:00.971    16 Jun 2022 00:09:26.048      85.077563580    
16 Jun 2022 06:45:36.938    16 Jun 2022 06:49:20.508      223.56990734    
16 Jun 2022 08:21:09.619    16 Jun 2022 08:28:52.536      462.91642645    
16 Jun 2022 21:46:30.115    16 Jun 2022 21:54:17.326      467.21072146    
16 Jun 2022 23:25:31.101    16 Jun 2022 23:30:15.709      284.60877581    
17 Jun 2022 07:40:23.765    17 Jun 2022 07:48:18.093      474.32738567    
17 Jun 2022 21:06:10.712    17 Jun 2022 21:13:17.918      427.20669068    
17 Jun 2022 22:43:56.307    17 Jun 2022 22:50:13.317      377.01012001    
18 Jun 2022 06:59:45.216    18 Jun 2022 07:07:32.039      466.82306357    
18 Jun 2022 20:26:07.640    18 Jun 2022 20:32:02.339      354.69888862    
18 Jun 2022 22:02:40.052    18 Jun 2022 22:09:54.988      434.93625139    
19 Jun 2022 06:19:13.663    19 Jun 2022 06:26:34.262      440.59949327    
19 Jun 2022 07:57:38.761    19 Jun 2022 08:02:27.103      288.34258929    
19 Jun 2022 19:46:37.537    19 Jun 2022 19:50:13.564      216.02645632    
19 Jun 2022 21:21:36.363    19 Jun 2022 21:29:26.275      469.91158220    
20 Jun 2022 05:38:50.100    20 Jun 2022 05:45:23.338      393.23803189    
20 Jun 2022 07:16:09.793    20 Jun 2022 07:22:36.256      386.46330343    
20 Jun 2022 20:40:43.148    20 Jun 2022 20:48:48.851      485.70229851    
21 Jun 2022 04:58:38.110    21 Jun 2022 05:03:55.234      317.12320761    
21 Jun 2022 06:35:01.100    21 Jun 2022 06:42:21.976      440.87575913    
21 Jun 2022 19:59:59.844    21 Jun 2022 20:08:02.864      483.02040707    
21 Jun 2022 21:40:14.163    21 Jun 2022 21:43:02.818      168.65521419    
22 Jun 2022 04:18:52.496    22 Jun 2022 04:21:54.696      182.20002291    
22 Jun 2022 05:54:04.017    22 Jun 2022 06:01:52.530      468.51247241    
22 Jun 2022 19:19:27.033    22 Jun 2022 19:27:07.325      460.29202124    
22 Jun 2022 20:58:06.598    22 Jun 2022 21:03:21.703      315.10548822    
23 Jun 2022 05:13:15.378    23 Jun 2022 05:21:10.674      475.29590505    
23 Jun 2022 18:39:06.910    23 Jun 2022 18:45:59.641      412.73049556    
23 Jun 2022 20:16:33.249    23 Jun 2022 20:23:09.410      396.16102228    
24 Jun 2022 04:32:33.940    24 Jun 2022 04:40:17.231      463.29018631    
24 Jun 2022 06:12:18.357    24 Jun 2022 06:14:40.997      142.63995064    
24 Jun 2022 17:59:05.618    24 Jun 2022 18:04:33.267      327.64835703    
24 Jun 2022 19:35:16.216    24 Jun 2022 19:42:43.404      447.18810293    
25 Jun 2022 03:51:59.675    25 Jun 2022 03:59:11.791      432.11615881    
25 Jun 2022 05:30:05.224    25 Jun 2022 05:35:27.399      322.17518653    
25 Jun 2022 17:19:52.526    25 Jun 2022 17:22:18.433      145.90710690    
25 Jun 2022 18:54:11.076    25 Jun 2022 19:02:07.670      476.59358113    
26 Jun 2022 03:11:34.019    26 Jun 2022 03:17:52.467      378.44841153    
26 Jun 2022 04:48:38.574    26 Jun 2022 04:55:24.476      405.90200181    


