GMAT/Constellation/Contact/ContactLocator18.txt

Target: HSEYE18

Observer: Bahrain
Start Time (UTC)            Stop Time (UTC)               Duration (s)         
27 Apr 2022 14:49:36.944    27 Apr 2022 14:57:32.680      475.73535241    
27 Apr 2022 16:28:29.626    27 Apr 2022 16:32:57.876      268.25095396    
28 Apr 2022 05:55:16.817    28 Apr 2022 06:03:10.485      473.66849893    
28 Apr 2022 07:34:27.523    28 Apr 2022 07:39:22.650      295.12654245    
28 Apr 2022 14:09:56.178    28 Apr 2022 14:17:26.538      450.35986737    
28 Apr 2022 15:47:52.093    28 Apr 2022 15:54:04.278      372.18448862    
29 Apr 2022 05:15:39.981    29 Apr 2022 05:23:09.618      449.63627286    
29 Apr 2022 06:53:52.374    29 Apr 2022 06:59:59.761      367.38715967    
29 Apr 2022 13:30:19.795    29 Apr 2022 13:37:10.375      410.58005271    
29 Apr 2022 15:07:34.319    29 Apr 2022 15:14:46.927      432.60783758    
30 Apr 2022 04:36:13.486    30 Apr 2022 04:42:58.769      405.28307977    
30 Apr 2022 06:13:29.104    30 Apr 2022 06:20:26.927      417.82372288    
30 Apr 2022 12:50:49.161    30 Apr 2022 12:56:42.576      353.41460797    
30 Apr 2022 14:27:26.889    30 Apr 2022 14:35:14.977      468.08780821    
01 May 2022 03:57:02.184    01 May 2022 04:02:32.831      330.64693480    
01 May 2022 05:33:14.736    01 May 2022 05:40:46.908      452.17168144    
01 May 2022 12:11:28.239    01 May 2022 12:15:58.957      270.71747524    
01 May 2022 13:47:26.310    01 May 2022 13:55:31.652      485.34249201    
02 May 2022 03:18:23.973    02 May 2022 03:21:33.654      189.68118079    
02 May 2022 04:53:08.093    02 May 2022 05:01:00.641      472.54745071    
02 May 2022 11:32:36.092    02 May 2022 11:34:40.268      124.17581604    
02 May 2022 13:07:30.900    02 May 2022 13:15:38.360      487.46017723    
03 May 2022 04:13:08.796    03 May 2022 04:21:08.246      479.45051375    
03 May 2022 05:53:37.983    03 May 2022 05:56:23.781      165.79804112    
03 May 2022 12:27:39.837    03 May 2022 12:35:35.645      475.80821745    
03 May 2022 14:06:35.376    03 May 2022 14:10:56.344      260.96833938    
04 May 2022 03:33:17.042    04 May 2022 03:41:09.263      472.22112981    
04 May 2022 05:12:30.782    04 May 2022 05:17:18.236      287.45467229    
04 May 2022 11:47:52.880    04 May 2022 11:55:23.467      450.58737412    
04 May 2022 13:25:50.006    04 May 2022 13:31:58.369      368.36303857    
05 May 2022 02:53:33.693    05 May 2022 03:01:02.563      448.86935796    
05 May 2022 04:31:48.161    05 May 2022 04:37:50.311      362.14960604    
05 May 2022 11:08:10.398    05 May 2022 11:15:01.188      410.78975410    
05 May 2022 12:45:25.446    05 May 2022 12:52:35.619      430.17328279    
06 May 2022 02:14:00.750    06 May 2022 02:20:45.877      405.12646004    
06 May 2022 03:51:17.963    06 May 2022 03:58:11.971      414.00746793    
06 May 2022 10:28:33.763    06 May 2022 10:34:27.175      353.41160243    
06 May 2022 12:05:11.582    06 May 2022 12:12:57.930      466.34733849    
07 May 2022 01:34:43.032    07 May 2022 01:40:14.120      331.08746280    
07 May 2022 03:10:56.925    07 May 2022 03:18:26.253      449.32801318    
07 May 2022 09:49:06.994    07 May 2022 09:53:37.175      270.18129516    
07 May 2022 11:25:04.757    07 May 2022 11:33:08.683      483.92575633    
08 May 2022 00:55:58.237    08 May 2022 00:59:09.330      191.09309477    
08 May 2022 02:30:43.774    08 May 2022 02:38:34.180      470.40625865    
08 May 2022 09:10:09.801    08 May 2022 09:12:11.286      121.48554919    
08 May 2022 10:45:03.226    08 May 2022 10:53:09.341      486.11461397    
09 May 2022 01:50:38.095    09 May 2022 01:58:35.905      477.81063725    
09 May 2022 03:31:10.118    09 May 2022 03:33:47.859      157.74129356    
09 May 2022 10:05:06.141    09 May 2022 10:13:00.468      474.32659484    
09 May 2022 11:44:02.089    09 May 2022 11:48:19.608      257.51895217    
10 May 2022 01:10:40.073    10 May 2022 01:18:30.975      470.90241713    
10 May 2022 02:49:54.567    10 May 2022 02:54:38.334      283.76718129    
10 May 2022 09:25:13.260    10 May 2022 09:32:42.026      448.76599212    
10 May 2022 11:03:09.946    10 May 2022 11:09:16.288      366.34125343    
11 May 2022 00:30:50.576    11 May 2022 00:38:18.254      447.67729605    
11 May 2022 02:09:05.101    11 May 2022 02:15:04.983      359.88215769    
11 May 2022 08:45:24.972    11 May 2022 08:52:13.354      408.38219386    
11 May 2022 10:22:39.136    11 May 2022 10:29:47.675      428.53910462    
11 May 2022 23:51:11.640    11 May 2022 23:57:55.439      403.79888004    
12 May 2022 01:28:28.413    12 May 2022 01:35:20.928      412.51507478    
12 May 2022 08:05:42.722    12 May 2022 08:11:32.750      350.02835565    
12 May 2022 09:42:19.214    12 May 2022 09:50:03.942      464.72768165    
12 May 2022 23:11:48.202    12 May 2022 23:17:17.335      329.13279219    
13 May 2022 00:48:01.076    13 May 2022 00:55:29.372      448.29550143    
13 May 2022 07:26:10.802    13 May 2022 07:30:35.697      264.89493119    
13 May 2022 09:02:06.452    13 May 2022 09:10:08.546      482.09478973    
13 May 2022 22:32:58.748    13 May 2022 22:36:05.197      186.44888559    
14 May 2022 00:07:41.776    14 May 2022 00:15:31.388      469.61237591    
14 May 2022 06:47:12.049    14 May 2022 06:48:59.175      107.12595315    
14 May 2022 08:21:59.085    14 May 2022 08:30:02.977      483.89137712    
14 May 2022 23:27:30.090    14 May 2022 23:35:27.147      477.05692163    
15 May 2022 01:08:00.773    15 May 2022 01:10:38.991      158.21779815    
15 May 2022 07:41:56.271    15 May 2022 07:49:47.803      471.53202170    
15 May 2022 09:20:50.149    15 May 2022 09:25:08.376      258.22715561    
15 May 2022 22:47:26.217    15 May 2022 22:55:16.190      469.97277774    
16 May 2022 00:26:39.036    16 May 2022 00:31:23.719      284.68375214    
16 May 2022 07:01:57.789    16 May 2022 07:09:22.975      445.18593459    
16 May 2022 08:39:52.446    16 May 2022 08:45:58.763      366.31724336    
16 May 2022 22:07:31.063    16 May 2022 22:14:57.354      446.29057304    
16 May 2022 23:45:43.579    16 May 2022 23:51:44.550      360.97091442    
17 May 2022 06:22:04.083    17 May 2022 06:28:47.788      403.70540275    
17 May 2022 07:59:16.049    17 May 2022 08:06:23.954      427.90473652    
17 May 2022 21:27:46.752    17 May 2022 21:34:28.259      401.50736285    
17 May 2022 23:05:01.045    17 May 2022 23:11:54.665      413.62047074    
18 May 2022 05:42:16.735    18 May 2022 05:48:00.415      343.68063089    
18 May 2022 07:18:50.597    18 May 2022 07:26:34.049      463.45207124    
18 May 2022 20:48:18.485    18 May 2022 20:53:43.451      324.96553205    
18 May 2022 22:24:28.004    18 May 2022 22:31:57.279      449.27557243    
19 May 2022 05:02:40.532    19 May 2022 05:06:55.852      255.31995012    
19 May 2022 06:38:32.383    19 May 2022 06:46:32.489      480.10593384    
19 May 2022 20:09:26.660    19 May 2022 20:12:22.283      175.62285739    
19 May 2022 21:44:03.150    19 May 2022 21:51:53.464      470.31361180    
20 May 2022 04:23:46.019    20 May 2022 04:25:03.381      77.362615359    
20 May 2022 05:58:19.663    20 May 2022 06:06:20.750      481.08619563    
20 May 2022 21:03:46.079    20 May 2022 21:11:43.373      477.29440777    
20 May 2022 22:44:11.202    20 May 2022 22:46:58.704      167.50215705    
21 May 2022 05:18:11.617    21 May 2022 05:25:59.382      467.76558951    
21 May 2022 06:57:01.090    21 May 2022 07:01:24.278      263.18721597    
21 May 2022 20:23:37.020    21 May 2022 20:31:26.521      469.50098671    
21 May 2022 22:02:45.765    21 May 2022 22:07:36.056      290.29166813    
22 May 2022 04:38:08.059    22 May 2022 04:45:28.300      440.24062377    
22 May 2022 06:15:59.231    22 May 2022 06:22:07.687      368.45611510    
22 May 2022 19:43:36.939    22 May 2022 19:51:01.683      444.74424203    
22 May 2022 21:21:45.429    22 May 2022 21:27:50.861      365.43215305    
23 May 2022 03:58:09.509    23 May 2022 04:04:46.722      397.21330045    
23 May 2022 05:35:18.102    23 May 2022 05:42:26.584      428.48187236    
23 May 2022 19:03:48.093    23 May 2022 19:10:26.340      398.24700976    
23 May 2022 20:40:57.919    23 May 2022 20:47:55.212      417.29225919    
24 May 2022 03:18:17.740    24 May 2022 03:23:52.627      334.88653474    
24 May 2022 04:54:47.815    24 May 2022 05:02:30.592      462.77654056    
24 May 2022 18:24:16.114    24 May 2022 18:29:34.604      318.48947208    
24 May 2022 20:00:19.962    24 May 2022 20:07:52.161      452.19895102    
25 May 2022 02:38:38.294    25 May 2022 02:42:40.251      241.95733024    
25 May 2022 04:14:24.774    25 May 2022 04:22:23.034      478.26013378    
25 May 2022 17:45:24.954    25 May 2022 17:48:02.261      157.30736945    
25 May 2022 19:19:50.306    25 May 2022 19:27:42.714      472.40817617    
26 May 2022 03:34:07.282    26 May 2022 03:42:05.328      478.04594734    
26 May 2022 18:39:28.583    26 May 2022 18:47:26.975      478.39150691    
26 May 2022 20:19:44.683    26 May 2022 20:22:48.703      184.02053677    
27 May 2022 02:53:54.553    27 May 2022 03:01:37.973      463.42058661    
27 May 2022 04:32:37.604    27 May 2022 04:37:09.790      272.18659194    
27 May 2022 17:59:15.071    27 May 2022 18:07:04.396      469.32477438    
27 May 2022 19:38:17.542    27 May 2022 19:43:17.630      300.08767558    
28 May 2022 02:13:46.452    28 May 2022 02:21:00.821      434.36875641    
28 May 2022 03:51:32.866    28 May 2022 03:57:45.711      372.84502052    
28 May 2022 17:19:10.817    28 May 2022 17:26:33.653      442.83653669    
28 May 2022 18:57:13.376    28 May 2022 19:03:26.261      372.88493242    
29 May 2022 01:33:43.593    29 May 2022 01:40:12.978      389.38524462    
29 May 2022 03:10:47.785    29 May 2022 03:17:58.245      430.46021011    
29 May 2022 16:39:18.273    29 May 2022 16:45:52.017      393.74441744    
29 May 2022 18:16:21.697    29 May 2022 18:23:24.879      423.18182221    
30 May 2022 00:53:48.005    30 May 2022 00:59:12.149      324.14405064    
30 May 2022 02:30:13.258    30 May 2022 02:37:56.212      462.95330672    
30 May 2022 15:59:43.716    30 May 2022 16:04:52.932      309.21563320    
30 May 2022 17:35:39.513    30 May 2022 17:43:16.236      456.72330349    
31 May 2022 00:14:06.331    31 May 2022 00:17:51.452      225.12121720    
31 May 2022 01:49:45.874    31 May 2022 01:57:42.727      476.85297924    
31 May 2022 15:20:57.912    31 May 2022 15:23:05.352      127.44040744    
31 May 2022 16:55:05.671    31 May 2022 17:03:01.217      475.54610894    
01 Jun 2022 01:09:24.014    01 Jun 2022 01:17:19.110      475.09585898    
01 Jun 2022 16:14:39.866    01 Jun 2022 16:22:39.843      479.97750433    
01 Jun 2022 17:54:44.477    01 Jun 2022 17:58:09.883      205.40517045    
02 Jun 2022 00:29:06.946    02 Jun 2022 00:36:45.786      458.83988607    
02 Jun 2022 02:07:41.874    02 Jun 2022 02:12:26.798      284.92441104    
02 Jun 2022 15:34:22.444    02 Jun 2022 15:42:11.479      469.03459792    
02 Jun 2022 17:13:16.675    02 Jun 2022 17:18:29.862      313.18661819    
02 Jun 2022 23:48:54.601    02 Jun 2022 23:56:02.519      427.91846828    
03 Jun 2022 01:26:35.114    03 Jun 2022 01:32:54.677      379.56315604    
03 Jun 2022 14:54:14.574    03 Jun 2022 15:01:34.661      440.08696745    
03 Jun 2022 16:32:09.364    03 Jun 2022 16:38:32.055      382.69043646    
03 Jun 2022 23:08:47.718    03 Jun 2022 23:15:08.274      380.55648449    
04 Jun 2022 00:45:46.556    04 Jun 2022 00:53:00.573      434.01663539    
04 Jun 2022 14:14:18.990    04 Jun 2022 14:20:46.362      387.37165699    
04 Jun 2022 15:51:14.027    04 Jun 2022 15:58:24.759      430.73206698    
04 Jun 2022 22:28:48.672    04 Jun 2022 22:34:00.396      311.72370273    
05 Jun 2022 00:05:08.095    05 Jun 2022 00:12:52.292      464.19708832    
05 Jun 2022 13:34:42.961    05 Jun 2022 13:39:39.021      296.06045033    
05 Jun 2022 15:10:28.032    05 Jun 2022 15:18:10.349      462.31747074    
05 Jun 2022 21:49:05.751    05 Jun 2022 21:52:30.347      204.59552418    
05 Jun 2022 23:24:36.571    05 Jun 2022 23:32:32.682      476.11041135    
06 Jun 2022 12:56:14.740    06 Jun 2022 12:57:24.094      69.353759685    
06 Jun 2022 14:29:50.365    06 Jun 2022 14:37:49.557      479.19261558    
06 Jun 2022 22:44:10.479    06 Jun 2022 22:52:02.935      472.45556263    
07 Jun 2022 00:24:17.292    07 Jun 2022 00:25:58.392      101.10074318    
07 Jun 2022 13:49:20.813    07 Jun 2022 13:57:22.304      481.49075364    
07 Jun 2022 15:29:12.218    07 Jun 2022 15:33:01.768      229.55066693    
07 Jun 2022 22:03:49.168    07 Jun 2022 22:11:23.389      454.22126987    
07 Jun 2022 23:42:14.545    07 Jun 2022 23:47:15.608      301.06370630    
08 Jun 2022 13:08:59.828    08 Jun 2022 13:16:47.843      468.01422777    
08 Jun 2022 14:47:44.024    08 Jun 2022 14:53:12.598      328.57396086    
08 Jun 2022 21:23:32.662    08 Jun 2022 21:30:33.709      421.04712466    
08 Jun 2022 23:01:06.211    08 Jun 2022 23:07:34.839      388.62812240    
09 Jun 2022 12:28:48.755    09 Jun 2022 12:36:04.531      435.77587511    
09 Jun 2022 14:06:33.938    09 Jun 2022 14:13:08.020      394.08124108    
09 Jun 2022 20:43:21.872    09 Jun 2022 20:49:32.684      370.81139081    
09 Jun 2022 22:20:14.417    09 Jun 2022 22:27:33.657      439.24012502    
10 Jun 2022 11:48:50.744    10 Jun 2022 11:55:08.924      378.18041170    
10 Jun 2022 13:25:35.251    10 Jun 2022 13:32:54.514      439.26385031    
10 Jun 2022 20:03:19.649    10 Jun 2022 20:08:17.186      297.53691838    
10 Jun 2022 21:39:32.157    10 Jun 2022 21:47:18.762      466.60488996    
11 Jun 2022 11:09:14.633    11 Jun 2022 11:13:51.892      277.25956659    
11 Jun 2022 12:44:45.725    11 Jun 2022 12:52:34.059      468.33333249    
11 Jun 2022 19:23:36.883    11 Jun 2022 19:26:36.082      179.19970978    
11 Jun 2022 20:58:56.584    11 Jun 2022 21:06:52.694      476.11014072    
12 Jun 2022 12:04:04.519    12 Jun 2022 12:12:07.218      482.69929133    
12 Jun 2022 13:45:28.141    12 Jun 2022 13:46:33.343      65.201237448    
12 Jun 2022 20:18:26.336    12 Jun 2022 20:26:16.502      470.16602566    
12 Jun 2022 21:58:04.200    12 Jun 2022 22:00:42.797      158.59692756    
13 Jun 2022 11:23:31.539    13 Jun 2022 11:31:33.796      482.25638486    
13 Jun 2022 13:03:08.481    13 Jun 2022 13:07:23.289      254.80866838    
13 Jun 2022 19:38:00.868    13 Jun 2022 19:45:30.422      449.55352431    
13 Jun 2022 21:16:15.530    13 Jun 2022 21:21:35.639      320.10890449    
14 Jun 2022 10:43:07.378    14 Jun 2022 10:50:52.907      465.52823398    
14 Jun 2022 12:21:39.879    14 Jun 2022 12:27:25.091      345.21234973    
14 Jun 2022 18:57:40.328    14 Jun 2022 19:04:33.999      413.67104191    
14 Jun 2022 20:35:05.920    14 Jun 2022 20:41:45.785      399.86545112    
15 Jun 2022 10:02:53.628    15 Jun 2022 10:10:02.669      429.04113651    
15 Jun 2022 11:40:27.336    15 Jun 2022 11:47:13.569      406.23243906    
15 Jun 2022 18:17:25.854    15 Jun 2022 18:23:25.805      359.95041698    
15 Jun 2022 19:54:11.146    15 Jun 2022 20:01:37.165      446.01971508    
16 Jun 2022 09:22:54.047    16 Jun 2022 09:28:59.036      364.98931887    
16 Jun 2022 10:59:25.654    16 Jun 2022 11:06:53.694      448.04058052    
16 Jun 2022 17:37:20.958    16 Jun 2022 17:42:02.061      281.10368047    
16 Jun 2022 19:13:25.310    16 Jun 2022 19:21:15.375      470.06569302    
17 Jun 2022 08:43:20.106    17 Jun 2022 08:47:30.253      250.14736515    
17 Jun 2022 10:18:32.984    17 Jun 2022 10:26:27.057      474.07285577    
17 Jun 2022 16:57:41.116    17 Jun 2022 17:00:07.065      145.94867465    
17 Jun 2022 18:32:45.904    17 Jun 2022 18:40:42.620      476.71595399    
18 Jun 2022 09:37:48.665    18 Jun 2022 09:45:54.044      485.37894198    
18 Jun 2022 11:18:35.394    18 Jun 2022 11:20:51.801      136.40704465    
18 Jun 2022 17:52:11.735    18 Jun 2022 17:59:59.786      468.05070948    
18 Jun 2022 19:31:25.689    18 Jun 2022 19:34:52.494      206.80486833    
19 Jun 2022 08:57:12.745    19 Jun 2022 09:05:14.319      481.57370619    
19 Jun 2022 10:36:34.260    19 Jun 2022 10:41:14.158      279.89737289    
19 Jun 2022 17:11:42.383    19 Jun 2022 17:19:06.987      444.60389282    
19 Jun 2022 18:49:45.479    19 Jun 2022 18:55:26.728      341.24897006    
20 Jun 2022 08:16:45.997    20 Jun 2022 08:24:26.822      460.82520961    
20 Jun 2022 09:55:05.276    20 Jun 2022 10:01:07.372      362.09593849    
20 Jun 2022 16:31:18.147    20 Jun 2022 16:38:03.620      405.47336082    
20 Jun 2022 18:08:34.896    20 Jun 2022 18:15:27.683      412.78681378    
21 Jun 2022 07:36:30.344    21 Jun 2022 07:43:29.337      418.99285755    
21 Jun 2022 09:13:50.693    21 Jun 2022 09:20:49.005      418.31250738    
21 Jun 2022 15:51:00.464    21 Jun 2022 15:56:47.965      347.50104054    
21 Jun 2022 17:27:37.520    21 Jun 2022 17:35:11.484      453.96405535    
22 Jun 2022 06:56:30.452    22 Jun 2022 07:02:16.912      346.45942573    
22 Jun 2022 08:32:46.501    22 Jun 2022 08:40:22.829      456.32750373    
22 Jun 2022 15:10:53.801    22 Jun 2022 15:15:15.291      261.49017572    
22 Jun 2022 16:46:48.483    22 Jun 2022 16:54:42.696      474.21241477    
23 Jun 2022 06:17:02.687    23 Jun 2022 06:20:32.893      210.20564827    
23 Jun 2022 07:51:51.209    23 Jun 2022 07:59:50.069      478.86060106    
23 Jun 2022 14:31:23.925    23 Jun 2022 14:32:59.614      95.688397321    
23 Jun 2022 16:06:05.622    23 Jun 2022 16:14:03.172      477.55074565    
24 Jun 2022 07:11:04.333    24 Jun 2022 07:19:10.923      486.58920592    
24 Jun 2022 08:51:24.771    24 Jun 2022 08:54:29.033      184.26134717    
24 Jun 2022 15:25:27.918    24 Jun 2022 15:33:13.617      465.69854053    
24 Jun 2022 17:04:20.560    24 Jun 2022 17:08:30.765      250.20462507    
25 Jun 2022 06:30:26.083    25 Jun 2022 06:38:24.886      478.80299570    
25 Jun 2022 08:09:31.385    25 Jun 2022 08:14:35.239      303.85432276    
25 Jun 2022 14:44:55.094    25 Jun 2022 14:52:13.995      438.90128281    
25 Jun 2022 16:22:46.055    25 Jun 2022 16:28:49.505      363.45037819    
26 Jun 2022 05:49:57.451    26 Jun 2022 05:57:30.664      453.21353042    
26 Jun 2022 07:28:02.081    26 Jun 2022 07:34:20.454      378.37229327    


Number of events : 242


Observer: Cape_Town
Start Time (UTC)            Stop Time (UTC)               Duration (s)         
27 Apr 2022 19:50:19.626    27 Apr 2022 19:55:26.068      306.44229938    
27 Apr 2022 21:25:56.123    27 Apr 2022 21:34:03.302      487.17945839    
27 Apr 2022 23:05:37.576    27 Apr 2022 23:10:31.553      293.97719273    
28 Apr 2022 02:23:52.427    28 Apr 2022 02:28:05.470      253.04281879    
28 Apr 2022 04:00:12.579    28 Apr 2022 04:08:06.995      474.41610759    
28 Apr 2022 05:38:25.406    28 Apr 2022 05:44:18.435      353.02909627    
28 Apr 2022 19:11:54.777    28 Apr 2022 19:14:23.719      148.94177788    
28 Apr 2022 20:46:01.660    28 Apr 2022 20:54:13.736      492.07562003    
28 Apr 2022 22:25:10.193    28 Apr 2022 22:30:54.757      344.56358068    
29 Apr 2022 01:44:20.982    29 Apr 2022 01:47:27.880      186.89880426    
29 Apr 2022 03:20:26.669    29 Apr 2022 03:28:03.228      456.55931480    
29 Apr 2022 04:58:09.031    29 Apr 2022 05:05:03.084      414.05224709    
29 Apr 2022 20:06:12.552    29 Apr 2022 20:14:19.866      487.31367550    
29 Apr 2022 21:44:47.047    29 Apr 2022 21:51:14.821      387.77397042    
30 Apr 2022 01:04:59.598    30 Apr 2022 01:06:35.619      96.021265537    
30 Apr 2022 02:40:41.790    30 Apr 2022 02:47:52.994      431.20416070    
30 Apr 2022 04:18:01.639    30 Apr 2022 04:25:34.076      452.43685175    
30 Apr 2022 19:26:29.571    30 Apr 2022 19:34:20.807      471.23687204    
30 Apr 2022 21:04:28.032    30 Apr 2022 21:11:31.997      423.96447142    
30 Apr 2022 22:46:15.020    30 Apr 2022 22:46:52.644      37.624112272    
01 May 2022 02:00:57.748    01 May 2022 02:07:36.460      398.71176565    
01 May 2022 03:37:59.740    01 May 2022 03:45:54.745      475.00490821    
01 May 2022 18:46:53.991    01 May 2022 18:54:15.154      441.16300014    
01 May 2022 20:24:13.215    01 May 2022 20:31:46.292      453.07639326    
01 May 2022 22:05:03.340    01 May 2022 22:07:45.555      162.21478977    
02 May 2022 01:21:14.474    02 May 2022 01:27:13.717      359.24257626    
02 May 2022 02:58:01.531    02 May 2022 03:06:06.739      485.20858671    
02 May 2022 18:07:28.170    02 May 2022 18:14:00.408      392.23872756    
02 May 2022 19:44:02.756    02 May 2022 19:51:57.565      474.80931702    
02 May 2022 21:24:17.663    02 May 2022 21:28:12.713      235.05052960    
03 May 2022 00:41:32.075    03 May 2022 00:46:44.741      312.66589046    
03 May 2022 02:18:05.925    03 May 2022 02:26:10.997      485.07214923    
03 May 2022 03:57:09.365    03 May 2022 04:01:13.085      243.71954628    
03 May 2022 17:28:17.437    03 May 2022 17:33:31.096      313.65957598    
03 May 2022 19:03:56.890    03 May 2022 19:12:05.547      488.65752696    
03 May 2022 20:43:38.968    03 May 2022 20:48:33.527      294.55949130    
04 May 2022 00:01:50.997    04 May 2022 00:06:09.242      258.24491131    
04 May 2022 01:38:12.209    04 May 2022 01:46:08.096      475.88728027    
04 May 2022 03:16:26.577    04 May 2022 03:22:16.441      349.86436194    
04 May 2022 16:49:42.633    04 May 2022 16:52:26.229      163.59561643    
04 May 2022 18:23:55.955    04 May 2022 18:32:09.829      493.87389659    
04 May 2022 20:03:05.091    04 May 2022 20:08:50.466      345.37539325    
04 May 2022 23:22:12.601    04 May 2022 23:25:26.100      193.49848211    
05 May 2022 00:58:19.895    05 May 2022 01:05:58.415      458.52041580    
05 May 2022 02:36:03.173    05 May 2022 02:42:55.899      412.72670516    
05 May 2022 17:44:00.449    05 May 2022 17:52:09.814      489.36446558    
05 May 2022 19:22:35.489    05 May 2022 19:29:04.292      388.80319688    
05 May 2022 22:42:42.553    05 May 2022 22:44:29.970      107.41758869    
06 May 2022 00:18:28.646    06 May 2022 00:25:42.210      433.56383408    
06 May 2022 01:55:49.107    06 May 2022 02:03:21.338      452.23111018    
06 May 2022 17:04:11.138    06 May 2022 17:12:04.610      473.47163820    
06 May 2022 18:42:10.069    06 May 2022 18:49:15.245      425.17549507    
06 May 2022 20:23:51.133    06 May 2022 20:24:41.752      50.618870545    
06 May 2022 23:38:38.250    06 May 2022 23:45:19.656      401.40619318    
07 May 2022 01:15:40.707    07 May 2022 01:23:36.261      475.55481376    
07 May 2022 16:24:29.295    07 May 2022 16:31:52.808      443.51294213    
07 May 2022 18:01:48.906    07 May 2022 18:09:23.323      454.41673816    
07 May 2022 19:42:37.800    07 May 2022 19:45:23.650      165.85003490    
07 May 2022 22:58:48.617    07 May 2022 23:04:50.858      362.24117257    
08 May 2022 00:35:36.097    08 May 2022 00:43:42.383      486.28629881    
08 May 2022 15:44:57.272    08 May 2022 15:51:31.911      394.63914642    
08 May 2022 17:21:32.166    08 May 2022 17:29:28.379      476.21273585    
08 May 2022 19:01:46.267    08 May 2022 19:05:44.039      237.77255391    
08 May 2022 22:18:59.828    08 May 2022 22:24:15.818      315.98981662    
08 May 2022 23:55:34.157    09 May 2022 00:03:40.673      486.51619566    
09 May 2022 01:34:38.060    09 May 2022 01:38:41.385      243.32491328    
09 May 2022 15:05:40.379    09 May 2022 15:10:56.459      316.07987912    
09 May 2022 16:41:20.093    09 May 2022 16:49:30.138      490.04464068    
09 May 2022 18:21:01.458    09 May 2022 18:25:58.391      296.93294861    
09 May 2022 21:39:12.281    09 May 2022 21:43:34.300      262.01870490    
09 May 2022 23:15:34.153    09 May 2022 23:23:31.727      477.57400072    
10 May 2022 00:53:48.542    10 May 2022 00:59:39.247      350.70569463    
10 May 2022 14:26:59.197    10 May 2022 14:29:45.724      166.52721735    
10 May 2022 16:01:13.032    10 May 2022 16:09:28.183      495.15030286    
10 May 2022 17:40:21.419    10 May 2022 17:46:08.979      347.55968568    
10 May 2022 20:59:27.195    10 May 2022 21:02:45.329      198.13321765    
10 May 2022 22:35:35.585    10 May 2022 22:43:15.936      460.35101182    
11 May 2022 00:13:18.735    11 May 2022 00:20:12.868      414.13342876    
11 May 2022 15:21:11.493    11 May 2022 15:29:21.908      490.41514982    
11 May 2022 16:59:45.673    11 May 2022 17:06:16.510      390.83705071    
11 May 2022 20:19:49.434    11 May 2022 20:21:44.382      114.94819529    
11 May 2022 21:55:38.110    11 May 2022 22:02:53.568      435.45885875    
11 May 2022 23:32:58.392    11 May 2022 23:40:32.331      453.93873551    
12 May 2022 14:41:16.262    12 May 2022 14:49:10.411      474.14842051    
12 May 2022 16:19:14.161    12 May 2022 16:26:21.203      427.04233864    
12 May 2022 18:00:48.001    12 May 2022 18:01:54.162      66.160788294    
12 May 2022 21:15:41.509    12 May 2022 21:22:24.814      403.30466533    
12 May 2022 22:52:43.794    12 May 2022 23:00:41.195      477.40143734    
13 May 2022 14:01:28.648    13 May 2022 14:08:52.253      443.60571094    
13 May 2022 15:38:46.979    13 May 2022 15:46:23.046      456.06735314    
13 May 2022 17:19:33.378    13 May 2022 17:22:24.936      171.55843566    
13 May 2022 20:35:45.692    13 May 2022 20:41:49.796      364.10392430    
13 May 2022 22:12:33.047    13 May 2022 22:20:41.199      488.15228145    
14 May 2022 13:21:51.075    14 May 2022 13:28:24.873      393.79842666    
14 May 2022 14:58:24.312    14 May 2022 15:06:21.885      477.57383853    
14 May 2022 16:38:36.426    14 May 2022 16:42:38.435      242.00954059    
14 May 2022 19:55:50.731    14 May 2022 20:01:08.540      317.80912568    
14 May 2022 21:32:25.026    14 May 2022 21:40:33.329      488.30366899    
14 May 2022 23:11:26.604    14 May 2022 23:15:36.143      249.53894239    
15 May 2022 12:42:29.077    15 May 2022 12:47:42.600      313.52290087    
15 May 2022 14:18:06.420    15 May 2022 14:26:17.441      491.02045766    
15 May 2022 15:57:45.884    15 May 2022 16:02:46.340      300.45640944    
15 May 2022 19:15:57.005    15 May 2022 19:20:20.848      263.84282999    
15 May 2022 20:52:18.997    15 May 2022 21:00:18.195      479.19818850    
15 May 2022 22:30:31.886    15 May 2022 22:36:27.135      355.24916255    
16 May 2022 12:03:44.990    16 May 2022 12:06:22.961      157.97113194    
16 May 2022 13:37:53.670    16 May 2022 13:46:09.288      495.61834781    
16 May 2022 15:17:00.076    16 May 2022 15:22:50.661      350.58481072    
16 May 2022 18:36:05.681    16 May 2022 18:39:25.827      200.14607857    
16 May 2022 20:12:14.463    16 May 2022 20:19:56.199      461.73633862    
16 May 2022 21:49:56.431    16 May 2022 21:56:54.386      417.95439884    
17 May 2022 12:57:46.595    17 May 2022 13:05:56.809      490.21437076    
17 May 2022 14:36:18.614    17 May 2022 14:42:52.035      393.42051179    
17 May 2022 17:56:21.308    17 May 2022 17:58:19.292      117.98333586    
17 May 2022 19:32:11.085    17 May 2022 19:39:27.622      436.53743367    
17 May 2022 21:09:30.378    17 May 2022 21:17:07.605      457.22728260    
18 May 2022 12:17:46.018    18 May 2022 12:25:39.072      473.05315796    
18 May 2022 13:55:41.480    18 May 2022 14:02:50.651      429.17112097    
18 May 2022 15:37:08.377    18 May 2022 15:38:29.067      80.690255540    
18 May 2022 18:52:08.650    18 May 2022 18:58:52.666      404.01605662    
18 May 2022 20:29:10.087    18 May 2022 20:37:10.284      480.19744190    
19 May 2022 11:37:53.314    19 May 2022 11:45:14.580      441.26567384    
19 May 2022 13:15:08.795    19 May 2022 13:22:46.483      457.68829335    
19 May 2022 14:55:51.856    19 May 2022 14:58:50.022      178.16630190    
19 May 2022 18:12:07.069    19 May 2022 18:18:11.464      364.39526500    
19 May 2022 19:48:53.695    19 May 2022 19:57:04.140      490.44459796    
20 May 2022 10:58:11.057    20 May 2022 11:04:40.630      389.57293754    
20 May 2022 12:34:40.761    20 May 2022 12:42:39.364      478.60369929    
20 May 2022 14:14:49.962    20 May 2022 14:18:56.952      246.99018805    
20 May 2022 17:32:06.423    20 May 2022 17:37:24.057      317.63393300    
20 May 2022 19:08:40.092    20 May 2022 19:16:50.151      490.05893256    
20 May 2022 20:47:36.963    20 May 2022 20:51:58.113      261.15063006    
21 May 2022 10:18:45.258    21 May 2022 10:23:51.076      305.81843024    
21 May 2022 11:54:17.655    21 May 2022 12:02:29.001      491.34628130    
21 May 2022 13:33:54.217    21 May 2022 13:38:58.763      304.54592470    
21 May 2022 16:52:07.099    21 May 2022 16:56:30.252      263.15347608    
21 May 2022 18:28:28.554    21 May 2022 18:36:28.926      480.37187580    
21 May 2022 20:06:38.573    21 May 2022 20:12:41.346      362.77276670    
22 May 2022 09:40:02.878    22 May 2022 09:42:18.820      135.94204924    
22 May 2022 11:13:59.862    22 May 2022 11:22:14.951      495.08977840    
22 May 2022 12:53:03.214    22 May 2022 12:58:57.201      353.98659931    
22 May 2022 16:12:10.291    22 May 2022 16:15:29.147      198.85590754    
22 May 2022 17:48:18.588    22 May 2022 17:56:00.866      462.27765314    
22 May 2022 19:25:58.399    22 May 2022 19:33:01.992      423.59338392    
23 May 2022 10:33:47.940    23 May 2022 10:41:56.565      488.62483345    
23 May 2022 12:12:16.643    23 May 2022 12:18:52.822      396.17925701    
23 May 2022 15:32:20.733    23 May 2022 15:34:16.387      115.65347806    
23 May 2022 17:08:09.861    23 May 2022 17:15:26.252      436.39113719    
23 May 2022 18:45:27.392    23 May 2022 18:53:08.949      461.55790907    
24 May 2022 09:53:42.759    24 May 2022 10:01:32.858      470.09927606    
24 May 2022 11:31:34.515    24 May 2022 11:38:45.777      431.26198357    
24 May 2022 13:12:55.139    24 May 2022 13:14:28.290      93.150934658    
24 May 2022 16:28:02.164    24 May 2022 16:34:45.285      403.12162122    
24 May 2022 18:05:02.088    24 May 2022 18:13:05.527      483.43854375    
25 May 2022 09:13:45.783    25 May 2022 09:21:02.236      436.45259519    
25 May 2022 10:50:56.969    25 May 2022 10:58:36.015      459.04598533    
25 May 2022 12:31:36.167    25 May 2022 12:34:41.006      184.83971263    
25 May 2022 15:47:55.414    25 May 2022 15:53:58.096      362.68158270    
25 May 2022 17:24:40.690    25 May 2022 17:32:53.374      492.68420938    
26 May 2022 08:33:59.813    26 May 2022 08:40:21.757      381.94474988    
26 May 2022 10:10:24.215    26 May 2022 10:18:23.346      479.13087878    
26 May 2022 11:50:29.788    26 May 2022 11:54:41.950      252.16143496    
26 May 2022 15:07:49.708    26 May 2022 15:13:04.711      315.00334572    
26 May 2022 16:44:22.112    26 May 2022 16:52:33.436      491.32361653    
26 May 2022 18:23:12.531    26 May 2022 18:27:48.889      276.35858482    
27 May 2022 07:54:31.655    27 May 2022 07:59:24.466      292.81107428    
27 May 2022 09:29:56.538    27 May 2022 09:38:07.449      490.91088868    
27 May 2022 11:09:29.371    27 May 2022 11:14:38.169      308.79873179    
27 May 2022 14:27:45.472    27 May 2022 14:32:04.905      259.43275094    
27 May 2022 16:04:05.644    27 May 2022 16:12:06.298      480.65401412    
27 May 2022 17:42:11.666    27 May 2022 17:48:23.935      372.26930321    
28 May 2022 07:15:59.591    28 May 2022 07:17:31.932      92.341796961    
28 May 2022 08:49:34.339    28 May 2022 08:57:47.851      493.51226828    
28 May 2022 10:28:33.715    28 May 2022 10:34:31.183      357.46748687    
28 May 2022 13:47:44.036    28 May 2022 13:50:57.641      193.60488273    
28 May 2022 15:23:50.799    28 May 2022 15:31:32.347      461.54743179    
28 May 2022 17:01:27.600    28 May 2022 17:08:37.883      430.28277853    
29 May 2022 08:09:18.203    29 May 2022 08:17:23.853      485.65047635    
29 May 2022 09:47:42.568    29 May 2022 09:54:21.470      398.90161041    
29 May 2022 13:07:51.016    29 May 2022 13:09:37.685      106.66850995    
29 May 2022 14:43:37.249    29 May 2022 14:50:51.850      434.60090820    
29 May 2022 16:20:52.305    29 May 2022 16:28:38.591      466.28576954    
30 May 2022 07:29:09.056    30 May 2022 07:36:54.396      465.33997119    
30 May 2022 09:06:55.960    30 May 2022 09:14:09.139      433.17949040    
30 May 2022 10:48:10.954    30 May 2022 10:49:54.432      103.47800755    
30 May 2022 14:03:24.789    30 May 2022 14:10:04.993      400.20389571    
30 May 2022 15:40:22.557    30 May 2022 15:48:29.115      486.55772915    
31 May 2022 06:49:08.488    31 May 2022 06:56:17.738      429.24994805    
31 May 2022 08:26:14.033    31 May 2022 08:33:54.108      460.07481638    
31 May 2022 10:06:49.007    31 May 2022 10:10:00.213      191.20584279    
31 May 2022 13:23:13.353    31 May 2022 13:29:11.890      358.53721522    
31 May 2022 14:59:56.642    31 May 2022 15:08:11.001      494.35918458    
31 May 2022 16:40:12.711    31 May 2022 16:41:45.322      92.610817077    
01 Jun 2022 06:09:19.626    01 Jun 2022 06:15:30.592      370.96565439    
01 Jun 2022 07:45:37.004    01 Jun 2022 07:53:36.157      479.15344831    
01 Jun 2022 09:25:38.354    01 Jun 2022 09:29:55.665      257.31147586    
01 Jun 2022 12:43:03.066    01 Jun 2022 12:48:12.533      309.46682846    
01 Jun 2022 14:19:33.514    01 Jun 2022 14:27:45.141      491.62751343    
01 Jun 2022 15:58:16.306    01 Jun 2022 16:03:09.767      293.46100538    
02 Jun 2022 05:29:50.545    02 Jun 2022 05:34:24.713      274.16813263    
02 Jun 2022 07:05:05.167    02 Jun 2022 07:13:14.935      489.76869449    
02 Jun 2022 08:44:33.531    02 Jun 2022 08:49:46.646      313.11509090    
02 Jun 2022 12:02:54.441    02 Jun 2022 12:07:06.608      252.16657851    
02 Jun 2022 13:39:12.481    02 Jun 2022 13:47:12.089      479.60772001    
02 Jun 2022 15:17:13.601    02 Jun 2022 15:23:36.367      382.76591477    
03 Jun 2022 06:24:38.939    03 Jun 2022 06:32:49.926      490.98723923    
03 Jun 2022 08:03:33.487    03 Jun 2022 08:09:34.501      361.01393967    
03 Jun 2022 11:22:49.109    03 Jun 2022 11:25:52.783      183.67453935    
03 Jun 2022 12:58:53.072    03 Jun 2022 13:06:32.208      459.13659412    
03 Jun 2022 14:36:26.120    03 Jun 2022 14:43:43.420      437.29943385    
04 Jun 2022 05:44:18.946    04 Jun 2022 05:52:20.373      481.42726009    
04 Jun 2022 07:22:38.005    04 Jun 2022 07:29:19.649      401.64337285    
04 Jun 2022 10:42:54.979    04 Jun 2022 10:44:23.539      88.559549383    
04 Jun 2022 12:18:34.967    04 Jun 2022 12:25:45.748      430.78131013    
04 Jun 2022 13:55:46.893    04 Jun 2022 14:03:37.713      470.82009197    
05 Jun 2022 05:04:06.194    05 Jun 2022 05:11:45.121      458.92683459    
05 Jun 2022 06:41:47.128    05 Jun 2022 06:49:02.163      435.03575327    
05 Jun 2022 08:22:56.782    05 Jun 2022 08:24:49.265      112.48295550    
05 Jun 2022 11:38:17.981    05 Jun 2022 11:44:52.878      394.89652124    
05 Jun 2022 13:15:12.968    05 Jun 2022 13:23:22.018      489.05039347    
06 Jun 2022 04:24:02.450    06 Jun 2022 04:31:02.238      419.78784419    
06 Jun 2022 06:01:01.005    06 Jun 2022 06:08:41.937      460.93217097    
06 Jun 2022 07:41:31.340    06 Jun 2022 07:44:48.874      197.53342175    
06 Jun 2022 10:58:02.076    06 Jun 2022 11:03:53.683      351.60679396    
06 Jun 2022 12:34:42.739    06 Jun 2022 12:42:57.767      495.02856148    
06 Jun 2022 14:14:32.602    06 Jun 2022 14:17:00.071      147.46921558    
07 Jun 2022 03:44:11.316    07 Jun 2022 03:50:07.949      356.63357059    
07 Jun 2022 05:20:19.861    07 Jun 2022 05:28:18.725      478.86402842    
07 Jun 2022 07:00:16.362    07 Jun 2022 07:04:39.067      262.70408799    
07 Jun 2022 10:17:47.442    07 Jun 2022 10:22:48.102      300.66057845    
07 Jun 2022 11:54:15.213    07 Jun 2022 12:02:25.794      490.58091223    
07 Jun 2022 13:32:49.592    07 Jun 2022 13:38:00.820      311.22800976    
08 Jun 2022 03:04:42.914    08 Jun 2022 03:08:51.960      249.04573947    
08 Jun 2022 04:39:44.009    08 Jun 2022 04:47:52.146      488.13769348    
08 Jun 2022 06:19:07.147    08 Jun 2022 06:24:24.922      317.77452581    
08 Jun 2022 09:37:34.754    08 Jun 2022 09:41:35.677      240.92305672    
08 Jun 2022 11:13:49.732    08 Jun 2022 11:21:46.619      476.88706425    
08 Jun 2022 12:51:45.214    08 Jun 2022 12:58:18.732      393.51811329    
09 Jun 2022 03:59:13.897    09 Jun 2022 04:07:21.644      487.74710738    
09 Jun 2022 05:38:02.747    09 Jun 2022 05:44:07.670      364.92209339    
09 Jun 2022 08:57:26.226    09 Jun 2022 09:00:14.509      168.28325728    
09 Jun 2022 10:33:25.849    09 Jun 2022 10:41:00.587      454.73810787    
09 Jun 2022 12:10:54.497    09 Jun 2022 12:18:18.595      444.09757233    
10 Jun 2022 03:18:50.212    10 Jun 2022 03:26:46.399      476.18761403    
10 Jun 2022 04:57:02.974    10 Jun 2022 05:03:47.689      404.71483766    
10 Jun 2022 08:17:36.730    10 Jun 2022 08:18:30.142      53.411424486    
10 Jun 2022 09:53:03.272    10 Jun 2022 10:00:07.932      424.66057946    
10 Jun 2022 11:30:11.471    10 Jun 2022 11:38:06.200      474.72893216    
11 Jun 2022 02:38:34.072    11 Jun 2022 02:46:05.140      451.06864697    
11 Jun 2022 04:16:07.881    11 Jun 2022 04:23:25.033      437.15147241    
11 Jun 2022 05:57:11.965    11 Jun 2022 05:59:13.514      121.54850839    
11 Jun 2022 09:12:41.847    11 Jun 2022 09:19:08.806      386.95924535    
11 Jun 2022 10:49:33.470    11 Jun 2022 10:57:44.033      490.56344162    
12 Jun 2022 01:58:27.491    12 Jun 2022 02:05:15.691      408.19924091    
12 Jun 2022 03:35:17.632    12 Jun 2022 03:42:59.576      461.94430307    
12 Jun 2022 05:15:42.727    12 Jun 2022 05:19:07.284      204.55767297    
12 Jun 2022 08:32:21.590    12 Jun 2022 08:38:03.264      341.67442541    
12 Jun 2022 10:08:59.012    12 Jun 2022 10:17:13.413      494.40146709    
12 Jun 2022 11:48:28.409    12 Jun 2022 11:51:38.377      189.96803770    
13 Jun 2022 01:18:34.762    13 Jun 2022 01:24:13.591      338.82835071    
13 Jun 2022 02:54:32.466    13 Jun 2022 03:02:31.054      478.58838524    
13 Jun 2022 04:34:23.379    13 Jun 2022 04:38:52.317      268.93819564    
13 Jun 2022 07:52:02.793    13 Jun 2022 07:56:51.164      288.37115513    
13 Jun 2022 09:28:27.169    13 Jun 2022 09:36:35.117      487.94740835    
13 Jun 2022 11:06:52.605    13 Jun 2022 11:12:21.520      328.91478832    
14 Jun 2022 00:39:09.497    14 Jun 2022 00:42:45.061      215.56315762    
14 Jun 2022 02:13:52.723    14 Jun 2022 02:21:59.059      486.33563061    
14 Jun 2022 03:53:09.797    14 Jun 2022 03:58:33.107      323.30988605    
14 Jun 2022 07:11:46.405    14 Jun 2022 07:15:31.807      225.40190524    
14 Jun 2022 08:47:57.328    14 Jun 2022 08:55:49.636      472.30762508    
14 Jun 2022 10:25:46.588    14 Jun 2022 10:32:30.637      404.04910500    
15 Jun 2022 01:33:18.898    15 Jun 2022 01:41:22.990      484.09188178    
15 Jun 2022 03:12:01.116    15 Jun 2022 03:18:10.797      369.68109776    
15 Jun 2022 06:31:35.759    15 Jun 2022 06:34:02.208      146.44868451    
15 Jun 2022 08:07:29.076    15 Jun 2022 08:14:57.296      448.22042043    
15 Jun 2022 09:44:52.786    15 Jun 2022 09:52:23.126      450.34039611    
16 Jun 2022 00:52:51.753    16 Jun 2022 01:00:41.953      470.19965616    
16 Jun 2022 02:30:57.170    16 Jun 2022 02:37:45.739      408.56965638    
16 Jun 2022 07:27:02.155    16 Jun 2022 07:33:58.317      416.16266269    
16 Jun 2022 09:04:06.123    16 Jun 2022 09:12:03.890      477.76771603    
17 Jun 2022 00:12:32.557    17 Jun 2022 00:19:54.533      441.97565761    
17 Jun 2022 01:49:58.023    17 Jun 2022 01:57:17.970      439.94747603    
17 Jun 2022 03:30:55.738    17 Jun 2022 03:33:08.035      132.29615239    
17 Jun 2022 06:46:36.456    17 Jun 2022 06:52:52.830      376.37336558    
17 Jun 2022 08:23:24.219    17 Jun 2022 08:31:35.145      490.92605563    
17 Jun 2022 23:32:23.657    17 Jun 2022 23:38:58.227      394.56986842    
18 Jun 2022 01:09:03.849    18 Jun 2022 01:16:47.349      463.49960198    
18 Jun 2022 02:49:22.853    18 Jun 2022 02:52:56.094      213.24153316    
18 Jun 2022 06:06:12.068    18 Jun 2022 06:11:40.842      328.77398523    
18 Jun 2022 07:42:45.716    18 Jun 2022 07:50:58.090      492.37397953    
18 Jun 2022 09:21:57.253    18 Jun 2022 09:25:43.566      226.31334637    
18 Jun 2022 22:52:30.345    18 Jun 2022 22:57:47.579      317.23356993    
19 Jun 2022 00:28:14.908    19 Jun 2022 00:36:13.589      478.68171668    
19 Jun 2022 02:07:59.347    19 Jun 2022 02:12:36.093      276.74574167    
19 Jun 2022 05:25:49.437    19 Jun 2022 05:30:22.091      272.65413743    
19 Jun 2022 07:02:09.758    19 Jun 2022 07:10:13.447      483.68816113    
19 Jun 2022 08:40:25.943    19 Jun 2022 08:46:12.017      346.07350824    
19 Jun 2022 22:13:12.941    19 Jun 2022 22:16:02.110      169.16900862    
19 Jun 2022 23:47:31.568    19 Jun 2022 23:55:36.251      484.68253469    
20 Jun 2022 01:26:41.649    20 Jun 2022 01:32:11.966      330.31699543    
20 Jun 2022 04:45:29.946    20 Jun 2022 04:48:55.468      205.52168341    
20 Jun 2022 06:21:35.777    20 Jun 2022 06:29:21.673      465.89586079    
20 Jun 2022 07:59:18.401    20 Jun 2022 08:06:12.480      414.07900527    
20 Jun 2022 23:06:54.377    20 Jun 2022 23:14:54.679      480.30159135    
21 Jun 2022 00:45:28.970    21 Jun 2022 00:51:44.762      375.79159539    
21 Jun 2022 04:05:19.270    21 Jun 2022 04:07:15.679      116.40936406    
21 Jun 2022 05:41:03.396    21 Jun 2022 05:48:23.072      439.67604098    
21 Jun 2022 07:18:21.771    21 Jun 2022 07:25:57.641      455.87009605    
21 Jun 2022 22:26:24.191    21 Jun 2022 22:34:07.882      463.69152189    
22 Jun 2022 00:04:21.164    22 Jun 2022 00:11:14.800      413.63586840    
22 Jun 2022 05:00:32.394    22 Jun 2022 05:07:17.840      405.44645239    
22 Jun 2022 06:37:31.755    22 Jun 2022 06:45:31.627      479.87163303    
22 Jun 2022 21:46:02.464    22 Jun 2022 21:53:14.257      431.79304430    
22 Jun 2022 23:23:18.303    22 Jun 2022 23:30:42.096      443.79274850    
23 Jun 2022 01:04:08.456    23 Jun 2022 01:06:34.440      145.98408861    
23 Jun 2022 04:20:02.713    23 Jun 2022 04:26:06.075      363.36251185    
23 Jun 2022 05:56:46.236    23 Jun 2022 06:04:56.388      490.15219768    
23 Jun 2022 21:05:51.986    23 Jun 2022 21:12:10.850      378.86443347    
23 Jun 2022 22:42:20.568    23 Jun 2022 22:50:06.484      465.91550965    
24 Jun 2022 00:22:32.434    24 Jun 2022 00:26:16.828      224.39409035    
24 Jun 2022 03:39:34.529    24 Jun 2022 03:44:47.713      313.18425417    
24 Jun 2022 05:16:03.976    24 Jun 2022 05:24:13.008      489.03145435    
24 Jun 2022 06:54:59.299    24 Jun 2022 06:59:17.839      258.53986263    
24 Jun 2022 20:25:59.555    24 Jun 2022 20:30:50.699      291.14392537    
24 Jun 2022 22:01:28.234    24 Jun 2022 22:09:27.647      479.41244880    
24 Jun 2022 23:41:05.201    24 Jun 2022 23:45:51.927      286.72562933    
25 Jun 2022 02:59:08.500    25 Jun 2022 03:03:22.297      253.79704958    
25 Jun 2022 04:35:24.184    25 Jun 2022 04:43:22.140      477.95621959    
25 Jun 2022 06:13:31.000    25 Jun 2022 06:19:33.509      362.50852207    
25 Jun 2022 19:47:03.339    25 Jun 2022 19:48:35.465      92.125449877    
25 Jun 2022 21:20:41.702    25 Jun 2022 21:28:45.098      483.39535506    
25 Jun 2022 22:59:43.783    25 Jun 2022 23:05:23.045      339.26258537    
26 Jun 2022 02:18:46.729    26 Jun 2022 02:21:48.020      181.29168225    
26 Jun 2022 03:54:46.332    26 Jun 2022 04:02:24.203      457.87115798    
26 Jun 2022 05:32:22.071    26 Jun 2022 05:39:25.599      423.52735255    


Number of events : 335


Observer: Hawaii
Start Time (UTC)            Stop Time (UTC)               Duration (s)         
27 Apr 2022 18:58:48.995    27 Apr 2022 19:05:38.259      409.26431164    
27 Apr 2022 20:36:23.831    27 Apr 2022 20:42:48.220      384.38835115    
28 Apr 2022 04:52:31.670    28 Apr 2022 05:00:29.701      478.03086023    
28 Apr 2022 06:32:27.179    28 Apr 2022 06:34:50.351      143.17252137    
28 Apr 2022 18:19:40.825    28 Apr 2022 18:25:12.505      331.67977659    
28 Apr 2022 19:56:04.285    28 Apr 2022 20:03:19.023      434.73863566    
29 Apr 2022 04:12:52.154    29 Apr 2022 04:20:23.345      451.19086612    
29 Apr 2022 05:51:11.474    29 Apr 2022 05:56:32.100      320.62611936    
29 Apr 2022 17:41:09.337    29 Apr 2022 17:44:09.213      179.87549852    
29 Apr 2022 19:15:55.345    29 Apr 2022 19:23:40.528      465.18285577    
30 Apr 2022 03:33:19.449    30 Apr 2022 03:40:04.846      405.39650421    
30 Apr 2022 05:10:40.432    30 Apr 2022 05:17:26.038      405.60646177    
30 Apr 2022 18:35:55.435    30 Apr 2022 18:43:53.946      478.51142302    
01 May 2022 02:53:56.499    01 May 2022 02:59:30.878      334.37987856    
01 May 2022 04:30:25.497    01 May 2022 04:38:00.379      454.88200356    
01 May 2022 17:56:04.157    01 May 2022 18:03:59.322      475.16425846    
01 May 2022 19:36:28.724    01 May 2022 19:38:55.934      147.21008842    
02 May 2022 02:14:53.685    02 May 2022 02:18:30.670      216.98511040    
02 May 2022 03:50:20.351    02 May 2022 03:58:21.093      480.74130085    
02 May 2022 17:16:22.059    02 May 2022 17:23:55.754      453.69559473    
02 May 2022 18:55:11.132    02 May 2022 19:00:08.393      297.26116299    
03 May 2022 03:10:22.438    03 May 2022 03:18:30.384      487.94511255    
03 May 2022 16:36:51.022    03 May 2022 16:43:41.014      409.99170503    
03 May 2022 18:14:28.917    03 May 2022 18:20:47.620      378.70378633    
04 May 2022 02:30:30.673    04 May 2022 02:38:28.973      478.29980553    
04 May 2022 04:10:33.142    04 May 2022 04:12:41.284      128.14164899    
04 May 2022 15:57:36.048    04 May 2022 16:03:09.756      333.70752441    
04 May 2022 17:34:02.244    04 May 2022 17:41:13.070      430.82615342    
05 May 2022 01:50:44.911    05 May 2022 01:58:16.627      451.71550495    
05 May 2022 03:29:06.074    05 May 2022 03:34:22.140      316.06664242    
05 May 2022 15:18:56.802    05 May 2022 15:22:01.968      185.16549730    
05 May 2022 16:53:46.508    05 May 2022 17:01:28.970      462.46180837    
06 May 2022 01:11:06.055    06 May 2022 01:17:52.058      406.00357130    
06 May 2022 02:48:27.915    06 May 2022 02:55:10.973      403.05829584    
06 May 2022 16:13:39.998    06 May 2022 16:21:36.651      476.65296273    
07 May 2022 00:31:37.045    07 May 2022 00:37:11.930      334.88478680    
07 May 2022 02:08:06.435    07 May 2022 02:15:39.656      453.22100372    
07 May 2022 15:33:42.261    07 May 2022 15:41:36.200      473.93917552    
07 May 2022 17:14:11.828    07 May 2022 17:16:27.260      135.43249030    
07 May 2022 23:52:28.328    07 May 2022 23:56:05.393      217.06440237    
08 May 2022 01:27:54.995    08 May 2022 01:35:54.476      479.48110445    
08 May 2022 14:53:53.821    08 May 2022 15:01:26.732      452.91174827    
08 May 2022 16:32:44.359    08 May 2022 16:37:37.218      292.85948449    
09 May 2022 00:47:50.940    09 May 2022 00:55:57.722      486.78137980    
09 May 2022 14:14:16.560    09 May 2022 14:21:06.010      409.44967355    
09 May 2022 15:51:55.072    09 May 2022 15:58:11.197      376.12485965    
10 May 2022 00:07:53.155    10 May 2022 00:15:50.143      476.98825373    
10 May 2022 01:47:57.159    10 May 2022 01:49:59.872      122.71257275    
10 May 2022 13:34:55.522    10 May 2022 13:40:28.643      333.12056728    
10 May 2022 15:11:21.797    10 May 2022 15:18:30.987      429.19088267    
10 May 2022 23:28:01.496    10 May 2022 23:35:31.504      450.00827378    
11 May 2022 01:06:22.126    11 May 2022 01:11:36.559      314.43280277    
11 May 2022 12:56:10.705    11 May 2022 12:59:14.285      183.58031994    
11 May 2022 14:30:59.682    11 May 2022 14:38:41.058      461.37525723    
11 May 2022 22:48:16.905    11 May 2022 22:55:00.478      403.57263624    
12 May 2022 00:25:37.686    12 May 2022 00:32:19.559      401.87278470    
12 May 2022 13:50:46.956    12 May 2022 13:58:42.806      475.85032017    
12 May 2022 22:08:42.469    12 May 2022 22:14:13.582      331.11326419    
12 May 2022 23:45:10.176    12 May 2022 23:52:42.183      452.00709051    
13 May 2022 13:10:43.151    13 May 2022 13:18:36.337      473.18545331    
13 May 2022 14:51:11.728    13 May 2022 14:53:27.192      135.46454888    
13 May 2022 21:29:29.454    13 May 2022 21:32:59.157      209.70274288    
13 May 2022 23:04:52.846    13 May 2022 23:12:50.830      477.98420110    
14 May 2022 12:30:48.810    14 May 2022 12:38:20.751      451.94114997    
14 May 2022 14:09:37.888    14 May 2022 14:14:31.453      293.56468491    
14 May 2022 22:24:43.024    14 May 2022 22:32:47.819      484.79507086    
15 May 2022 11:51:05.880    15 May 2022 11:57:53.756      407.87567818    
15 May 2022 13:28:42.522    15 May 2022 13:34:59.545      377.02294652    
15 May 2022 21:44:39.603    15 May 2022 21:52:33.897      474.29380200    
15 May 2022 23:24:39.169    15 May 2022 23:26:47.372      128.20300797    
16 May 2022 11:11:39.613    16 May 2022 11:17:09.762      330.14876812    
16 May 2022 12:48:03.316    16 May 2022 12:55:13.406      430.08941493    
16 May 2022 21:04:42.479    16 May 2022 21:12:08.797      446.31730135    
16 May 2022 22:43:00.274    16 May 2022 22:48:16.134      315.86005564    
17 May 2022 10:32:51.566    17 May 2022 10:35:46.871      175.30467144    
17 May 2022 12:07:35.414    17 May 2022 12:15:17.522      462.10843414    
17 May 2022 20:24:52.691    17 May 2022 20:31:31.102      398.41106666    
17 May 2022 22:02:10.541    17 May 2022 22:08:52.724      402.18312331    
18 May 2022 11:27:17.053    18 May 2022 11:35:13.289      476.23673994    
18 May 2022 19:45:13.617    18 May 2022 19:50:37.048      323.43075047    
18 May 2022 21:21:37.683    18 May 2022 21:29:09.086      451.40318298    
19 May 2022 10:47:07.793    19 May 2022 10:55:00.788      472.99521879    
19 May 2022 12:27:29.327    19 May 2022 12:29:56.916      147.58958181    
19 May 2022 19:05:58.242    19 May 2022 19:09:13.260      195.01827717    
19 May 2022 20:41:15.060    19 May 2022 20:49:11.512      476.45241281    
20 May 2022 10:07:08.231    20 May 2022 10:14:39.071      450.84070803    
20 May 2022 11:45:52.967    20 May 2022 11:50:52.384      299.41715423    
20 May 2022 20:01:00.047    20 May 2022 20:09:02.279      482.23275261    
21 May 2022 09:27:20.436    21 May 2022 09:34:05.726      405.28985874    
21 May 2022 11:04:52.771    21 May 2022 11:11:14.151      381.37996781    
21 May 2022 19:20:51.577    21 May 2022 19:28:42.091      470.51341584    
21 May 2022 21:00:41.584    21 May 2022 21:03:04.840      143.25670857    
22 May 2022 08:47:50.040    22 May 2022 08:53:14.779      324.73929076    
22 May 2022 10:24:08.556    22 May 2022 10:31:22.022      433.46550555    
22 May 2022 18:40:49.615    22 May 2022 18:48:10.611      440.99601314    
22 May 2022 20:19:02.467    22 May 2022 20:24:22.824      320.35619809    
23 May 2022 08:09:01.813    23 May 2022 08:11:41.116      159.30294176    
23 May 2022 09:43:35.685    23 May 2022 09:51:20.259      464.57446256    
23 May 2022 18:00:55.342    23 May 2022 18:07:26.274      390.93204428    
23 May 2022 19:38:08.577    23 May 2022 19:44:52.683      404.10616376    
24 May 2022 09:03:12.474    24 May 2022 09:11:10.172      477.69829596    
24 May 2022 17:21:12.581    24 May 2022 17:26:24.859      312.27816625    
24 May 2022 18:57:31.192    24 May 2022 19:05:02.787      451.59470873    
25 May 2022 08:22:58.544    25 May 2022 08:30:51.773      473.22824439    
25 May 2022 10:03:08.483    25 May 2022 10:05:57.221      168.73790334    
25 May 2022 16:41:57.359    25 May 2022 16:44:49.941      172.58146653    
25 May 2022 18:17:03.980    25 May 2022 18:24:59.111      475.13054372    
26 May 2022 07:42:54.577    26 May 2022 07:50:24.016      449.43919494    
26 May 2022 09:21:32.348    26 May 2022 09:26:42.134      309.78628804    
26 May 2022 17:36:44.418    26 May 2022 17:44:43.814      479.39527334    
27 May 2022 07:03:02.824    27 May 2022 07:09:44.292      401.46775522    
27 May 2022 08:40:28.547    27 May 2022 08:46:57.303      388.75683511    
27 May 2022 16:56:31.511    27 May 2022 17:04:17.512      466.00125841    
27 May 2022 18:36:08.464    27 May 2022 18:38:53.468      165.00395784    
28 May 2022 06:23:29.512    28 May 2022 06:28:46.014      316.50136616    
28 May 2022 07:59:40.239    28 May 2022 08:06:59.175      438.93570855    
28 May 2022 16:16:25.313    28 May 2022 16:23:39.759      434.44635984    
28 May 2022 17:54:31.384    28 May 2022 17:59:59.191      327.80721474    
29 May 2022 05:44:45.639    29 May 2022 05:46:57.823      132.18397204    
29 May 2022 07:19:03.186    29 May 2022 07:26:51.594      468.40849301    
29 May 2022 15:36:27.203    29 May 2022 15:42:48.770      381.56752777    
29 May 2022 17:13:34.311    29 May 2022 17:20:22.052      407.74113291    
30 May 2022 06:38:35.841    30 May 2022 06:46:35.711      479.86983606    
30 May 2022 14:56:41.643    30 May 2022 15:01:39.663      298.01997469    
30 May 2022 16:32:53.073    30 May 2022 16:40:25.851      452.77770435    
31 May 2022 05:58:17.921    31 May 2022 06:06:11.421      473.50096910    
31 May 2022 07:38:13.453    31 May 2022 07:41:28.506      195.05313918    
31 May 2022 14:17:30.182    31 May 2022 14:19:50.468      140.28637478    
31 May 2022 15:52:21.801    31 May 2022 16:00:16.076      474.27453190    
01 Jun 2022 05:18:10.231    01 Jun 2022 05:25:37.537      447.30594233    
01 Jun 2022 06:56:38.729    01 Jun 2022 07:02:02.338      323.60857653    
01 Jun 2022 15:11:58.130    01 Jun 2022 15:19:54.707      476.57702866    
02 Jun 2022 04:38:15.292    02 Jun 2022 04:44:51.157      395.86499127    
02 Jun 2022 06:15:32.179    02 Jun 2022 06:22:10.613      398.43402657    
02 Jun 2022 14:31:41.164    02 Jun 2022 14:39:22.236      461.07237968    
02 Jun 2022 16:11:02.887    02 Jun 2022 16:14:14.017      191.13003728    
03 Jun 2022 03:58:40.248    03 Jun 2022 04:03:44.760      304.51148042    
03 Jun 2022 05:34:40.413    03 Jun 2022 05:42:06.308      445.89478051    
03 Jun 2022 13:51:31.085    03 Jun 2022 13:58:38.068      426.98295704    
03 Jun 2022 15:29:28.739    03 Jun 2022 15:35:06.865      338.12545269    
04 Jun 2022 03:20:10.995    04 Jun 2022 03:21:32.067      81.071917748    
04 Jun 2022 04:53:59.697    04 Jun 2022 05:01:52.743      473.04617625    
04 Jun 2022 13:11:29.541    04 Jun 2022 13:17:40.130      370.58860076    
04 Jun 2022 14:48:29.089    04 Jun 2022 14:55:22.298      413.20914697    
05 Jun 2022 04:13:28.676    05 Jun 2022 04:21:30.864      482.18804479    
05 Jun 2022 12:31:41.914    05 Jun 2022 12:36:22.600      280.68613251    
05 Jun 2022 14:07:44.361    05 Jun 2022 14:15:19.501      455.14034367    
06 Jun 2022 03:33:07.202    06 Jun 2022 03:41:00.418      473.21639699    
06 Jun 2022 05:12:46.608    06 Jun 2022 05:16:30.328      223.72039875    
06 Jun 2022 11:52:41.994    06 Jun 2022 11:54:11.250      89.256831107    
06 Jun 2022 13:27:09.272    06 Jun 2022 13:35:03.367      474.09495539    
07 Jun 2022 02:52:56.263    07 Jun 2022 03:00:20.024      443.76063114    
07 Jun 2022 04:31:13.398    07 Jun 2022 04:36:53.128      339.73066489    
07 Jun 2022 12:46:41.666    07 Jun 2022 12:54:35.651      473.98548009    
08 Jun 2022 02:12:58.776    08 Jun 2022 02:19:26.378      387.60246285    
08 Jun 2022 03:50:04.555    08 Jun 2022 03:56:54.140      409.58502190    
08 Jun 2022 12:06:20.788    08 Jun 2022 12:13:56.696      455.90835399    
08 Jun 2022 13:45:25.918    08 Jun 2022 13:49:06.138      220.21991671    
09 Jun 2022 01:33:23.329    09 Jun 2022 01:38:10.506      287.17675813    
09 Jun 2022 03:09:09.699    09 Jun 2022 03:16:43.327      453.62790531    
09 Jun 2022 11:26:06.995    09 Jun 2022 11:33:05.724      418.72981646    
09 Jun 2022 13:03:54.732    09 Jun 2022 13:09:45.928      351.19568298    
10 Jun 2022 02:28:25.645    10 Jun 2022 02:36:23.456      477.81004758    
10 Jun 2022 10:46:02.300    10 Jun 2022 10:52:00.287      357.98733293    
10 Jun 2022 12:22:52.841    10 Jun 2022 12:29:53.409      420.56733981    
11 Jun 2022 01:47:51.271    11 Jun 2022 01:55:55.241      483.97023344    
11 Jun 2022 10:06:13.445    11 Jun 2022 10:10:33.204      259.75824140    
11 Jun 2022 11:42:04.831    11 Jun 2022 11:49:43.603      458.77255277    
12 Jun 2022 01:07:26.607    12 Jun 2022 01:15:18.253      471.64537573    
12 Jun 2022 02:46:48.693    12 Jun 2022 02:51:01.610      252.91625069    
12 Jun 2022 11:01:26.075    12 Jun 2022 11:09:20.745      474.66982780    
13 Jun 2022 00:27:12.897    13 Jun 2022 00:34:30.857      437.96008865    
13 Jun 2022 02:05:16.696    13 Jun 2022 02:11:13.733      357.03660634    
13 Jun 2022 10:20:54.673    13 Jun 2022 10:28:46.335      471.66133382    
13 Jun 2022 23:47:13.634    13 Jun 2022 23:53:29.177      375.54272956    
14 Jun 2022 01:24:05.883    14 Jun 2022 01:31:07.238      421.35497541    
14 Jun 2022 09:40:30.049    14 Jun 2022 09:48:00.538      450.48877025    
14 Jun 2022 11:19:17.745    14 Jun 2022 11:23:29.005      251.25961426    
14 Jun 2022 23:07:39.797    14 Jun 2022 23:12:01.853      262.05583097    
15 Jun 2022 00:43:08.291    15 Jun 2022 00:50:49.672      461.38103823    
15 Jun 2022 09:00:12.785    15 Jun 2022 09:07:02.352      409.56701726    
15 Jun 2022 10:37:49.234    15 Jun 2022 10:43:55.942      366.70731115    
16 Jun 2022 00:02:21.280    16 Jun 2022 00:10:23.264      481.98325750    
16 Jun 2022 08:20:05.395    16 Jun 2022 08:25:48.829      343.43415170    
16 Jun 2022 09:56:45.429    16 Jun 2022 10:03:55.096      429.66724487    
16 Jun 2022 23:21:43.981    16 Jun 2022 23:29:48.479      484.49726048    
17 Jun 2022 01:02:49.448    17 Jun 2022 01:04:04.854      75.405968295    
17 Jun 2022 07:40:16.718    17 Jun 2022 07:44:10.694      233.97550306    
17 Jun 2022 09:15:54.430    17 Jun 2022 09:23:37.983      463.55364734    
17 Jun 2022 22:41:16.647    17 Jun 2022 22:49:04.670      468.02313847    
18 Jun 2022 00:20:20.467    18 Jun 2022 00:25:01.862      281.39548103    
18 Jun 2022 08:35:12.294    18 Jun 2022 08:43:08.156      475.86227349    
18 Jun 2022 22:01:00.862    18 Jun 2022 22:08:09.871      429.00890285    
18 Jun 2022 23:38:49.439    18 Jun 2022 23:45:03.928      374.48843565    
19 Jun 2022 07:54:37.404    19 Jun 2022 08:02:26.831      469.42662864    
19 Jun 2022 21:21:00.971    19 Jun 2022 21:26:59.352      358.38106413    
19 Jun 2022 22:57:37.049    19 Jun 2022 23:04:49.955      432.90521106    
20 Jun 2022 07:14:09.396    20 Jun 2022 07:21:33.963      444.56709491    
20 Jun 2022 08:52:39.251    20 Jun 2022 08:57:22.446      283.19463297    
20 Jun 2022 20:41:32.255    20 Jun 2022 20:45:17.454      225.19962906    
20 Jun 2022 22:16:37.204    20 Jun 2022 22:24:25.620      468.41596034    
21 Jun 2022 06:33:49.135    21 Jun 2022 06:40:28.259      399.12403647    
21 Jun 2022 08:11:13.087    21 Jun 2022 08:17:37.106      384.01979583    
21 Jun 2022 21:35:47.767    21 Jun 2022 21:43:52.647      484.88010768    
22 Jun 2022 05:53:39.828    22 Jun 2022 05:59:06.078      326.24933714    
22 Jun 2022 07:30:07.762    22 Jun 2022 07:37:27.825      440.06250256    
22 Jun 2022 20:55:08.135    22 Jun 2022 21:03:11.233      483.09857030    
22 Jun 2022 22:35:30.352    22 Jun 2022 22:38:05.466      155.11340409    
23 Jun 2022 05:13:53.845    23 Jun 2022 05:17:14.603      200.75857054    
23 Jun 2022 06:49:14.196    23 Jun 2022 06:57:03.291      469.09455440    
23 Jun 2022 20:14:38.824    23 Jun 2022 20:22:20.464      461.64049198    
23 Jun 2022 21:53:23.554    23 Jun 2022 21:58:31.803      308.24946117    
24 Jun 2022 06:08:29.106    24 Jun 2022 06:16:26.390      477.28410023    
24 Jun 2022 19:34:21.874    24 Jun 2022 19:41:17.906      416.03245254    
24 Jun 2022 21:11:53.373    24 Jun 2022 21:18:24.571      391.19760812    
25 Jun 2022 05:27:51.172    25 Jun 2022 05:35:38.029      466.85667112    
25 Jun 2022 07:07:49.307    25 Jun 2022 07:09:48.305      118.99847444    
25 Jun 2022 18:54:22.934    25 Jun 2022 18:59:57.520      334.58559687    
