GMAT/Constellation/Contact/ContactLocator10.txt

Target: HSEYE10

Observer: Bahrain
Start Time (UTC)            Stop Time (UTC)               Duration (s)         
27 Apr 2022 19:27:19.078    27 Apr 2022 19:35:25.598      486.52040003    
27 Apr 2022 21:06:45.993    27 Apr 2022 21:11:52.912      306.91891933    
28 Apr 2022 03:43:16.263    28 Apr 2022 03:50:55.098      458.83559118    
28 Apr 2022 05:21:32.846    28 Apr 2022 05:27:39.266      366.42022604    
28 Apr 2022 18:51:11.229    28 Apr 2022 18:59:01.551      470.32180302    
28 Apr 2022 20:29:52.833    28 Apr 2022 20:35:57.939      365.10579600    
29 Apr 2022 03:07:09.057    29 Apr 2022 03:14:19.951      430.89414648    
29 Apr 2022 04:44:51.867    29 Apr 2022 04:51:51.329      419.46146702    
29 Apr 2022 18:15:08.949    29 Apr 2022 18:22:31.776      442.82728715    
29 Apr 2022 19:53:07.069    29 Apr 2022 19:59:56.370      409.30110138    
30 Apr 2022 02:31:04.650    30 Apr 2022 02:37:37.992      393.34201223    
30 Apr 2022 04:08:18.093    30 Apr 2022 04:15:53.196      455.10345240    
30 Apr 2022 17:39:13.722    30 Apr 2022 17:45:54.679      400.95735640    
30 Apr 2022 19:16:26.979    30 Apr 2022 19:23:49.844      442.86503684    
01 May 2022 01:55:04.072    01 May 2022 02:00:48.089      344.01738821    
01 May 2022 03:31:49.207    01 May 2022 03:39:47.067      477.86051439    
01 May 2022 17:03:28.617    01 May 2022 17:09:07.080      338.46298764    
01 May 2022 18:39:51.736    01 May 2022 18:47:39.090      467.35390647    
02 May 2022 01:19:09.715    02 May 2022 01:23:47.749      278.03463405    
02 May 2022 02:55:23.968    02 May 2022 03:03:34.057      490.08855640    
02 May 2022 16:28:02.134    02 May 2022 16:32:00.361      238.22690640    
02 May 2022 18:03:20.928    02 May 2022 18:11:24.410      483.48196254    
03 May 2022 00:43:29.223    03 May 2022 00:46:29.243      180.02043902    
03 May 2022 02:19:01.652    03 May 2022 02:27:14.761      493.10875854    
03 May 2022 17:26:54.395    03 May 2022 17:35:05.847      491.45182287    
03 May 2022 19:08:06.608    03 May 2022 19:10:16.964      130.35662452    
04 May 2022 01:42:41.836    04 May 2022 01:50:49.468      487.63241151    
04 May 2022 03:22:29.557    04 May 2022 03:25:40.940      191.38334919    
04 May 2022 16:50:32.176    04 May 2022 16:58:43.237      491.06068985    
04 May 2022 18:30:35.079    04 May 2022 18:34:45.746      250.66776189    
05 May 2022 01:06:24.315    05 May 2022 01:14:18.247      473.93174465    
05 May 2022 02:45:09.991    05 May 2022 02:50:23.544      313.55293868    
05 May 2022 16:14:14.519    05 May 2022 16:22:16.204      481.68466163    
05 May 2022 17:53:27.396    05 May 2022 17:58:51.714      324.31824534    
06 May 2022 00:30:09.084    06 May 2022 00:37:40.964      451.87976898    
06 May 2022 02:08:14.443    06 May 2022 02:14:39.397      384.95373325    
06 May 2022 15:38:01.950    06 May 2022 15:45:44.093      462.14252198    
06 May 2022 17:16:29.996    06 May 2022 17:22:48.355      378.35930645    
06 May 2022 23:53:56.375    07 May 2022 00:00:57.251      420.87562495    
07 May 2022 01:31:29.463    07 May 2022 01:38:41.810      432.34765209    
07 May 2022 15:01:55.444    07 May 2022 15:09:05.793      430.34870303    
07 May 2022 16:39:39.496    07 May 2022 16:46:38.956      419.46040902    
07 May 2022 23:17:46.788    07 May 2022 23:24:06.372      379.58383304    
08 May 2022 00:54:50.931    08 May 2022 01:02:34.764      463.83300988    
08 May 2022 14:25:56.873    08 May 2022 14:32:19.302      382.42867151    
08 May 2022 16:02:54.477    08 May 2022 16:10:24.825      450.34838427    
08 May 2022 22:41:41.667    08 May 2022 22:47:06.861      325.19449600    
09 May 2022 00:18:16.915    09 May 2022 00:26:20.050      483.13481376    
09 May 2022 13:50:10.408    09 May 2022 13:55:20.312      309.90402277    
09 May 2022 15:26:14.239    09 May 2022 15:34:06.539      472.30051450    
09 May 2022 22:05:44.380    09 May 2022 22:09:55.234      250.85403628    
09 May 2022 23:41:46.341    09 May 2022 23:49:58.594      492.25323549    
10 May 2022 13:14:50.431    10 May 2022 13:17:54.309      183.87813410    
10 May 2022 14:49:38.443    10 May 2022 14:57:44.307      485.86420796    
10 May 2022 21:30:08.961    10 May 2022 21:32:17.361      128.40026538    
10 May 2022 23:05:18.577    10 May 2022 23:13:30.883      492.30594310    
11 May 2022 14:13:06.987    11 May 2022 14:21:18.095      491.10764852    
11 May 2022 15:53:51.141    11 May 2022 15:56:50.048      178.90652809    
11 May 2022 22:28:53.267    11 May 2022 22:36:57.125      483.85813795    
12 May 2022 00:08:14.397    12 May 2022 00:12:18.278      243.88037509    
12 May 2022 13:36:39.977    12 May 2022 13:44:47.662      487.68473187    
12 May 2022 15:16:24.200    12 May 2022 15:21:01.793      277.59338500    
12 May 2022 21:52:30.267    12 May 2022 22:00:17.314      467.04740605    
12 May 2022 23:30:59.760    12 May 2022 23:36:42.337      342.57722710    
13 May 2022 13:00:17.752    13 May 2022 13:08:12.532      474.78004427    
13 May 2022 14:39:13.970    13 May 2022 14:44:57.844      343.87429906    
13 May 2022 21:16:09.650    13 May 2022 21:23:31.236      441.58564891    
13 May 2022 22:54:02.184    13 May 2022 23:00:46.505      404.32076479    
14 May 2022 12:24:00.987    14 May 2022 12:31:31.894      450.90726118    
14 May 2022 14:02:12.618    14 May 2022 14:08:45.947      393.32900938    
14 May 2022 20:39:51.770    14 May 2022 20:46:38.396      406.62662415    
14 May 2022 22:17:13.388    14 May 2022 22:24:38.919      445.53101545    
15 May 2022 11:47:50.944    15 May 2022 11:54:44.352      413.40773175    
15 May 2022 13:25:17.648    15 May 2022 13:32:28.497      430.84908536    
15 May 2022 20:03:37.462    15 May 2022 20:09:37.830      360.36845843    
15 May 2022 21:40:30.268    15 May 2022 21:48:22.548      472.27941033    
16 May 2022 11:11:50.159    16 May 2022 11:17:47.240      357.08112713    
16 May 2022 12:48:27.938    16 May 2022 12:56:06.502      458.56352403    
16 May 2022 19:27:28.642    16 May 2022 19:32:27.505      298.86308141    
16 May 2022 21:03:51.259    16 May 2022 21:11:58.814      487.55535185    
17 May 2022 10:36:05.005    17 May 2022 10:40:34.057      269.05186776    
17 May 2022 12:11:42.935    17 May 2022 12:19:40.396      477.46123950    
17 May 2022 18:51:30.782    17 May 2022 18:55:01.848      211.06593548    
17 May 2022 20:27:15.470    17 May 2022 20:35:28.470      492.99992917    
18 May 2022 10:01:15.630    18 May 2022 10:02:24.528      68.897944037    
18 May 2022 11:35:02.396    18 May 2022 11:43:10.298      487.90239282    
18 May 2022 13:16:54.514    18 May 2022 13:17:44.375      49.860922282    
18 May 2022 19:50:42.384    18 May 2022 19:58:51.895      489.51102861    
18 May 2022 21:30:55.893    18 May 2022 21:33:12.952      137.05909553    
19 May 2022 10:58:26.306    19 May 2022 11:06:36.098      489.79177385    
19 May 2022 12:38:43.560    19 May 2022 12:42:26.634      223.07429955    
19 May 2022 19:14:11.734    19 May 2022 19:22:09.218      477.48415353    
19 May 2022 20:53:08.317    19 May 2022 20:57:58.901      290.58461187    
20 May 2022 10:21:54.870    20 May 2022 10:29:57.467      482.59635736    
20 May 2022 12:01:18.266    20 May 2022 12:06:24.359      306.09230096    
20 May 2022 18:37:43.469    20 May 2022 18:45:20.356      456.88680843    
20 May 2022 20:15:55.890    20 May 2022 20:22:06.970      371.07971282    
21 May 2022 09:45:28.567    21 May 2022 09:53:13.802      465.23526949    
21 May 2022 11:24:05.486    21 May 2022 11:30:10.637      365.15039223    
21 May 2022 18:01:17.782    21 May 2022 18:08:24.991      427.20857095    
21 May 2022 19:38:56.104    21 May 2022 19:45:59.539      423.43522244    
22 May 2022 09:09:08.303    22 May 2022 09:16:24.076      435.77232988    
22 May 2022 10:47:00.471    22 May 2022 10:53:50.137      409.66583864    
22 May 2022 17:24:55.219    22 May 2022 17:31:22.452      387.23320314    
22 May 2022 19:02:03.649    22 May 2022 19:09:41.796      458.14724750    
23 May 2022 08:32:55.806    23 May 2022 08:39:26.441      390.63442375    
23 May 2022 10:10:01.423    23 May 2022 10:17:24.565      443.14164373    
23 May 2022 16:48:37.014    23 May 2022 16:54:11.396      334.38168402    
23 May 2022 18:25:16.210    23 May 2022 18:33:15.925      479.71504347    
24 May 2022 07:56:54.819    24 May 2022 08:02:17.035      322.21663169    
24 May 2022 09:33:07.493    24 May 2022 09:40:54.664      467.17070143    
24 May 2022 16:12:26.194    24 May 2022 16:16:48.696      262.50293489    
24 May 2022 17:48:32.553    24 May 2022 17:56:43.034      490.48100141    
25 May 2022 07:21:17.097    25 May 2022 07:24:43.987      206.89028328    
25 May 2022 08:56:18.273    25 May 2022 09:04:20.729      482.45624579    
25 May 2022 15:36:34.112    25 May 2022 15:39:02.920      148.80817904    
25 May 2022 17:11:51.964    25 May 2022 17:20:03.706      491.74185914    
26 May 2022 08:19:33.627    26 May 2022 08:27:42.780      489.15375177    
26 May 2022 10:00:29.244    26 May 2022 10:03:03.838      154.59432498    
26 May 2022 16:35:14.043    26 May 2022 16:43:18.210      484.16639889    
26 May 2022 18:14:43.399    26 May 2022 18:18:27.841      224.44198381    
27 May 2022 07:42:53.639    27 May 2022 07:51:00.610      486.97085021    
27 May 2022 09:22:44.005    27 May 2022 09:27:08.813      264.80807477    
27 May 2022 15:58:38.624    27 May 2022 16:06:26.579      467.95531169    
27 May 2022 17:37:12.043    27 May 2022 17:42:44.440      332.39715602    
28 May 2022 07:06:18.639    28 May 2022 07:14:13.768      475.12839187    
28 May 2022 08:45:19.206    28 May 2022 08:50:54.614      335.40742120    
28 May 2022 15:22:05.766    28 May 2022 15:29:28.625      442.85861211    
28 May 2022 17:00:00.538    28 May 2022 17:06:38.510      397.97268201    
29 May 2022 06:29:49.293    29 May 2022 06:37:21.461      452.16826445    
29 May 2022 08:08:04.295    29 May 2022 08:14:31.722      387.42689142    
29 May 2022 14:45:35.819    29 May 2022 14:52:23.868      408.04929013    
29 May 2022 16:22:58.735    29 May 2022 16:30:20.069      441.33463375    
30 May 2022 05:53:26.853    30 May 2022 06:00:22.314      415.46187534    
30 May 2022 07:30:56.303    30 May 2022 07:38:03.014      426.71050391    
30 May 2022 14:09:09.623    30 May 2022 14:15:11.348      361.72432168    
30 May 2022 15:46:03.112    30 May 2022 15:53:52.508      469.39578775    
31 May 2022 05:17:13.826    31 May 2022 05:23:13.692      359.86618577    
31 May 2022 06:53:53.955    31 May 2022 07:01:29.660      455.70550921    
31 May 2022 13:32:49.117    31 May 2022 13:37:49.013      299.89621961    
31 May 2022 15:09:11.950    31 May 2022 15:17:17.412      485.46178074    
01 Jun 2022 04:41:16.474    01 Jun 2022 04:45:49.206      272.73202313    
01 Jun 2022 06:16:56.628    01 Jun 2022 06:24:52.164      475.53684401    
01 Jun 2022 12:56:39.867    01 Jun 2022 13:00:11.200      211.33332741    
01 Jun 2022 14:32:24.283    01 Jun 2022 14:40:35.605      491.32115445    
02 Jun 2022 04:06:11.729    02 Jun 2022 04:07:31.796      80.066990841    
02 Jun 2022 05:40:04.047    02 Jun 2022 05:48:10.674      486.62746606    
02 Jun 2022 13:55:39.556    02 Jun 2022 14:03:47.502      487.94606180    
02 Jun 2022 15:35:56.727    02 Jun 2022 15:38:02.909      126.18117003    
03 Jun 2022 05:03:16.181    03 Jun 2022 05:11:25.088      488.90634062    
03 Jun 2022 06:43:34.367    03 Jun 2022 06:47:13.267      218.89990432    
03 Jun 2022 13:18:57.479    03 Jun 2022 13:26:53.245      475.76568882    
03 Jun 2022 14:57:53.904    03 Jun 2022 15:02:41.257      287.35347998    
04 Jun 2022 04:26:33.232    04 Jun 2022 04:34:35.069      481.83635973    
04 Jun 2022 06:05:56.307    04 Jun 2022 06:11:00.637      304.32986176    
04 Jun 2022 12:42:17.997    04 Jun 2022 12:49:52.748      454.75072064    
04 Jun 2022 14:20:29.358    04 Jun 2022 14:26:38.775      369.41668623    
05 Jun 2022 03:49:55.688    05 Jun 2022 03:57:39.989      464.30149834    
05 Jun 2022 05:28:31.510    05 Jun 2022 05:34:36.083      364.57269784    
05 Jun 2022 12:05:41.308    05 Jun 2022 12:12:45.667      424.35953126    
05 Jun 2022 13:43:18.029    05 Jun 2022 13:50:20.382      422.35320350    
06 Jun 2022 03:13:24.490    06 Jun 2022 03:20:38.769      434.27970068    
06 Jun 2022 04:51:14.861    06 Jun 2022 04:58:04.625      409.76449343    
06 Jun 2022 11:29:07.995    06 Jun 2022 11:35:31.280      383.28554111    
06 Jun 2022 13:06:14.334    06 Jun 2022 13:13:51.517      457.18288156    
07 Jun 2022 02:37:01.455    07 Jun 2022 02:43:29.451      387.99652661    
07 Jun 2022 04:14:04.458    07 Jun 2022 04:21:28.050      443.59105979    
07 Jun 2022 10:52:39.401    07 Jun 2022 10:58:08.114      328.71309835    
07 Jun 2022 12:29:15.869    07 Jun 2022 12:37:14.434      478.56511603    
08 Jun 2022 02:00:50.607    08 Jun 2022 02:06:07.873      317.26615814    
08 Jun 2022 03:36:59.413    08 Jun 2022 03:44:47.121      467.70755542    
08 Jun 2022 10:16:18.933    08 Jun 2022 10:20:32.644      253.71056562    
08 Jun 2022 11:52:21.358    08 Jun 2022 12:00:30.263      488.90530618    
09 Jun 2022 01:25:05.281    09 Jun 2022 01:28:20.559      195.27759230    
09 Jun 2022 02:59:59.298    09 Jun 2022 03:08:02.131      482.83303727    
09 Jun 2022 09:40:20.865    09 Jun 2022 09:42:30.499      129.63339903    
09 Jun 2022 11:15:30.064    09 Jun 2022 11:23:39.586      489.52200660    
10 Jun 2022 02:23:03.971    10 Jun 2022 02:31:13.082      489.11075040    
10 Jun 2022 04:03:52.680    10 Jun 2022 04:06:37.988      165.30739898    
10 Jun 2022 10:38:41.579    10 Jun 2022 10:46:42.659      481.07990355    
10 Jun 2022 12:18:04.419    10 Jun 2022 12:21:58.207      233.78726416    
11 Jun 2022 01:46:13.528    11 Jun 2022 01:54:19.737      486.20910557    
11 Jun 2022 03:25:58.308    11 Jun 2022 03:30:30.334      272.02635908    
11 Jun 2022 10:01:55.743    11 Jun 2022 10:09:39.493      463.75061274    
11 Jun 2022 11:40:24.089    11 Jun 2022 11:46:02.099      338.00977614    
12 Jun 2022 01:09:28.326    12 Jun 2022 01:17:21.598      473.27183353    
12 Jun 2022 02:48:23.270    12 Jun 2022 02:54:04.771      341.50111080    
12 Jun 2022 09:25:12.636    12 Jun 2022 09:32:29.856      437.21950067    
12 Jun 2022 11:03:02.689    12 Jun 2022 11:09:44.430      401.74068643    
13 Jun 2022 00:32:49.095    13 Jun 2022 00:40:17.790      448.69486245    
13 Jun 2022 02:10:58.020    13 Jun 2022 02:17:30.761      392.74168513    
13 Jun 2022 08:48:32.669    13 Jun 2022 08:55:13.197      400.52745844    
13 Jun 2022 10:25:50.806    13 Jun 2022 10:33:14.469      443.66245569    
13 Jun 2022 23:56:17.232    14 Jun 2022 00:03:06.782      409.54940049    
14 Jun 2022 01:33:39.742    14 Jun 2022 01:40:51.013      431.27098291    
14 Jun 2022 08:11:56.823    14 Jun 2022 08:17:48.401      351.57739957    
14 Jun 2022 09:48:45.065    14 Jun 2022 09:56:35.448      470.38217912    
14 Jun 2022 23:19:55.614    14 Jun 2022 23:25:45.558      349.94394653    
15 Jun 2022 00:56:27.213    15 Jun 2022 01:04:06.633      459.42015820    
15 Jun 2022 07:35:27.440    15 Jun 2022 07:40:13.008      285.56834268    
15 Jun 2022 09:11:43.800    15 Jun 2022 09:19:48.887      485.08754438    
15 Jun 2022 22:43:51.915    15 Jun 2022 22:48:06.311      254.39645037    
16 Jun 2022 00:19:19.841    16 Jun 2022 00:27:18.086      478.24475655    
16 Jun 2022 06:59:11.944    16 Jun 2022 07:02:19.495      187.55071495    
16 Jun 2022 08:34:46.077    16 Jun 2022 08:42:55.576      489.49873078    
16 Jun 2022 23:42:17.383    16 Jun 2022 23:50:25.488      488.10465422    
17 Jun 2022 01:23:45.315    17 Jun 2022 01:25:17.821      92.505650490    
17 Jun 2022 07:57:51.368    17 Jun 2022 08:05:55.898      484.53069798    
17 Jun 2022 09:37:47.316    17 Jun 2022 09:40:33.023      165.70726228    
17 Jun 2022 23:05:19.845    17 Jun 2022 23:13:28.697      488.85208906    
18 Jun 2022 00:45:25.800    18 Jun 2022 00:49:24.303      238.50250306    
18 Jun 2022 07:20:59.417    18 Jun 2022 07:28:49.964      470.54760552    
18 Jun 2022 08:59:45.340    18 Jun 2022 09:04:49.337      303.99667136    
18 Jun 2022 22:28:27.484    18 Jun 2022 22:36:27.322      479.83863746    
19 Jun 2022 00:07:40.022    19 Jun 2022 00:12:58.608      318.58662630    
19 Jun 2022 06:44:10.215    19 Jun 2022 06:51:37.643      447.42773903    
19 Jun 2022 08:22:13.203    19 Jun 2022 08:28:33.295      380.09194611    
19 Jun 2022 21:51:40.884    19 Jun 2022 21:59:20.649      459.76502815    
19 Jun 2022 23:30:06.314    19 Jun 2022 23:36:22.335      376.02089283    
20 Jun 2022 06:07:24.042    20 Jun 2022 06:14:18.516      414.47400319    
20 Jun 2022 07:44:53.117    20 Jun 2022 07:52:02.552      429.43433557    
20 Jun 2022 21:15:01.161    20 Jun 2022 21:22:07.427      426.26575363    
20 Jun 2022 22:52:40.484    20 Jun 2022 22:59:39.586      419.10188149    
21 Jun 2022 05:30:41.642    21 Jun 2022 05:36:51.714      370.07211732    
21 Jun 2022 07:07:40.285    21 Jun 2022 07:15:21.768      461.48251909    
21 Jun 2022 20:38:30.523    21 Jun 2022 20:44:45.319      374.79577123    
21 Jun 2022 22:15:20.884    21 Jun 2022 22:22:51.904      451.02024400    
22 Jun 2022 04:54:04.740    22 Jun 2022 04:59:15.394      310.65396087    
22 Jun 2022 06:30:32.548    22 Jun 2022 06:38:32.963      480.41472378    
22 Jun 2022 20:02:14.185    22 Jun 2022 20:07:08.983      294.79788331    
22 Jun 2022 21:38:06.734    22 Jun 2022 21:45:59.950      473.21547006    
23 Jun 2022 04:17:38.088    23 Jun 2022 04:21:24.702      226.61375084    
23 Jun 2022 05:53:28.744    23 Jun 2022 06:01:37.161      488.41667193    
23 Jun 2022 19:26:34.257    23 Jun 2022 19:28:56.177      141.92001389    
23 Jun 2022 21:00:57.681    23 Jun 2022 21:09:03.952      486.27133492    
24 Jun 2022 03:41:55.607    24 Jun 2022 03:42:45.638      50.031773862    
24 Jun 2022 05:16:28.210    24 Jun 2022 05:24:34.882      486.67233700    
24 Jun 2022 06:57:26.068    24 Jun 2022 06:58:05.483      39.414648979    
24 Jun 2022 20:23:53.647    24 Jun 2022 20:32:03.858      490.21100627    
24 Jun 2022 22:04:20.669    24 Jun 2022 22:07:44.043      203.37408863    
25 Jun 2022 04:39:30.597    25 Jun 2022 04:47:26.333      475.73581132    
25 Jun 2022 06:18:34.964    25 Jun 2022 06:23:02.347      267.38350840    
25 Jun 2022 19:46:54.803    25 Jun 2022 19:54:59.363      484.56016718    
25 Jun 2022 21:26:23.580    25 Jun 2022 21:31:19.628      296.04872426    
26 Jun 2022 04:02:35.809    26 Jun 2022 04:10:11.466      455.65676173    
26 Jun 2022 05:40:51.394    26 Jun 2022 05:46:49.317      357.92381738    


Number of events : 246


Observer: Cape_Town
Start Time (UTC)            Stop Time (UTC)               Duration (s)         
27 Apr 2022 12:36:34.592    27 Apr 2022 12:41:42.459      307.86691824    
27 Apr 2022 15:55:16.657    27 Apr 2022 15:59:50.585      273.92763403    
27 Apr 2022 17:31:55.786    27 Apr 2022 17:40:03.475      487.68861563    
27 Apr 2022 19:10:23.118    27 Apr 2022 19:16:29.868      366.74988567    
28 Apr 2022 08:45:36.847    28 Apr 2022 08:48:55.733      198.88610502    
28 Apr 2022 10:20:21.742    28 Apr 2022 10:28:39.809      498.06712721    
28 Apr 2022 11:59:49.265    28 Apr 2022 12:05:35.356      346.09064095    
28 Apr 2022 15:19:12.227    28 Apr 2022 15:22:59.037      226.80986349    
28 Apr 2022 16:55:42.056    28 Apr 2022 17:03:36.528      474.47216241    
28 Apr 2022 18:33:45.217    28 Apr 2022 18:40:41.160      415.94333081    
29 Apr 2022 09:44:04.524    29 Apr 2022 09:52:20.783      496.25889673    
29 Apr 2022 11:23:06.105    29 Apr 2022 11:29:26.335      380.23050871    
29 Apr 2022 14:43:09.773    29 Apr 2022 14:46:02.205      172.43140762    
29 Apr 2022 16:19:28.752    29 Apr 2022 16:27:05.392      456.63920240    
29 Apr 2022 17:57:13.038    29 Apr 2022 18:04:43.457      450.41892553    
30 Apr 2022 09:07:50.622    30 Apr 2022 09:15:58.649      488.02715169    
30 Apr 2022 10:46:25.123    30 Apr 2022 10:53:15.477      410.35430239    
30 Apr 2022 14:07:13.320    30 Apr 2022 14:08:56.265      102.94514922    
30 Apr 2022 15:43:15.761    30 Apr 2022 15:50:30.170      434.40873338    
30 Apr 2022 17:20:44.619    30 Apr 2022 17:28:38.653      474.03456640    
01 May 2022 08:31:40.508    01 May 2022 08:39:32.885      472.37711021    
01 May 2022 10:09:46.379    01 May 2022 10:17:02.786      436.40684980    
01 May 2022 11:51:17.112    01 May 2022 11:53:06.999      109.88721955    
01 May 2022 15:07:03.004    01 May 2022 15:13:50.945      407.94012537    
01 May 2022 16:44:18.839    01 May 2022 16:52:27.805      488.96670226    
02 May 2022 07:55:34.893    02 May 2022 08:03:02.726      447.83377371    
02 May 2022 09:33:09.958    02 May 2022 09:40:48.213      458.25519897    
02 May 2022 11:14:10.628    02 May 2022 11:17:07.969      177.34087921    
02 May 2022 14:30:50.447    02 May 2022 14:37:07.778      377.33099372    
02 May 2022 16:07:54.977    02 May 2022 16:16:11.563      496.58570451    
03 May 2022 07:19:34.922    03 May 2022 07:26:26.962      412.03937642    
03 May 2022 08:56:35.963    03 May 2022 09:04:31.667      475.70410604    
03 May 2022 10:37:10.887    03 May 2022 10:41:01.967      231.08022795    
03 May 2022 13:54:38.102    03 May 2022 14:00:20.700      342.59748606    
03 May 2022 15:31:32.538    03 May 2022 15:39:50.355      497.81705282    
03 May 2022 17:11:10.243    03 May 2022 17:14:42.404      212.16137689    
04 May 2022 06:43:42.685    04 May 2022 06:49:43.438      360.75335594    
04 May 2022 08:20:04.519    04 May 2022 08:28:13.014      488.49520386    
04 May 2022 10:00:14.591    04 May 2022 10:04:52.489      277.89822581    
04 May 2022 13:18:26.067    04 May 2022 13:23:29.687      303.62066726    
04 May 2022 14:55:11.161    04 May 2022 15:03:24.477      493.31659506    
04 May 2022 16:34:00.947    04 May 2022 16:39:17.701      316.75476608    
05 May 2022 06:08:02.864    05 May 2022 06:12:47.399      284.53468052    
05 May 2022 07:43:35.779    05 May 2022 07:51:52.073      496.29414441    
05 May 2022 09:23:20.884    05 May 2022 09:28:40.555      319.67150336    
05 May 2022 12:42:14.583    05 May 2022 12:46:34.596      260.01230202    
05 May 2022 14:18:50.575    05 May 2022 14:26:54.140      483.56535482    
05 May 2022 15:57:09.863    05 May 2022 16:03:31.676      381.81304357    
06 May 2022 05:32:53.825    06 May 2022 05:35:20.409      146.58396874    
06 May 2022 07:07:09.939    06 May 2022 07:15:28.604      498.66516354    
06 May 2022 08:46:29.492    06 May 2022 08:52:26.567      357.07522543    
06 May 2022 12:06:04.232    06 May 2022 12:09:34.975      210.74276251    
06 May 2022 13:42:30.573    06 May 2022 13:50:19.498      468.92467219    
06 May 2022 15:20:27.300    06 May 2022 15:27:33.936      426.63532484    
07 May 2022 06:30:47.262    07 May 2022 06:39:02.290      495.02817675    
07 May 2022 08:09:40.348    07 May 2022 08:16:10.689      390.34198606    
07 May 2022 11:29:56.601    07 May 2022 11:32:29.399      152.79827256    
07 May 2022 13:06:10.998    07 May 2022 13:13:40.667      449.66926844    
07 May 2022 14:43:49.877    07 May 2022 14:51:27.777      457.89984798    
08 May 2022 05:54:28.114    08 May 2022 06:02:32.700      484.58663933    
08 May 2022 07:32:53.469    08 May 2022 07:39:52.971      419.50215435    
08 May 2022 09:15:01.011    08 May 2022 09:15:29.019      28.007748909    
08 May 2022 10:53:59.174    08 May 2022 10:55:10.578      71.403810172    
08 May 2022 12:29:51.734    08 May 2022 12:36:57.740      426.00606509    
08 May 2022 14:07:15.898    08 May 2022 14:15:14.806      478.90734222    
09 May 2022 05:18:13.030    09 May 2022 05:25:59.229      466.19971149    
09 May 2022 06:56:08.914    09 May 2022 07:03:33.389      444.47563682    
09 May 2022 08:37:28.349    09 May 2022 08:39:43.513      135.16422738    
09 May 2022 11:53:32.703    09 May 2022 12:00:10.785      398.08125647    
09 May 2022 13:30:44.359    09 May 2022 13:38:55.941      491.58280750    
10 May 2022 04:42:02.838    10 May 2022 04:49:20.973      438.13481487    
10 May 2022 06:19:26.767    10 May 2022 06:27:11.875      465.10802340    
10 May 2022 08:00:18.178    10 May 2022 08:03:35.145      196.96695461    
10 May 2022 11:17:13.876    10 May 2022 11:23:19.850      365.97385701    
10 May 2022 12:54:14.597    10 May 2022 13:02:31.760      497.16308018    
10 May 2022 14:35:12.999    10 May 2022 14:35:53.694      40.694309107    
11 May 2022 04:05:58.935    11 May 2022 04:12:36.457      397.52184899    
11 May 2022 05:42:47.135    11 May 2022 05:50:48.315      481.18097547    
11 May 2022 07:23:13.111    11 May 2022 07:27:21.516      248.40421962    
11 May 2022 10:40:55.281    11 May 2022 10:46:24.948      329.66745630    
11 May 2022 12:17:46.149    11 May 2022 12:26:02.644      496.49467673    
11 May 2022 13:57:04.104    11 May 2022 14:01:18.006      253.90221648    
12 May 2022 03:30:04.020    12 May 2022 03:35:42.900      338.87993305    
12 May 2022 05:06:10.146    12 May 2022 05:14:22.554      492.40735198    
12 May 2022 06:46:11.125    12 May 2022 06:51:04.832      293.70693042    
12 May 2022 10:04:37.047    12 May 2022 10:09:26.024      288.97671285    
12 May 2022 11:41:18.676    12 May 2022 11:49:28.859      490.18305461    
12 May 2022 13:19:56.336    12 May 2022 13:25:38.077      341.74077550    
13 May 2022 02:54:24.979    13 May 2022 02:58:33.342      248.36331918    
13 May 2022 04:29:35.970    13 May 2022 04:37:54.383      498.41389095    
13 May 2022 06:09:11.629    13 May 2022 06:14:45.833      334.20355276    
13 May 2022 09:28:19.501    13 May 2022 09:32:22.860      243.35834387    
13 May 2022 11:04:51.922    13 May 2022 11:12:50.597      478.67519106    
13 May 2022 12:43:02.183    13 May 2022 12:49:41.335      399.15248476    
14 May 2022 03:53:04.825    14 May 2022 04:01:23.535      498.70947719    
14 May 2022 05:32:14.443    14 May 2022 05:38:24.820      370.37707851    
14 May 2022 08:52:03.447    14 May 2022 08:55:14.793      191.34606627    
14 May 2022 10:28:25.694    14 May 2022 10:36:08.002      462.30821649    
14 May 2022 12:06:15.159    14 May 2022 12:13:34.177      439.01815504    
15 May 2022 03:16:37.015    15 May 2022 03:24:49.647      492.63186136    
15 May 2022 04:55:19.539    15 May 2022 05:02:01.912      402.37300076    
15 May 2022 08:15:51.373    15 May 2022 08:17:59.518      128.14485506    
15 May 2022 09:51:59.845    15 May 2022 09:59:21.184      441.33844930    
15 May 2022 11:29:32.619    15 May 2022 11:37:19.162      466.54281401    
16 May 2022 02:40:12.970    16 May 2022 02:48:12.226      479.25635775    
16 May 2022 04:18:26.957    16 May 2022 04:25:37.130      430.17316335    
16 May 2022 06:00:07.536    16 May 2022 06:01:34.150      86.614350218    
16 May 2022 09:15:34.275    16 May 2022 09:22:30.232      415.95687460    
16 May 2022 10:52:53.149    16 May 2022 11:00:57.621      484.47175550    
17 May 2022 02:03:53.334    17 May 2022 02:11:30.562      457.22857823    
17 May 2022 03:41:36.773    17 May 2022 03:49:10.437      453.66381118    
17 May 2022 05:22:43.889    17 May 2022 05:25:26.419      162.53011446    
17 May 2022 08:39:08.923    17 May 2022 08:45:35.215      386.29226860    
17 May 2022 10:16:15.879    17 May 2022 10:24:30.344      494.46528533    
18 May 2022 01:27:39.135    18 May 2022 01:34:43.559      424.42446408    
18 May 2022 03:04:49.088    18 May 2022 03:12:41.749      472.66104142    
18 May 2022 04:45:29.602    18 May 2022 04:49:09.060      219.45827580    
18 May 2022 08:02:43.783    18 May 2022 08:08:36.181      352.39818539    
18 May 2022 09:39:40.225    18 May 2022 09:47:57.840      497.61507588    
18 May 2022 11:19:37.985    18 May 2022 11:22:24.664      166.67911346    
19 May 2022 00:51:32.189    19 May 2022 00:57:49.333      377.14362581    
19 May 2022 02:28:04.025    19 May 2022 02:36:10.940      486.91487334    
19 May 2022 04:08:19.291    19 May 2022 04:12:47.677      268.38653146    
19 May 2022 07:26:18.920    19 May 2022 07:31:33.132      314.21127850    
19 May 2022 09:03:05.776    19 May 2022 09:11:20.457      494.68024689    
19 May 2022 10:42:04.738    19 May 2022 10:46:59.405      294.66732679    
20 May 2022 00:15:36.334    20 May 2022 00:20:43.980      307.64617757    
20 May 2022 01:51:21.739    20 May 2022 01:59:37.838      496.09910643    
20 May 2022 03:31:11.783    20 May 2022 03:36:23.633      311.85064015    
20 May 2022 06:49:54.532    20 May 2022 06:54:25.977      271.44502139    
20 May 2022 08:26:32.229    20 May 2022 08:34:38.439      486.21004979    
20 May 2022 10:04:57.182    20 May 2022 10:11:05.307      368.12495710    
20 May 2022 23:40:03.844    20 May 2022 23:43:15.163      191.31846697    
21 May 2022 01:14:42.429    21 May 2022 01:23:02.217      499.78781983    
21 May 2022 02:54:06.722    21 May 2022 02:59:57.443      350.72065255    
21 May 2022 06:13:31.088    21 May 2022 06:17:14.391      223.30312268    
21 May 2022 07:49:59.357    21 May 2022 07:57:51.971      472.61340130    
21 May 2022 09:27:59.915    21 May 2022 09:34:57.701      417.78581352    
22 May 2022 00:38:06.360    22 May 2022 00:46:23.775      497.41448573    
22 May 2022 02:17:04.020    22 May 2022 02:23:29.321      385.30115015    
22 May 2022 05:37:09.809    22 May 2022 05:39:57.330      167.52109586    
22 May 2022 07:13:26.993    22 May 2022 07:21:01.193      454.20023706    
22 May 2022 08:51:08.573    22 May 2022 08:58:40.877      452.30431751    
23 May 2022 00:01:33.896    23 May 2022 00:09:42.099      488.20301575    
23 May 2022 01:40:03.695    23 May 2022 01:46:59.346      415.65133285    
23 May 2022 05:00:55.380    23 May 2022 05:02:30.326      94.945964590    
23 May 2022 06:36:55.012    23 May 2022 06:44:06.218      431.20568547    
23 May 2022 08:14:21.129    23 May 2022 08:22:16.793      475.66415956    
23 May 2022 23:25:05.565    23 May 2022 23:32:56.612      471.04620407    
24 May 2022 01:03:05.815    24 May 2022 01:10:27.518      441.70236901    
24 May 2022 02:44:28.591    24 May 2022 02:46:35.250      126.65824292    
24 May 2022 06:00:23.336    24 May 2022 06:07:07.137      403.80117868    
24 May 2022 07:37:36.429    24 May 2022 07:45:46.532      490.10257011    
24 May 2022 22:48:42.175    24 May 2022 22:56:06.448      444.27288350    
25 May 2022 00:26:10.478    25 May 2022 00:33:53.781      463.30338152    
25 May 2022 02:07:04.427    25 May 2022 02:10:15.352      190.92528331    
25 May 2022 05:23:51.930    25 May 2022 05:30:04.022      372.09188137    
25 May 2022 07:00:53.739    25 May 2022 07:09:10.763      497.02377201    
25 May 2022 22:12:25.067    25 May 2022 22:19:10.210      405.14229460    
25 May 2022 23:49:17.801    25 May 2022 23:57:18.037      480.23596513    
26 May 2022 01:29:45.972    26 May 2022 01:33:49.718      243.74610517    
26 May 2022 04:47:20.820    26 May 2022 04:52:56.913      336.09358601    
26 May 2022 06:24:12.556    26 May 2022 06:32:29.929      497.37390841    
26 May 2022 08:03:37.264    26 May 2022 08:07:35.111      237.84631351    
26 May 2022 21:36:16.782    26 May 2022 21:42:05.295      348.51324210    
26 May 2022 23:12:27.929    26 May 2022 23:20:40.140      492.21106457    
27 May 2022 00:52:30.844    27 May 2022 00:57:20.953      290.10847629    
27 May 2022 04:10:50.121    27 May 2022 04:15:45.790      295.66876221    
27 May 2022 05:47:32.515    27 May 2022 05:55:44.338      491.82240022    
27 May 2022 07:26:13.510    27 May 2022 07:31:46.949      333.43968551    
27 May 2022 21:00:23.526    27 May 2022 21:04:45.434      261.90723995    
27 May 2022 22:35:41.041    27 May 2022 22:43:59.893      498.85217815    
28 May 2022 00:15:18.392    28 May 2022 00:20:49.890      331.49771600    
28 May 2022 03:34:20.128    28 May 2022 03:38:30.489      250.36152644    
28 May 2022 05:10:53.350    28 May 2022 05:18:54.210      480.85983836    
28 May 2022 06:49:05.494    28 May 2022 06:55:39.968      394.47343179    
28 May 2022 20:25:23.497    28 May 2022 20:26:32.369      68.872466404    
28 May 2022 21:58:57.368    28 May 2022 22:07:17.032      499.66340797    
28 May 2022 23:38:08.426    28 May 2022 23:44:16.867      368.44138914    
29 May 2022 02:57:51.551    29 May 2022 03:01:10.466      198.91529070    
29 May 2022 04:34:14.858    29 May 2022 04:41:59.713      464.85473255    
29 May 2022 06:12:05.395    29 May 2022 06:19:21.916      436.52144980    
29 May 2022 21:22:17.223    29 May 2022 21:30:31.199      493.97525454    
29 May 2022 23:01:00.924    29 May 2022 23:07:42.021      401.09717661    
30 May 2022 02:21:26.487    30 May 2022 02:23:43.827      137.34024216    
30 May 2022 03:57:36.889    30 May 2022 04:05:00.976      444.08724090    
30 May 2022 05:35:10.227    30 May 2022 05:42:55.707      465.48076925    
30 May 2022 20:45:41.048    30 May 2022 20:53:41.899      480.85140637    
30 May 2022 22:23:55.935    30 May 2022 22:31:05.382      429.44774515    
31 May 2022 00:05:36.227    31 May 2022 00:07:02.084      85.857051658    
31 May 2022 01:45:19.979    31 May 2022 01:45:55.766      35.787027085    
31 May 2022 03:20:59.336    31 May 2022 03:27:58.104      418.76764818    
31 May 2022 04:58:18.440    31 May 2022 05:06:22.814      484.37398489    
31 May 2022 20:09:09.498    31 May 2022 20:16:48.416      458.91768532    
31 May 2022 21:46:53.542    31 May 2022 21:54:26.917      453.37553322    
31 May 2022 23:28:00.248    31 May 2022 23:30:42.538      162.28949422    
01 Jun 2022 02:44:22.136    01 Jun 2022 02:50:51.178      389.04162347    
01 Jun 2022 04:21:29.098    01 Jun 2022 04:29:44.098      494.99928968    
01 Jun 2022 19:32:43.620    01 Jun 2022 19:39:49.634      426.01370593    
01 Jun 2022 21:09:53.851    01 Jun 2022 21:17:46.541      472.69030034    
01 Jun 2022 22:50:33.814    01 Jun 2022 22:54:13.435      219.62083055    
02 Jun 2022 02:07:45.276    02 Jun 2022 02:13:40.255      354.97895462    
02 Jun 2022 03:44:41.581    02 Jun 2022 03:53:00.107      498.52640448    
02 Jun 2022 05:24:40.891    02 Jun 2022 05:27:23.529      162.63784622    
02 Jun 2022 18:56:25.267    02 Jun 2022 19:02:43.631      378.36367175    
02 Jun 2022 20:32:56.992    02 Jun 2022 20:41:04.125      487.13340213    
02 Jun 2022 22:13:11.503    02 Jun 2022 22:17:40.427      268.92430923    
03 Jun 2022 01:31:08.816    03 Jun 2022 01:36:25.350      316.53349798    
03 Jun 2022 03:07:55.448    03 Jun 2022 03:16:11.211      495.76265150    
03 Jun 2022 04:46:54.223    03 Jun 2022 04:51:48.695      294.47251952    
03 Jun 2022 18:20:18.371    03 Jun 2022 18:25:26.400      308.02845616    
03 Jun 2022 19:56:03.121    03 Jun 2022 20:04:19.488      496.36684757    
03 Jun 2022 21:35:52.154    03 Jun 2022 21:41:04.872      312.71823723    
04 Jun 2022 00:54:32.942    04 Jun 2022 00:59:06.381      273.43890643    
04 Jun 2022 02:31:10.380    04 Jun 2022 02:39:17.669      487.28900347    
04 Jun 2022 04:09:34.632    04 Jun 2022 04:15:43.801      369.16871779    
04 Jun 2022 17:44:35.702    04 Jun 2022 17:47:45.097      189.39548781    
04 Jun 2022 19:19:12.441    04 Jun 2022 19:27:32.389      499.94806652    
04 Jun 2022 20:58:35.420    04 Jun 2022 21:04:27.273      351.85301037    
05 Jun 2022 00:17:58.108    05 Jun 2022 00:21:43.034      224.92570491    
05 Jun 2022 01:54:26.133    05 Jun 2022 02:02:19.670      473.53632428    
05 Jun 2022 03:32:25.738    05 Jun 2022 03:39:25.143      419.40475150    
05 Jun 2022 18:42:25.221    05 Jun 2022 18:50:42.507      497.28596883    
05 Jun 2022 20:21:21.217    05 Jun 2022 20:27:47.833      386.61633016    
05 Jun 2022 23:41:25.515    05 Jun 2022 23:44:14.290      168.77467643    
06 Jun 2022 01:17:42.526    06 Jun 2022 01:25:17.356      454.83030430    
06 Jun 2022 02:55:23.013    06 Jun 2022 03:02:57.163      454.15034608    
06 Jun 2022 18:05:41.837    06 Jun 2022 18:13:49.403      487.56637730    
06 Jun 2022 19:44:09.565    06 Jun 2022 19:51:06.618      417.05280226    
06 Jun 2022 21:26:24.672    06 Jun 2022 21:26:34.117      9.4459640910    
06 Jun 2022 23:04:59.766    06 Jun 2022 23:06:35.757      95.990959299    
07 Jun 2022 00:40:59.423    07 Jun 2022 00:48:10.841      431.41754908    
07 Jun 2022 02:18:24.364    07 Jun 2022 02:26:21.867      477.50287356    
07 Jun 2022 17:29:02.839    07 Jun 2022 17:36:52.458      469.61941671    
07 Jun 2022 19:07:00.533    07 Jun 2022 19:14:23.613      443.08018164    
07 Jun 2022 20:48:19.948    07 Jun 2022 20:50:32.475      132.52751241    
08 Jun 2022 00:04:16.735    08 Jun 2022 00:11:00.212      403.47749619    
08 Jun 2022 01:41:28.603    08 Jun 2022 01:49:40.357      491.75397812    
08 Jun 2022 16:52:29.079    08 Jun 2022 16:59:50.741      441.66206924    
08 Jun 2022 18:29:54.214    08 Jun 2022 18:37:38.748      464.53401317    
08 Jun 2022 20:10:45.134    08 Jun 2022 20:14:00.854      195.71935904    
08 Jun 2022 23:27:34.418    08 Jun 2022 23:33:45.538      371.11945907    
09 Jun 2022 01:04:34.969    09 Jun 2022 01:12:53.307      498.33800466    
09 Jun 2022 16:16:02.003    09 Jun 2022 16:22:42.731      400.72793261    
09 Jun 2022 17:52:50.727    09 Jun 2022 18:00:51.907      481.18058791    
09 Jun 2022 19:33:15.763    09 Jun 2022 19:37:23.965      248.20282575    
09 Jun 2022 22:50:52.494    09 Jun 2022 22:56:26.851      334.35714558    
10 Jun 2022 00:27:42.941    10 Jun 2022 00:36:01.161      498.21921978    
10 Jun 2022 02:07:01.915    10 Jun 2022 02:11:11.851      249.93538179    
10 Jun 2022 15:39:44.419    10 Jun 2022 15:45:25.536      341.11663353    
10 Jun 2022 17:15:50.214    10 Jun 2022 17:24:02.926      492.71182251    
10 Jun 2022 18:55:49.732    10 Jun 2022 19:00:44.121      294.38944281    
10 Jun 2022 22:14:11.082    10 Jun 2022 22:19:04.120      293.03765724    
10 Jun 2022 23:50:52.144    10 Jun 2022 23:59:04.222      492.07846810    
11 Jun 2022 01:29:29.038    11 Jun 2022 01:35:10.954      341.91629476    
11 Jun 2022 15:03:43.584    11 Jun 2022 15:07:51.824      248.24001939    
11 Jun 2022 16:38:52.860    11 Jun 2022 16:47:11.586      498.72565783    
11 Jun 2022 18:18:26.460    11 Jun 2022 18:24:02.076      335.61556104    
11 Jun 2022 21:37:30.501    11 Jun 2022 21:41:37.156      246.65528554    
11 Jun 2022 23:14:02.297    11 Jun 2022 23:22:02.711      480.41364723    
12 Jun 2022 00:52:11.011    12 Jun 2022 00:58:52.177      401.16659071    
12 Jun 2022 16:01:58.907    12 Jun 2022 16:10:17.596      498.68974535    
12 Jun 2022 17:41:05.784    12 Jun 2022 17:47:18.130      372.34603880    
12 Jun 2022 21:00:51.541    12 Jun 2022 21:04:05.332      193.79122281    
12 Jun 2022 22:37:13.193    12 Jun 2022 22:44:56.791      463.59771236    
13 Jun 2022 00:15:00.683    13 Jun 2022 00:22:22.583      441.90033835    
13 Jun 2022 15:25:08.687    13 Jun 2022 15:33:20.567      491.87976765    
13 Jun 2022 17:03:47.695    13 Jun 2022 17:10:32.399      404.70376412    
13 Jun 2022 20:24:16.667    13 Jun 2022 20:26:26.392      129.72523053    
13 Jun 2022 22:00:24.676    13 Jun 2022 22:07:46.589      441.91282194    
13 Jun 2022 23:37:55.219    13 Jun 2022 23:45:44.923      469.70366396    
14 Jun 2022 14:48:22.680    14 Jun 2022 14:56:19.952      477.27206298    
14 Jun 2022 16:26:32.249    14 Jun 2022 16:33:44.896      432.64737166    
14 Jun 2022 18:08:05.411    14 Jun 2022 18:09:45.125      99.713729415    
14 Jun 2022 21:23:36.639    14 Jun 2022 21:30:32.208      415.56840639    
14 Jun 2022 23:00:53.124    14 Jun 2022 23:09:00.609      487.48564072    
15 Jun 2022 14:11:41.615    15 Jun 2022 14:19:14.958      453.34257191    
15 Jun 2022 15:49:19.537    15 Jun 2022 15:56:55.576      456.03889385    
15 Jun 2022 17:30:20.857    15 Jun 2022 17:33:12.631      171.77430686    
15 Jun 2022 20:46:49.024    15 Jun 2022 20:53:13.729      384.70466469    
15 Jun 2022 22:23:53.484    15 Jun 2022 22:32:10.476      496.99202806    
16 Jun 2022 13:35:06.679    16 Jun 2022 13:42:04.324      417.64483033    
16 Jun 2022 15:12:09.674    16 Jun 2022 15:20:04.341      474.66722459    
16 Jun 2022 16:52:44.330    16 Jun 2022 16:56:32.264      227.93428092    
16 Jun 2022 20:10:01.830    16 Jun 2022 20:15:51.207      349.37680549    
16 Jun 2022 21:46:55.694    16 Jun 2022 21:55:15.058      499.36441323    
16 Jun 2022 23:26:38.726    16 Jun 2022 23:29:55.784      197.05797831    
17 Jun 2022 12:58:40.048    17 Jun 2022 13:04:45.805      365.75685362    
17 Jun 2022 14:35:02.801    17 Jun 2022 14:43:11.050      488.24912355    
17 Jun 2022 16:15:11.746    17 Jun 2022 16:19:48.344      276.59829729    
17 Jun 2022 19:33:15.141    17 Jun 2022 19:38:24.645      309.50390361    
17 Jun 2022 21:09:59.324    17 Jun 2022 21:18:14.718      495.39330597    
17 Jun 2022 22:48:49.423    17 Jun 2022 22:54:02.195      312.77200221    
18 Jun 2022 12:22:26.649    18 Jun 2022 12:27:14.403      287.75386160    
18 Jun 2022 13:57:59.092    18 Jun 2022 14:06:15.506      496.41467157    
18 Jun 2022 15:37:42.154    18 Jun 2022 15:43:02.026      319.87155634    
18 Jun 2022 18:56:29.196    18 Jun 2022 19:00:53.931      264.73495073    
18 Jun 2022 20:33:04.064    18 Jun 2022 20:41:09.713      485.64868817    
18 Jun 2022 22:11:21.857    18 Jun 2022 22:17:43.921      382.06372743    
19 Jun 2022 11:46:46.365    19 Jun 2022 11:49:10.167      143.80166576    
19 Jun 2022 13:20:58.774    19 Jun 2022 13:29:17.451      498.67699774    
19 Jun 2022 15:00:15.280    19 Jun 2022 15:06:13.749      358.46916998    
19 Jun 2022 18:19:44.578    19 Jun 2022 18:23:18.648      214.07050767    
19 Jun 2022 19:56:09.682    19 Jun 2022 20:04:00.235      470.55336137    
19 Jun 2022 21:34:03.966    19 Jun 2022 21:41:12.951      428.98489782    
20 Jun 2022 12:44:02.152    20 Jun 2022 12:52:16.532      494.38004672    
20 Jun 2022 14:22:51.074    20 Jun 2022 14:29:23.691      392.61712491    
20 Jun 2022 17:43:02.905    20 Jun 2022 17:45:37.385      154.47929091    
20 Jun 2022 19:19:16.006    20 Jun 2022 19:26:46.432      450.42589718    
20 Jun 2022 20:56:51.877    20 Jun 2022 21:04:33.082      461.20478598    
21 Jun 2022 12:07:09.658    21 Jun 2022 12:15:12.266      482.60877400    
21 Jun 2022 13:45:29.580    21 Jun 2022 13:52:31.904      422.32426645    
21 Jun 2022 15:27:20.791    21 Jun 2022 15:28:18.437      57.645631302    
21 Jun 2022 17:06:32.013    21 Jun 2022 17:07:42.556      70.542922919    
21 Jun 2022 18:42:22.916    21 Jun 2022 18:49:28.421      425.50461846    
21 Jun 2022 20:19:43.713    21 Jun 2022 20:27:46.114      482.40041477    
22 Jun 2022 11:30:21.929    22 Jun 2022 11:38:03.954      462.02540458    
22 Jun 2022 13:08:10.882    22 Jun 2022 13:15:38.364      447.48221721    
22 Jun 2022 14:49:22.403    22 Jun 2022 14:51:49.823      147.41982187    
22 Jun 2022 18:05:30.341    22 Jun 2022 18:12:06.297      395.95632018    
22 Jun 2022 19:42:38.385    22 Jun 2022 19:50:53.065      494.68031729    
23 Jun 2022 10:53:39.980    23 Jun 2022 11:00:50.519      430.53951779    
23 Jun 2022 12:30:55.092    23 Jun 2022 12:38:42.994      467.90245478    
23 Jun 2022 14:11:38.650    23 Jun 2022 14:15:06.778      208.12782937    
23 Jun 2022 17:28:38.261    23 Jun 2022 17:34:40.129      361.86728730    
23 Jun 2022 19:05:35.188    23 Jun 2022 19:13:54.572      499.38421579    
23 Jun 2022 20:45:50.656    23 Jun 2022 20:47:57.614      126.95814102    
24 Jun 2022 10:17:05.584    24 Jun 2022 10:23:30.119      384.53513137    
24 Jun 2022 11:53:42.345    24 Jun 2022 12:01:45.669      483.32432534    
24 Jun 2022 13:33:59.821    24 Jun 2022 13:38:19.270      259.44977301    
24 Jun 2022 16:51:46.736    24 Jun 2022 16:57:09.941      323.20478924    
24 Jun 2022 18:28:33.634    24 Jun 2022 18:36:51.056      497.42154601    
24 Jun 2022 20:07:37.629    24 Jun 2022 20:12:19.259      281.62976140    
25 Jun 2022 09:40:42.432    25 Jun 2022 09:45:58.992      316.55999810    
25 Jun 2022 11:16:32.806    25 Jun 2022 11:24:46.211      493.40533270    
25 Jun 2022 12:56:24.334    25 Jun 2022 13:01:29.101      304.76745903    
25 Jun 2022 16:14:55.951    25 Jun 2022 16:19:35.665      279.71400723    
25 Jun 2022 17:51:33.374    25 Jun 2022 17:59:42.813      489.43849927    
25 Jun 2022 19:30:00.203    25 Jun 2022 19:36:02.493      362.28975879    
26 Jun 2022 09:04:41.841    26 Jun 2022 09:08:05.753      203.91204776    
26 Jun 2022 10:39:26.684    26 Jun 2022 10:47:44.380      497.69579298    


Number of events : 341


Observer: Hawaii
Start Time (UTC)            Stop Time (UTC)               Duration (s)         
27 Apr 2022 18:24:28.054    27 Apr 2022 18:32:30.740      482.68544924    
27 Apr 2022 20:04:42.381    27 Apr 2022 20:07:01.235      138.85315137    
28 Apr 2022 07:53:26.186    28 Apr 2022 07:59:29.677      363.49048811    
28 Apr 2022 09:30:18.563    28 Apr 2022 09:37:39.617      441.05382030    
28 Apr 2022 17:48:18.774    28 Apr 2022 17:56:02.645      463.87148219    
28 Apr 2022 19:27:10.514    28 Apr 2022 19:32:04.873      294.35959171    
29 Apr 2022 07:17:56.027    29 Apr 2022 07:22:30.264      274.23630076    
29 Apr 2022 08:53:44.791    29 Apr 2022 09:01:33.361      468.56994355    
29 Apr 2022 17:12:13.151    29 Apr 2022 17:19:27.235      434.08468879    
29 Apr 2022 18:50:14.585    29 Apr 2022 18:56:30.261      375.67581134    
30 Apr 2022 06:43:22.055    30 Apr 2022 06:44:33.591      71.535502968    
30 Apr 2022 08:17:16.500    30 Apr 2022 08:25:21.880      485.37920632    
30 Apr 2022 16:36:12.063    30 Apr 2022 16:42:43.455      391.39190085    
30 Apr 2022 18:13:31.807    30 Apr 2022 18:20:40.031      428.22425991    
01 May 2022 07:40:53.304    01 May 2022 07:49:05.399      492.09496934    
01 May 2022 16:00:17.533    01 May 2022 16:05:49.103      331.56938944    
01 May 2022 17:36:56.830    01 May 2022 17:44:39.376      462.54609113    
02 May 2022 07:04:35.156    02 May 2022 07:12:43.802      488.64691076    
02 May 2022 08:45:09.921    02 May 2022 08:48:01.387      171.46614493    
02 May 2022 15:24:35.090    02 May 2022 15:28:38.463      243.37315501    
02 May 2022 17:00:27.355    02 May 2022 17:08:30.433      483.07774651    
03 May 2022 06:28:22.342    03 May 2022 06:36:16.640      474.29806452    
03 May 2022 08:07:43.204    03 May 2022 08:12:32.474      289.27047917    
03 May 2022 14:49:47.454    03 May 2022 14:50:28.629      41.175043210    
03 May 2022 16:24:02.193    03 May 2022 16:32:14.221      492.02806510    
04 May 2022 05:52:15.592    04 May 2022 05:59:43.016      447.42382038    
04 May 2022 07:30:39.619    04 May 2022 07:36:41.434      361.81473748    
04 May 2022 15:47:40.715    04 May 2022 15:55:51.196      490.48114442    
05 May 2022 05:16:16.412    05 May 2022 05:23:01.261      404.84926474    
05 May 2022 06:53:47.193    05 May 2022 07:00:40.063      412.86917478    
05 May 2022 15:11:22.658    05 May 2022 15:19:21.437      478.77886902    
05 May 2022 16:51:04.223    05 May 2022 16:54:26.413      202.18998439    
06 May 2022 04:40:28.088    06 May 2022 04:46:07.918      339.82917384    
06 May 2022 06:17:02.462    06 May 2022 06:24:31.638      449.17578860    
06 May 2022 14:35:08.087    06 May 2022 14:42:44.692      456.60445103    
06 May 2022 16:13:42.561    06 May 2022 16:19:06.381      323.82060012    
07 May 2022 04:05:00.273    07 May 2022 04:08:53.163      232.88956705    
07 May 2022 05:40:23.910    07 May 2022 05:48:17.490      473.58064391    
07 May 2022 13:58:57.468    07 May 2022 14:06:00.298      422.83003436    
07 May 2022 15:36:45.022    07 May 2022 15:43:19.902      394.87950923    
08 May 2022 05:03:50.802    08 May 2022 05:11:58.166      487.36406278    
08 May 2022 13:22:51.949    08 May 2022 13:29:06.905      374.95571806    
08 May 2022 14:59:58.561    08 May 2022 15:07:19.841      441.28026653    
09 May 2022 04:27:22.847    09 May 2022 04:35:33.774      490.92712213    
09 May 2022 12:46:54.275    09 May 2022 12:52:01.565      307.28974562    
09 May 2022 14:23:19.108    09 May 2022 14:31:10.089      470.98079757    
10 May 2022 03:51:00.091    10 May 2022 03:59:04.081      483.99021673    
10 May 2022 05:31:06.690    10 May 2022 05:34:43.521      216.83095746    
10 May 2022 12:11:13.165    10 May 2022 12:14:35.354      202.18932400    
10 May 2022 13:46:44.776    10 May 2022 13:54:52.349      487.57229189    
11 May 2022 03:14:42.953    11 May 2022 03:22:28.491      465.53821022    
11 May 2022 04:53:43.458    11 May 2022 04:58:58.724      315.26549854    
11 May 2022 13:10:14.570    11 May 2022 13:18:27.431      492.86135179    
12 May 2022 02:38:32.388    12 May 2022 02:45:45.866      433.47779992    
12 May 2022 04:16:37.558    12 May 2022 04:22:57.556      379.99776191    
12 May 2022 12:33:47.980    12 May 2022 12:41:55.655      487.67419205    
13 May 2022 02:02:30.392    13 May 2022 02:08:54.036      383.64485570    
13 May 2022 03:39:41.447    13 May 2022 03:46:47.366      425.91883054    
13 May 2022 11:57:24.854    13 May 2022 12:05:16.980      472.12649424    
13 May 2022 13:36:37.430    13 May 2022 13:40:53.377      255.94660604    
14 May 2022 01:26:41.674    14 May 2022 01:31:48.115      306.44113545    
14 May 2022 03:02:52.496    14 May 2022 03:10:30.591      458.09531469    
14 May 2022 11:21:05.386    14 May 2022 11:28:31.014      445.62761929    
14 May 2022 12:59:20.900    14 May 2022 13:05:14.665      353.76561001    
15 May 2022 00:51:24.425    15 May 2022 00:54:09.736      165.31144807    
15 May 2022 02:26:09.497    15 May 2022 02:34:08.251      478.75446479    
15 May 2022 10:44:50.264    15 May 2022 10:51:36.871      406.60646640    
15 May 2022 12:22:21.637    15 May 2022 12:29:16.257      414.61960848    
16 May 2022 01:49:31.883    16 May 2022 01:57:40.726      488.84272260    
16 May 2022 10:08:41.107    16 May 2022 10:14:32.730      351.62280329    
16 May 2022 11:45:31.644    16 May 2022 11:53:05.972      454.32763528    
17 May 2022 01:12:59.491    17 May 2022 01:21:07.997      488.50568868    
17 May 2022 02:54:09.852    17 May 2022 02:55:52.775      102.92307601    
17 May 2022 09:32:42.071    17 May 2022 09:37:14.235      272.16411702    
17 May 2022 11:08:47.891    17 May 2022 11:16:46.664      478.77330522    
18 May 2022 00:36:32.511    18 May 2022 00:44:29.700      477.18897810    
18 May 2022 02:16:10.558    18 May 2022 02:20:30.503      259.94530160    
18 May 2022 08:57:11.457    18 May 2022 08:59:22.886      131.42911984    
18 May 2022 10:32:08.885    18 May 2022 10:40:19.650      490.76565744    
19 May 2022 00:00:11.560    19 May 2022 00:07:45.043      453.48314240    
19 May 2022 01:38:48.918    19 May 2022 01:44:31.697      342.77883848    
19 May 2022 09:55:33.838    19 May 2022 10:03:45.539      491.70087195    
19 May 2022 23:23:57.962    19 May 2022 23:30:52.538      414.57666212    
20 May 2022 01:01:40.755    20 May 2022 01:08:20.356      399.60125709    
20 May 2022 09:19:02.393    20 May 2022 09:27:04.508      482.11475448    
20 May 2022 10:59:07.015    20 May 2022 11:01:42.645      155.62992871    
20 May 2022 22:47:54.558    20 May 2022 22:53:49.177      354.61936154    
21 May 2022 00:24:41.236    21 May 2022 00:32:01.131      439.89566015    
21 May 2022 08:42:34.544    21 May 2022 08:50:16.382      461.83858768    
21 May 2022 10:21:19.814    21 May 2022 10:26:23.330      303.51602904    
21 May 2022 22:12:09.057    21 May 2022 22:16:27.089      258.03203717    
21 May 2022 23:47:48.426    21 May 2022 23:55:35.777      467.35151543    
22 May 2022 08:06:10.684    22 May 2022 08:13:20.581      429.89697545    
22 May 2022 09:44:05.785    22 May 2022 09:50:28.571      382.78627808    
22 May 2022 23:11:01.414    22 May 2022 23:19:05.028      483.61380809    
23 May 2022 07:29:51.854    23 May 2022 07:36:15.878      384.02449902    
23 May 2022 09:07:04.698    23 May 2022 09:14:18.429      433.73162228    
23 May 2022 22:34:19.818    23 May 2022 22:42:29.096      489.27724360    
24 May 2022 06:53:40.516    24 May 2022 06:58:59.616      319.10016644    
24 May 2022 08:30:11.445    24 May 2022 08:37:57.847      466.40166737    
24 May 2022 21:57:43.631    24 May 2022 22:05:47.816      484.18509441    
24 May 2022 23:38:03.722    24 May 2022 23:41:14.436      190.71377269    
25 May 2022 06:17:44.057    25 May 2022 06:21:24.221      220.16344228    
25 May 2022 07:53:23.802    25 May 2022 08:01:28.881      485.07908819    
25 May 2022 21:21:13.226    25 May 2022 21:29:00.646      467.41988378    
25 May 2022 23:00:21.855    25 May 2022 23:05:23.001      301.14629298    
26 May 2022 07:16:40.625    26 May 2022 07:24:52.505      491.87960168    
26 May 2022 20:44:49.515    26 May 2022 20:52:06.513      436.99719060    
26 May 2022 22:23:00.956    26 May 2022 22:29:11.795      370.83932989    
27 May 2022 06:40:01.333    27 May 2022 06:48:09.125      487.79178659    
27 May 2022 20:08:34.403    27 May 2022 20:15:03.345      388.94249186    
27 May 2022 21:45:50.948    27 May 2022 21:52:50.713      419.76522782    
28 May 2022 06:03:25.730    28 May 2022 06:11:18.755      473.02458489    
28 May 2022 07:42:45.115    28 May 2022 07:46:45.593      240.47760990    
28 May 2022 19:32:32.328    28 May 2022 19:37:46.539      314.21134765    
28 May 2022 21:08:48.693    28 May 2022 21:16:22.711      454.01777790    
29 May 2022 05:26:53.991    29 May 2022 05:34:21.034      447.04239675    
29 May 2022 07:05:12.876    29 May 2022 07:10:58.588      345.71233004    
29 May 2022 18:56:59.391    29 May 2022 18:59:59.827      180.43655116    
29 May 2022 20:31:52.804    29 May 2022 20:39:48.993      476.18885748    
30 May 2022 04:50:26.792    30 May 2022 04:57:15.096      408.30375308    
30 May 2022 06:28:00.137    30 May 2022 06:34:49.845      409.70777194    
30 May 2022 19:55:02.636    30 May 2022 20:03:10.023      487.38745395    
31 May 2022 04:14:05.749    31 May 2022 04:19:59.124      353.37507357    
31 May 2022 05:50:57.471    31 May 2022 05:58:28.616      451.14561925    
31 May 2022 19:18:17.985    31 May 2022 19:26:25.822      487.83682287    
31 May 2022 20:59:39.100    31 May 2022 21:00:58.992      79.891782138    
01 Jun 2022 03:37:55.034    01 Jun 2022 03:42:28.749      273.71454866    
01 Jun 2022 05:14:01.510    01 Jun 2022 05:21:58.095      476.58524910    
01 Jun 2022 18:41:39.025    01 Jun 2022 18:49:36.038      477.01284718    
01 Jun 2022 20:21:19.324    01 Jun 2022 20:25:33.469      254.14559111    
02 Jun 2022 03:02:13.027    02 Jun 2022 03:04:25.385      132.35837168    
02 Jun 2022 04:37:10.631    02 Jun 2022 04:45:19.721      489.09011112    
02 Jun 2022 18:05:06.374    02 Jun 2022 18:12:39.871      453.49735193    
02 Jun 2022 19:43:44.476    02 Jun 2022 19:49:24.437      339.96084934    
03 Jun 2022 04:00:23.988    03 Jun 2022 04:08:34.156      490.16840409    
03 Jun 2022 17:28:41.380    03 Jun 2022 17:35:35.796      414.41607156    
03 Jun 2022 19:06:24.000    03 Jun 2022 19:13:02.260      398.25978001    
04 Jun 2022 03:23:41.195    04 Jun 2022 03:31:41.594      480.39951314    
04 Jun 2022 05:03:45.986    04 Jun 2022 05:06:17.857      151.87045120    
04 Jun 2022 16:52:26.975    04 Jun 2022 16:58:20.703      353.72745768    
04 Jun 2022 18:29:12.626    04 Jun 2022 18:36:32.012      439.38573345    
05 Jun 2022 02:47:02.239    05 Jun 2022 02:54:41.848      459.60938972    
05 Jun 2022 04:25:45.993    05 Jun 2022 04:30:48.760      302.76730171    
05 Jun 2022 16:16:31.241    05 Jun 2022 16:20:46.325      255.08414655    
05 Jun 2022 17:52:08.291    05 Jun 2022 17:59:55.555      467.26339418    
06 Jun 2022 02:10:27.537    06 Jun 2022 02:17:34.296      426.75905399    
06 Jun 2022 03:48:20.464    06 Jun 2022 03:54:43.094      382.63055573    
06 Jun 2022 17:15:10.034    06 Jun 2022 17:23:13.653      483.61949699    
07 Jun 2022 01:33:58.207    07 Jun 2022 01:40:17.612      379.40542172    
07 Jun 2022 03:11:08.237    07 Jun 2022 03:18:21.836      433.59920215    
07 Jun 2022 16:38:17.450    07 Jun 2022 16:46:26.516      489.06638991    
08 Jun 2022 00:57:36.962    08 Jun 2022 01:02:48.867      311.90517994    
08 Jun 2022 02:34:04.072    08 Jun 2022 02:41:50.035      465.96269557    
08 Jun 2022 16:01:30.534    08 Jun 2022 16:09:33.954      483.42052560    
08 Jun 2022 17:41:44.786    08 Jun 2022 17:45:03.867      199.08048513    
09 Jun 2022 00:21:32.414    09 Jun 2022 00:24:59.234      206.82050111    
09 Jun 2022 01:57:05.699    09 Jun 2022 02:05:09.772      484.07309511    
09 Jun 2022 15:24:49.688    09 Jun 2022 15:32:35.373      465.68498510    
09 Jun 2022 17:03:53.154    09 Jun 2022 17:09:00.261      307.10688099    
10 Jun 2022 01:20:11.955    10 Jun 2022 01:28:22.014      490.05938864    
10 Jun 2022 14:48:15.900    10 Jun 2022 14:55:29.601      433.70088323    
10 Jun 2022 16:26:21.855    10 Jun 2022 16:32:37.689      375.83431795    
11 Jun 2022 00:43:22.257    11 Jun 2022 00:51:27.146      484.88880652    
11 Jun 2022 14:11:51.268    11 Jun 2022 14:18:14.350      383.08230500    
11 Jun 2022 15:49:01.433    11 Jun 2022 15:56:05.407      423.97458156    
12 Jun 2022 00:06:36.431    12 Jun 2022 00:14:25.143      468.71145543    
12 Jun 2022 01:45:47.362    12 Jun 2022 01:49:59.857      252.49500159    
12 Jun 2022 13:35:40.866    12 Jun 2022 13:40:44.365      303.49912861    
12 Jun 2022 15:11:48.856    12 Jun 2022 15:19:26.244      457.38759813    
12 Jun 2022 23:29:54.701    12 Jun 2022 23:37:15.573      440.87177762    
13 Jun 2022 01:08:06.778    13 Jun 2022 01:13:59.661      352.88296292    
13 Jun 2022 13:00:05.645    13 Jun 2022 13:02:38.506      152.86082692    
13 Jun 2022 14:34:42.779    13 Jun 2022 14:42:41.344      478.56525967    
13 Jun 2022 22:53:17.859    13 Jun 2022 22:59:57.436      399.57702511    
14 Jun 2022 00:30:44.540    14 Jun 2022 00:37:38.920      414.38025653    
14 Jun 2022 13:57:42.588    14 Jun 2022 14:05:51.127      488.53908973    
14 Jun 2022 22:16:47.826    14 Jun 2022 22:22:28.601      340.77457770    
14 Jun 2022 23:53:32.112    15 Jun 2022 00:01:05.984      453.87274437    
15 Jun 2022 13:20:48.122    15 Jun 2022 13:28:55.563      487.44108126    
15 Jun 2022 15:01:43.287    15 Jun 2022 15:03:50.594      127.30699531    
15 Jun 2022 21:40:29.858    15 Jun 2022 21:44:43.601      253.74306928    
15 Jun 2022 23:16:26.326    15 Jun 2022 23:24:23.834      477.50749754    
16 Jun 2022 12:43:59.617    16 Jun 2022 12:51:54.228      474.61082528    
16 Jun 2022 14:23:27.606    16 Jun 2022 14:27:59.929      272.32217321    
16 Jun 2022 21:04:57.216    16 Jun 2022 21:06:08.965      71.748754301    
16 Jun 2022 22:39:25.648    16 Jun 2022 22:47:33.819      488.17184293    
17 Jun 2022 12:07:17.811    17 Jun 2022 12:14:46.203      448.39208673    
17 Jun 2022 13:45:44.900    17 Jun 2022 13:51:37.826      352.92681138    
17 Jun 2022 22:02:29.286    17 Jun 2022 22:10:36.541      487.25555968    
18 Jun 2022 11:30:44.296    18 Jun 2022 11:37:29.717      405.42056048    
18 Jun 2022 13:08:15.508    18 Jun 2022 13:15:03.753      408.24550084    
18 Jun 2022 21:25:36.914    18 Jun 2022 21:33:32.133      475.21847826    
18 Jun 2022 23:05:19.604    18 Jun 2022 23:08:30.751      191.14681827    
19 Jun 2022 10:54:22.652    19 Jun 2022 11:00:01.012      338.35960325    
19 Jun 2022 12:30:54.964    19 Jun 2022 12:38:21.981      447.01672958    
19 Jun 2022 20:48:48.605    19 Jun 2022 20:56:20.327      451.72132744    
19 Jun 2022 22:27:19.712    19 Jun 2022 22:32:40.574      320.86211687    
20 Jun 2022 10:18:23.885    20 Jun 2022 10:22:08.907      225.02233955    
20 Jun 2022 11:53:41.447    20 Jun 2022 12:01:34.137      472.69054834    
20 Jun 2022 20:12:04.922    20 Jun 2022 20:19:00.359      415.43762261    
20 Jun 2022 21:49:47.017    20 Jun 2022 21:56:21.151      394.13419731    
21 Jun 2022 11:16:34.113    21 Jun 2022 11:24:40.874      486.76162345    
21 Jun 2022 19:35:27.293    21 Jun 2022 19:41:30.596      363.30301993    
21 Jun 2022 21:12:26.432    21 Jun 2022 21:19:47.391      440.95886224    
22 Jun 2022 10:39:32.649    22 Jun 2022 10:47:42.317      489.66838731    
22 Jun 2022 18:58:59.349    22 Jun 2022 19:03:47.204      287.85463994    
22 Jun 2022 20:35:13.525    22 Jun 2022 20:43:03.545      470.01942429    
