GMAT/Constellation/Contact/ContactLocator14.txt

Target: HSEYE14

Observer: Bahrain
Start Time (UTC)            Stop Time (UTC)               Duration (s)         
27 Apr 2022 23:51:53.033    27 Apr 2022 23:57:18.898      325.86523894    
28 Apr 2022 01:27:59.884    28 Apr 2022 01:35:43.292      463.40810994    
28 Apr 2022 08:06:39.986    28 Apr 2022 08:11:00.678      260.69160174    
28 Apr 2022 09:42:35.958    28 Apr 2022 09:50:45.305      489.34691042    
28 Apr 2022 23:14:07.642    28 Apr 2022 23:17:11.147      183.50514936    
29 Apr 2022 00:48:47.235    29 Apr 2022 00:56:48.147      480.91229608    
29 Apr 2022 07:28:41.628    29 Apr 2022 07:30:33.375      111.74700471    
29 Apr 2022 09:03:33.307    29 Apr 2022 09:11:43.627      490.31956909    
30 Apr 2022 00:09:41.079    30 Apr 2022 00:17:47.394      486.31557911    
30 Apr 2022 01:50:06.515    30 Apr 2022 01:53:13.089      186.57483134    
30 Apr 2022 08:24:34.394    30 Apr 2022 08:32:33.356      478.96196499    
30 Apr 2022 10:03:30.038    30 Apr 2022 10:08:01.060      271.02226324    
30 Apr 2022 23:30:41.626    30 Apr 2022 23:38:40.607      478.98091165    
01 May 2022 01:09:58.335    01 May 2022 01:14:53.982      295.64691373    
01 May 2022 07:45:39.039    01 May 2022 07:53:14.444      455.40539328    
01 May 2022 09:23:40.152    01 May 2022 09:29:51.782      371.62960642    
01 May 2022 22:51:49.622    01 May 2022 22:59:26.828      457.20602096    
02 May 2022 00:30:10.461    02 May 2022 00:36:16.405      365.94342033    
02 May 2022 07:06:47.545    02 May 2022 07:13:46.367      418.82199560    
02 May 2022 08:44:08.696    02 May 2022 08:51:20.286      431.59046292    
02 May 2022 22:13:06.699    02 May 2022 22:20:04.212      417.51270031    
02 May 2022 23:50:33.640    02 May 2022 23:57:29.464      415.82332574    
03 May 2022 06:28:00.981    03 May 2022 06:34:07.850      366.86914359    
03 May 2022 08:04:47.008    03 May 2022 08:12:35.017      468.00928727    
03 May 2022 21:34:36.518    03 May 2022 21:40:28.888      352.36941084    
03 May 2022 23:11:05.091    03 May 2022 23:18:35.769      450.67827743    
04 May 2022 05:49:22.218    04 May 2022 05:54:15.834      293.61643384    
04 May 2022 07:25:31.799    04 May 2022 07:33:39.043      487.24411492    
04 May 2022 20:56:30.099    04 May 2022 21:00:29.634      239.53495603    
04 May 2022 22:31:43.667    04 May 2022 22:39:36.274      472.60633536    
05 May 2022 05:11:01.682    05 May 2022 05:13:59.742      178.06072544    
05 May 2022 06:46:21.458    05 May 2022 06:54:33.756      492.29800712    
05 May 2022 21:52:28.946    05 May 2022 22:00:31.198      482.25217892    
05 May 2022 23:33:31.387    05 May 2022 23:35:25.896      114.50963557    
06 May 2022 06:07:15.158    06 May 2022 06:15:19.759      484.60075833    
06 May 2022 07:46:35.324    06 May 2022 07:50:17.462      222.13843722    
06 May 2022 21:13:20.989    06 May 2022 21:21:20.272      479.28355724    
06 May 2022 22:52:58.435    06 May 2022 22:57:18.380      259.94514978    
07 May 2022 05:28:12.578    07 May 2022 05:35:57.150      464.57165756    
07 May 2022 07:06:28.027    07 May 2022 07:12:14.269      346.24190120    
07 May 2022 20:34:20.358    07 May 2022 20:42:02.720      462.36222350    
07 May 2022 22:12:58.604    07 May 2022 22:18:39.811      341.20690349    
08 May 2022 04:49:13.866    08 May 2022 04:56:25.563      431.69737053    
08 May 2022 06:26:45.983    08 May 2022 06:33:42.241      416.25713637    
08 May 2022 19:55:28.373    08 May 2022 20:02:37.010      428.63713611    
08 May 2022 21:33:12.124    08 May 2022 21:39:49.826      397.70135541    
09 May 2022 04:10:19.824    09 May 2022 04:16:43.985      384.16069918    
09 May 2022 05:47:15.682    09 May 2022 05:54:54.674      458.99177149    
09 May 2022 19:16:47.922    09 May 2022 19:23:00.041      372.11833654    
09 May 2022 20:53:34.845    09 May 2022 21:00:52.407      437.56180890    
10 May 2022 03:31:32.638    10 May 2022 03:36:50.036      317.39783396    
10 May 2022 05:07:52.800    10 May 2022 05:15:55.671      482.87085736    
10 May 2022 18:38:26.725    10 May 2022 18:43:03.881      277.15605616    
10 May 2022 20:14:05.175    10 May 2022 20:21:48.951      463.77521341    
11 May 2022 02:52:59.217    11 May 2022 02:56:36.642      217.42493841    
11 May 2022 04:28:35.329    11 May 2022 04:36:47.013      491.68397215    
11 May 2022 19:34:42.473    11 May 2022 19:42:39.889      477.41614318    
12 May 2022 03:49:22.235    12 May 2022 03:57:29.501      487.26540045    
12 May 2022 05:29:12.872    12 May 2022 05:31:51.834      158.96250971    
12 May 2022 18:55:26.643    12 May 2022 19:03:25.094      478.45093062    
12 May 2022 20:35:25.146    12 May 2022 20:39:07.095      221.94897184    
13 May 2022 03:10:13.057    13 May 2022 03:18:03.363      470.30653234    
13 May 2022 04:48:42.852    13 May 2022 04:54:00.872      318.01958269    
13 May 2022 18:16:18.086    13 May 2022 18:24:03.938      465.85175585    
13 May 2022 19:55:12.624    13 May 2022 20:00:29.209      316.58511646    
14 May 2022 02:31:07.803    14 May 2022 02:38:28.354      440.55098657    
14 May 2022 04:08:50.135    14 May 2022 04:15:29.202      399.06718988    
14 May 2022 17:37:17.873    14 May 2022 17:44:35.119      437.24639683    
14 May 2022 19:15:16.728    14 May 2022 19:21:36.821      380.09278283    
15 May 2022 01:52:07.083    15 May 2022 01:58:43.636      396.55280721    
15 May 2022 03:29:11.564    15 May 2022 03:36:39.745      448.18132420    
15 May 2022 16:58:28.350    15 May 2022 17:04:56.056      387.70524343    
15 May 2022 18:35:31.127    15 May 2022 18:42:36.080      424.95297189    
16 May 2022 01:13:12.647    16 May 2022 01:18:47.240      334.59232743    
16 May 2022 02:49:41.426    16 May 2022 02:57:37.978      476.55196844    
16 May 2022 16:19:55.356    16 May 2022 16:25:00.679      305.32252479    
16 May 2022 17:55:53.648    16 May 2022 18:03:28.947      455.29819146    
17 May 2022 00:34:29.677    17 May 2022 00:38:33.788      244.11029143    
17 May 2022 02:10:17.240    17 May 2022 02:18:26.134      488.89338523    
17 May 2022 15:42:05.659    17 May 2022 15:44:21.983      136.32326260    
17 May 2022 17:16:23.398    17 May 2022 17:24:16.088      472.69011866    
17 May 2022 23:56:39.670    17 May 2022 23:57:21.622      41.951626958    
18 May 2022 01:30:57.746    18 May 2022 01:39:05.221      487.47544570    
18 May 2022 03:11:45.857    18 May 2022 03:12:25.673      39.816386579    
18 May 2022 16:37:00.121    18 May 2022 16:44:57.514      477.39303490    
18 May 2022 18:17:20.476    18 May 2022 18:20:22.131      181.65506070    
19 May 2022 00:51:42.334    19 May 2022 00:59:35.590      473.25607472    
19 May 2022 02:30:26.828    19 May 2022 02:35:13.669      286.84108428    
19 May 2022 15:57:44.071    19 May 2022 16:05:32.723      468.65163348    
19 May 2022 17:36:53.780    19 May 2022 17:41:46.868      293.08761768    
20 May 2022 00:12:30.895    20 May 2022 00:19:57.096      446.20131394    
20 May 2022 01:50:22.873    20 May 2022 01:56:43.249      380.37517386    
20 May 2022 15:18:36.120    20 May 2022 15:26:00.592      444.47227735    
20 May 2022 16:56:48.483    20 May 2022 17:02:52.397      363.91394469    
20 May 2022 23:33:23.884    20 May 2022 23:40:09.030      405.14588321    
21 May 2022 01:10:36.062    21 May 2022 01:17:52.091      436.02932469    
21 May 2022 14:39:38.222    21 May 2022 14:46:18.914      400.69197204    
21 May 2022 16:16:54.724    21 May 2022 16:23:48.390      413.66606337    
21 May 2022 22:54:22.758    21 May 2022 23:00:09.694      346.93604725    
22 May 2022 00:30:58.767    22 May 2022 00:38:47.566      468.79883646    
22 May 2022 14:00:55.023    22 May 2022 14:06:22.793      327.77053092    
22 May 2022 15:37:09.608    22 May 2022 15:44:37.521      447.91260991    
22 May 2022 22:15:31.705    22 May 2022 22:19:54.683      262.97820389    
22 May 2022 23:51:27.954    22 May 2022 23:59:32.450      484.49625433    
23 May 2022 13:22:43.241    23 May 2022 13:25:55.265      192.02422500    
23 May 2022 14:57:31.965    23 May 2022 15:05:20.721      468.75525266    
23 May 2022 21:37:12.279    23 May 2022 21:39:02.262      109.98317086    
23 May 2022 23:12:02.117    23 May 2022 23:20:07.983      485.86637741    
24 May 2022 14:18:01.391    24 May 2022 14:25:58.146      476.75453379    
24 May 2022 15:58:44.878    24 May 2022 16:01:03.599      138.72153873    
24 May 2022 22:32:40.511    24 May 2022 22:40:34.645      474.13479688    
25 May 2022 00:11:40.292    25 May 2022 00:15:53.198      252.90566466    
25 May 2022 13:38:38.014    25 May 2022 13:46:29.411      471.39674564    
25 May 2022 15:18:01.491    25 May 2022 15:22:33.376      271.88495847    
25 May 2022 21:53:22.919    25 May 2022 22:00:52.387      449.46846140    
25 May 2022 23:31:24.016    25 May 2022 23:37:24.917      360.90050864    
26 May 2022 12:59:22.554    26 May 2022 13:06:53.545      450.99179257    
26 May 2022 14:37:46.709    26 May 2022 14:43:36.755      350.04578854    
26 May 2022 21:14:09.684    26 May 2022 21:21:00.610      410.92611363    
26 May 2022 22:51:28.757    26 May 2022 22:58:32.021      423.26416529    
27 May 2022 12:20:16.680    27 May 2022 12:27:08.624      411.94351626    
27 May 2022 13:57:44.850    27 May 2022 14:04:29.236      404.38582742    
27 May 2022 20:35:02.058    27 May 2022 20:40:57.817      355.75854988    
27 May 2022 22:11:44.217    27 May 2022 22:19:24.552      460.33430753    
28 May 2022 11:41:24.251    28 May 2022 11:47:10.542      346.29078226    
28 May 2022 13:17:52.178    28 May 2022 13:25:14.347      442.16911267    
28 May 2022 19:56:03.601    28 May 2022 20:00:40.224      276.62268957    
28 May 2022 21:32:06.714    28 May 2022 21:40:05.935      479.22032175    
29 May 2022 11:02:57.350    29 May 2022 11:06:46.971      229.62139773    
29 May 2022 12:38:07.243    29 May 2022 12:45:53.307      466.06372695    
29 May 2022 19:17:29.763    29 May 2022 19:19:52.198      142.43556380    
29 May 2022 20:52:34.488    29 May 2022 21:00:37.671      483.18282320    
30 May 2022 11:58:29.504    30 May 2022 12:06:26.418      476.91403743    
30 May 2022 13:39:38.531    30 May 2022 13:41:09.767      91.236730723    
30 May 2022 20:13:06.659    30 May 2022 20:21:00.378      473.71907418    
30 May 2022 21:52:22.399    30 May 2022 21:55:59.256      216.85722341    
31 May 2022 11:18:58.989    31 May 2022 11:26:53.406      474.41710148    
31 May 2022 12:58:34.382    31 May 2022 13:02:48.551      254.16920073    
31 May 2022 19:33:42.922    31 May 2022 19:41:14.106      451.18388693    
31 May 2022 21:11:52.499    31 May 2022 21:17:34.235      341.73508032    
01 Jun 2022 10:39:36.300    01 Jun 2022 10:47:13.425      457.12549748    
01 Jun 2022 12:18:10.324    01 Jun 2022 12:23:49.514      339.19008431    
01 Jun 2022 18:54:23.528    01 Jun 2022 19:01:18.353      414.82469311    
01 Jun 2022 20:31:48.708    01 Jun 2022 20:38:39.546      410.83779247    
02 Jun 2022 10:00:22.903    02 Jun 2022 10:07:24.768      421.86477261    
02 Jun 2022 11:38:00.650    02 Jun 2022 11:44:38.208      397.55802864    
02 Jun 2022 18:15:09.578    02 Jun 2022 18:21:11.778      362.20025516    
02 Jun 2022 19:51:56.975    02 Jun 2022 19:59:28.997      452.02190699    
03 Jun 2022 09:21:22.120    03 Jun 2022 09:27:23.876      361.75658080    
03 Jun 2022 10:58:00.721    03 Jun 2022 11:05:19.075      438.35423036    
03 Jun 2022 17:36:04.203    03 Jun 2022 17:40:51.035      286.83290564    
03 Jun 2022 19:12:12.880    03 Jun 2022 19:20:06.761      473.88128727    
04 Jun 2022 08:42:43.465    04 Jun 2022 08:47:00.999      257.53370452    
04 Jun 2022 10:18:08.823    04 Jun 2022 10:25:53.616      464.79260662    
04 Jun 2022 16:57:19.696    04 Jun 2022 17:00:03.645      163.94979438    
04 Jun 2022 18:32:34.394    04 Jun 2022 18:40:34.614      480.22003721    
05 Jun 2022 09:38:24.294    05 Jun 2022 09:46:22.266      477.97269537    
05 Jun 2022 11:20:11.846    05 Jun 2022 11:20:29.982      18.135321443    
05 Jun 2022 17:53:00.510    05 Jun 2022 18:00:53.315      472.80533065    
05 Jun 2022 19:32:32.830    05 Jun 2022 19:35:32.479      179.64894291    
06 Jun 2022 08:58:47.077    06 Jun 2022 09:06:44.845      477.76810862    
06 Jun 2022 10:38:32.125    06 Jun 2022 10:42:32.928      240.80369066    
06 Jun 2022 17:13:30.834    06 Jun 2022 17:21:03.002      452.16724699    
06 Jun 2022 18:51:48.060    06 Jun 2022 18:57:12.202      324.14239103    
07 Jun 2022 08:19:17.684    07 Jun 2022 08:27:00.605      462.92065156    
07 Jun 2022 09:57:59.526    07 Jun 2022 10:03:31.163      331.63741990    
07 Jun 2022 16:34:05.539    07 Jun 2022 16:41:03.255      417.71620139    
07 Jun 2022 18:11:36.009    07 Jun 2022 18:18:15.750      399.74095282    
08 Jun 2022 07:39:57.428    08 Jun 2022 07:47:07.993      430.56516327    
08 Jun 2022 09:17:42.673    08 Jun 2022 09:24:15.919      393.24576042    
08 Jun 2022 15:54:45.601    08 Jun 2022 16:00:52.858      367.25724688    
08 Jun 2022 17:31:37.423    08 Jun 2022 17:39:02.135      444.71175629    
09 Jun 2022 07:00:49.256    09 Jun 2022 07:07:03.824      374.56824876    
09 Jun 2022 08:37:36.082    09 Jun 2022 08:44:52.493      436.41074487    
09 Jun 2022 15:15:33.827    09 Jun 2022 15:20:28.783      294.95621107    
09 Jun 2022 16:51:47.080    09 Jun 2022 16:59:36.331      469.25089534    
10 Jun 2022 06:22:01.140    10 Jun 2022 06:26:39.889      278.74902146    
10 Jun 2022 07:57:37.806    10 Jun 2022 08:05:22.619      464.81298910    
10 Jun 2022 14:36:40.540    10 Jun 2022 14:39:40.511      179.97092429    
10 Jun 2022 16:12:02.680    10 Jun 2022 16:20:00.383      477.70388114    
11 Jun 2022 07:17:47.077    11 Jun 2022 07:25:46.836      479.75927886    
11 Jun 2022 15:32:23.081    11 Jun 2022 15:40:15.175      472.09383437    
11 Jun 2022 17:12:12.347    11 Jun 2022 17:14:34.868      142.52124435    
12 Jun 2022 06:38:03.768    12 Jun 2022 06:46:05.028      481.25976326    
12 Jun 2022 08:17:55.984    12 Jun 2022 08:21:48.007      232.02375281    
12 Jun 2022 14:52:47.808    12 Jun 2022 15:00:20.918      453.10978834    
12 Jun 2022 16:31:11.584    12 Jun 2022 16:36:20.951      309.36674917    
13 Jun 2022 05:58:28.317    13 Jun 2022 06:06:16.512      468.19522250    
13 Jun 2022 07:37:15.913    13 Jun 2022 07:42:43.111      327.19810770    
13 Jun 2022 14:13:16.956    13 Jun 2022 14:20:17.259      420.30270008    
13 Jun 2022 15:50:51.823    13 Jun 2022 15:57:22.664      390.84117900    
14 Jun 2022 05:19:01.921    14 Jun 2022 05:26:19.838      437.91717907    
14 Jun 2022 06:56:52.660    14 Jun 2022 07:03:23.803      391.14372935    
14 Jun 2022 13:33:51.394    14 Jun 2022 13:40:03.074      371.67938990    
14 Jun 2022 15:10:46.857    14 Jun 2022 15:18:05.959      439.10261979    
15 Jun 2022 04:39:47.274    15 Jun 2022 04:46:12.064      384.78951637    
15 Jun 2022 06:16:40.064    15 Jun 2022 06:23:56.052      435.98739359    
15 Jun 2022 12:54:33.669    15 Jun 2022 12:59:35.576      301.90639906    
15 Jun 2022 14:30:50.664    15 Jun 2022 14:38:36.597      465.93262036    
16 Jun 2022 04:00:51.402    16 Jun 2022 04:05:45.915      294.51226451    
16 Jun 2022 05:36:36.003    16 Jun 2022 05:44:21.757      465.75479116    
16 Jun 2022 12:15:32.741    16 Jun 2022 12:18:45.595      192.85449106    
16 Jun 2022 13:51:00.690    16 Jun 2022 13:58:56.864      476.17420665    
17 Jun 2022 03:22:58.033    17 Jun 2022 03:24:17.413      79.379968252    
17 Jun 2022 04:56:39.627    17 Jun 2022 05:04:41.527      481.90054226    
17 Jun 2022 13:11:15.674    17 Jun 2022 13:19:07.749      472.07570745    
17 Jun 2022 14:51:21.492    17 Jun 2022 14:53:08.960      107.46803193    
18 Jun 2022 04:16:50.758    18 Jun 2022 04:24:55.286      484.52829091    
18 Jun 2022 05:56:47.636    18 Jun 2022 06:00:35.077      227.44097365    
18 Jun 2022 12:31:35.065    18 Jun 2022 12:39:09.526      454.46093834    
18 Jun 2022 14:10:03.958    18 Jun 2022 14:15:02.463      298.50482735    
19 Jun 2022 03:37:09.780    19 Jun 2022 03:45:02.389      472.60924032    
19 Jun 2022 05:16:01.135    19 Jun 2022 05:21:26.464      325.32975320    
19 Jun 2022 11:51:58.892    19 Jun 2022 11:59:01.888      422.99600767    
19 Jun 2022 13:29:37.123    19 Jun 2022 13:36:01.920      384.79722510    
20 Jun 2022 02:57:37.819    20 Jun 2022 03:05:01.448      443.62967700    
20 Jun 2022 04:35:32.130    20 Jun 2022 04:42:02.846      390.71648017    
20 Jun 2022 11:12:27.938    20 Jun 2022 11:18:43.787      375.84849636    
20 Jun 2022 12:49:26.189    20 Jun 2022 12:56:41.864      435.67573295    
21 Jun 2022 02:18:17.413    21 Jun 2022 02:24:49.665      392.25195829    
21 Jun 2022 03:55:14.036    21 Jun 2022 04:02:30.609      436.57376922    
21 Jun 2022 10:33:04.550    21 Jun 2022 10:38:12.621      308.07168195    
21 Jun 2022 12:09:24.439    21 Jun 2022 12:17:08.740      464.30108689    
22 Jun 2022 01:39:15.048    22 Jun 2022 01:44:20.293      305.24473591    
22 Jun 2022 03:15:04.621    22 Jun 2022 03:22:51.755      467.13489080    
22 Jun 2022 09:53:56.715    22 Jun 2022 09:57:20.178      203.46244310    
22 Jun 2022 11:29:29.110    22 Jun 2022 11:37:25.034      475.92406279    
23 Jun 2022 01:01:04.345    23 Jun 2022 01:02:59.453      115.10819492    
23 Jun 2022 02:35:02.991    23 Jun 2022 02:43:06.931      483.94033802    
23 Jun 2022 10:49:38.847    23 Jun 2022 10:57:31.818      472.97187634    
23 Jun 2022 12:29:58.592    23 Jun 2022 12:31:17.731      79.138799524    
24 Jun 2022 01:55:08.939    24 Jun 2022 02:03:16.083      487.14495847    
24 Jun 2022 03:35:08.097    24 Jun 2022 03:38:54.394      226.29711670    
24 Jun 2022 10:09:53.045    24 Jun 2022 10:17:29.417      456.37269120    
24 Jun 2022 11:48:25.250    24 Jun 2022 11:53:17.668      292.41773598    
25 Jun 2022 01:15:22.825    25 Jun 2022 01:23:18.590      475.76513656    
25 Jun 2022 02:54:16.034    25 Jun 2022 02:59:41.405      325.37107514    
25 Jun 2022 09:30:11.688    25 Jun 2022 09:37:17.567      425.87940269    
25 Jun 2022 11:07:52.075    25 Jun 2022 11:14:14.086      382.01166575    
26 Jun 2022 00:35:45.745    26 Jun 2022 00:43:13.093      447.34880005    
26 Jun 2022 02:13:41.781    26 Jun 2022 02:20:13.167      391.38619340    
26 Jun 2022 08:50:35.499    26 Jun 2022 08:56:55.276      379.77771055    
26 Jun 2022 10:27:35.565    26 Jun 2022 10:34:50.221      434.65536344    


Number of events : 243


Observer: Cape_Town
Start Time (UTC)            Stop Time (UTC)               Duration (s)         
27 Apr 2022 15:21:03.092    27 Apr 2022 15:28:47.330      464.23776811    
27 Apr 2022 16:58:59.615    27 Apr 2022 17:06:03.404      423.78938750    
27 Apr 2022 21:55:43.759    27 Apr 2022 22:02:13.678      389.91891233    
27 Apr 2022 23:32:44.613    27 Apr 2022 23:40:42.940      478.32704148    
28 Apr 2022 14:42:20.203    28 Apr 2022 14:49:34.068      433.86475656    
28 Apr 2022 16:19:38.710    28 Apr 2022 16:27:09.873      451.16320804    
28 Apr 2022 18:00:34.363    28 Apr 2022 18:03:08.001      153.63743801    
28 Apr 2022 21:16:53.327    28 Apr 2022 21:22:43.396      350.06891065    
28 Apr 2022 22:53:39.978    28 Apr 2022 23:01:45.716      485.73772630    
29 Apr 2022 14:03:46.337    29 Apr 2022 14:10:12.141      385.80394207    
29 Apr 2022 15:40:21.665    29 Apr 2022 15:48:13.459      471.79382751    
29 Apr 2022 17:20:41.746    29 Apr 2022 17:24:28.666      226.92018966    
29 Apr 2022 20:38:03.798    29 Apr 2022 20:43:07.184      303.38577772    
29 Apr 2022 22:14:37.493    29 Apr 2022 22:22:41.492      483.99867229    
29 Apr 2022 23:53:38.324    29 Apr 2022 23:57:53.419      255.09514874    
30 Apr 2022 13:25:26.427    30 Apr 2022 13:30:36.503      310.07526694    
30 Apr 2022 15:01:08.682    30 Apr 2022 15:09:13.935      485.25299655    
30 Apr 2022 16:40:56.479    30 Apr 2022 16:45:42.366      285.88639568    
30 Apr 2022 19:59:15.773    30 Apr 2022 20:03:24.589      248.81632354    
30 Apr 2022 21:35:36.589    30 Apr 2022 21:43:30.734      474.14491992    
30 Apr 2022 23:13:52.312    30 Apr 2022 23:19:44.145      351.83344261    
01 May 2022 12:47:38.792    01 May 2022 12:50:28.720      169.92829903    
01 May 2022 14:22:00.053    01 May 2022 14:30:10.959      490.90650799    
01 May 2022 16:01:15.918    01 May 2022 16:06:52.012      336.09412444    
01 May 2022 19:20:30.991    01 May 2022 19:23:34.090      183.09902604    
01 May 2022 20:56:36.871    01 May 2022 21:04:13.751      456.88019323    
01 May 2022 22:34:22.976    01 May 2022 22:41:13.937      410.96173567    
02 May 2022 13:42:56.202    02 May 2022 13:51:04.037      487.83475243    
02 May 2022 15:21:39.351    02 May 2022 15:27:58.519      379.16815277    
02 May 2022 18:41:57.414    02 May 2022 18:43:28.016      90.601335419    
02 May 2022 20:17:38.075    02 May 2022 20:24:50.758      432.68306034    
02 May 2022 21:55:02.043    02 May 2022 22:02:30.942      448.89980847    
03 May 2022 13:03:57.771    03 May 2022 13:11:52.443      474.67182531    
03 May 2022 14:42:06.595    03 May 2022 14:49:02.217      415.62245678    
03 May 2022 19:38:40.040    03 May 2022 19:45:21.894      401.85418662    
03 May 2022 21:15:46.303    03 May 2022 21:23:38.245      471.94192819    
04 May 2022 12:25:05.782    04 May 2022 12:32:35.059      449.27690924    
04 May 2022 14:02:37.664    04 May 2022 14:10:03.182      445.51802172    
04 May 2022 15:43:45.563    04 May 2022 15:45:54.746      129.18247862    
04 May 2022 18:59:42.721    04 May 2022 19:05:47.234      364.51341338    
04 May 2022 20:36:34.082    04 May 2022 20:44:37.402      483.31959606    
05 May 2022 11:46:22.020    05 May 2022 11:53:09.997      407.97679253    
05 May 2022 13:23:12.672    05 May 2022 13:31:01.341      468.66923233    
05 May 2022 15:03:42.765    05 May 2022 15:07:12.390      209.62454192    
05 May 2022 18:20:46.226    05 May 2022 18:26:06.748      320.52241877    
05 May 2022 19:57:24.367    05 May 2022 20:05:29.312      484.94481199    
05 May 2022 21:36:48.975    05 May 2022 21:40:11.253      202.27855796    
06 May 2022 11:07:50.127    06 May 2022 11:13:33.510      343.38219501    
06 May 2022 12:43:51.806    06 May 2022 12:51:56.510      484.70396450    
06 May 2022 14:23:49.213    06 May 2022 14:28:21.223      272.00989336    
06 May 2022 17:41:50.949    06 May 2022 17:46:20.182      269.23256106    
06 May 2022 19:18:16.494    06 May 2022 19:26:14.539      478.04543625    
06 May 2022 20:56:44.814    06 May 2022 21:02:09.010      324.19642821    
07 May 2022 10:29:40.547    07 May 2022 10:33:35.048      234.50088117    
07 May 2022 12:04:35.335    07 May 2022 12:12:48.390      493.05504385    
07 May 2022 13:44:00.855    07 May 2022 13:49:25.604      324.74942605    
07 May 2022 17:02:57.994    07 May 2022 17:06:26.638      208.64485125    
07 May 2022 18:39:10.007    07 May 2022 18:46:53.456      463.44907450    
07 May 2022 20:17:04.711    07 May 2022 20:23:38.594      393.88276034    
08 May 2022 11:25:23.641    08 May 2022 11:33:36.540      492.89871643    
08 May 2022 13:04:16.713    08 May 2022 13:10:26.751      370.03858394    
08 May 2022 16:24:11.229    08 May 2022 16:26:22.528      131.29977880    
08 May 2022 18:00:04.592    08 May 2022 18:07:26.316      441.72461793    
08 May 2022 19:37:35.069    08 May 2022 19:44:53.481      438.41164241    
09 May 2022 10:46:17.290    09 May 2022 10:54:20.313      483.02315549    
09 May 2022 12:24:36.522    09 May 2022 12:31:25.101      408.57934817    
09 May 2022 17:21:00.045    09 May 2022 17:27:53.297      413.25200752    
09 May 2022 18:58:11.589    09 May 2022 19:05:57.842      466.25258506    
10 May 2022 10:07:17.167    10 May 2022 10:14:58.732      461.56414237    
10 May 2022 11:45:00.266    10 May 2022 11:52:20.781      440.51480724    
10 May 2022 13:26:18.702    10 May 2022 13:28:06.831      108.12859180    
10 May 2022 16:41:56.266    10 May 2022 16:48:14.508      378.24181941    
10 May 2022 18:18:52.198    10 May 2022 18:26:53.628      481.42999155    
11 May 2022 09:28:24.769    11 May 2022 09:35:30.192      425.42295903    
11 May 2022 11:05:28.042    11 May 2022 11:13:13.750      465.70812073    
11 May 2022 12:46:06.384    11 May 2022 12:49:21.736      195.35213518    
11 May 2022 16:02:53.284    11 May 2022 16:08:29.979      336.69573963    
11 May 2022 17:39:35.690    11 May 2022 17:47:41.919      486.22905618    
11 May 2022 19:19:30.515    11 May 2022 19:21:48.304      137.78850121    
12 May 2022 08:49:42.979    12 May 2022 08:55:51.699      368.72034558    
12 May 2022 10:26:00.016    12 May 2022 10:34:03.846      483.82938037    
12 May 2022 12:06:05.407    12 May 2022 12:10:25.802      260.39491663    
12 May 2022 15:23:51.338    12 May 2022 15:28:39.588      288.24941155    
12 May 2022 17:00:21.292    12 May 2022 17:08:23.375      482.08246079    
12 May 2022 18:39:02.421    12 May 2022 18:43:59.578      297.15716065    
13 May 2022 08:11:18.987    13 May 2022 08:15:55.942      276.95577058    
13 May 2022 09:46:36.433    13 May 2022 09:54:50.794      494.36138232    
13 May 2022 11:26:10.039    13 May 2022 11:31:25.085      315.04638166    
13 May 2022 14:44:51.136    13 May 2022 14:48:42.808      231.67141584    
13 May 2022 16:21:08.477    13 May 2022 16:28:58.421      469.94392618    
13 May 2022 17:59:11.549    13 May 2022 18:05:29.640      378.09155965    
14 May 2022 07:34:06.038    14 May 2022 07:34:49.557      43.519122794    
14 May 2022 09:07:17.635    14 May 2022 09:15:34.187      496.55127375    
14 May 2022 10:46:19.049    14 May 2022 10:52:21.072      362.02305428    
14 May 2022 14:05:54.856    14 May 2022 14:08:37.710      162.85401917    
14 May 2022 15:41:56.876    14 May 2022 15:49:27.346      450.46961551    
14 May 2022 17:19:33.566    14 May 2022 17:26:42.684      429.11795068    
15 May 2022 08:28:04.128    15 May 2022 08:36:13.427      489.29927910    
15 May 2022 10:06:32.100    15 May 2022 10:13:14.277      402.17764814    
15 May 2022 13:27:16.352    15 May 2022 13:28:10.765      54.412966780    
15 May 2022 15:02:46.236    15 May 2022 15:09:50.346      424.11062771    
15 May 2022 16:40:02.759    15 May 2022 16:47:44.279      461.51936132    
16 May 2022 07:48:56.691    16 May 2022 07:56:47.628      470.93661153    
16 May 2022 09:26:49.148    16 May 2022 09:34:04.860      435.71196792    
16 May 2022 11:08:16.679    16 May 2022 11:09:46.152      89.472748828    
16 May 2022 14:23:36.405    16 May 2022 14:30:07.557      391.15167100    
16 May 2022 16:00:36.592    16 May 2022 16:08:36.816      480.22424566    
17 May 2022 07:09:56.617    17 May 2022 07:17:15.369      438.75223350    
17 May 2022 08:47:10.273    17 May 2022 08:54:52.794      462.52107712    
17 May 2022 10:27:55.350    17 May 2022 10:30:58.526      183.17605457    
17 May 2022 13:44:27.346    17 May 2022 13:50:19.045      351.69846044    
17 May 2022 15:21:13.651    17 May 2022 15:29:21.567      487.91599288    
18 May 2022 06:31:06.310    18 May 2022 06:37:34.117      387.80723599    
18 May 2022 08:07:35.625    18 May 2022 08:15:37.927      482.30229935    
18 May 2022 09:47:47.599    18 May 2022 09:51:57.808      250.20934084    
18 May 2022 13:05:19.186    18 May 2022 13:10:24.765      305.57973491    
18 May 2022 14:41:53.045    18 May 2022 14:49:59.282      486.23638081    
18 May 2022 16:20:46.892    18 May 2022 16:25:18.074      271.18187469    
19 May 2022 05:52:31.277    19 May 2022 05:57:38.223      306.94508156    
19 May 2022 07:28:05.425    19 May 2022 07:36:19.997      494.57201975    
19 May 2022 09:07:45.748    19 May 2022 09:12:52.012      306.26398110    
19 May 2022 12:26:12.381    19 May 2022 12:30:24.411      252.03030260    
19 May 2022 14:02:34.174    19 May 2022 14:10:30.437      476.26306278    
19 May 2022 15:40:45.112    19 May 2022 15:46:49.007      363.89504643    
20 May 2022 05:14:34.297    20 May 2022 05:17:04.769      150.47185784    
20 May 2022 06:48:39.988    20 May 2022 06:56:58.615      498.62680722    
20 May 2022 08:27:48.346    20 May 2022 08:33:42.851      354.50566144    
20 May 2022 11:47:08.288    20 May 2022 11:50:16.849      188.56176578    
20 May 2022 13:23:16.614    20 May 2022 13:30:55.348      458.73410781    
20 May 2022 15:00:59.001    20 May 2022 15:08:00.147      421.14608057    
21 May 2022 06:09:19.772    21 May 2022 06:17:33.218      493.44603763    
21 May 2022 07:47:55.002    21 May 2022 07:54:30.900      395.89821881    
21 May 2022 11:08:12.531    21 May 2022 11:09:56.753      104.22178432    
21 May 2022 12:44:00.072    21 May 2022 12:51:14.234      434.16273793    
21 May 2022 14:21:21.074    21 May 2022 14:28:58.819      457.74470241    
22 May 2022 05:30:05.481    22 May 2022 05:38:02.979      477.49778973    
22 May 2022 07:08:05.658    22 May 2022 07:15:16.338      430.67994495    
22 May 2022 08:49:41.746    22 May 2022 08:50:52.651      70.905103488    
22 May 2022 12:04:44.354    22 May 2022 12:11:27.246      402.89190731    
22 May 2022 13:41:48.292    22 May 2022 13:49:47.902      479.60984891    
23 May 2022 04:50:58.273    23 May 2022 04:58:26.608      448.33481549    
23 May 2022 06:28:20.384    23 May 2022 06:35:59.147      458.76312627    
23 May 2022 08:09:11.055    23 May 2022 08:12:02.978      171.92362680    
23 May 2022 11:25:29.377    23 May 2022 11:31:34.478      365.10034724    
23 May 2022 13:02:19.030    23 May 2022 13:10:28.864      489.83416543    
24 May 2022 04:12:00.243    24 May 2022 04:18:41.866      401.62351528    
24 May 2022 05:48:39.328    24 May 2022 05:56:39.188      479.86022945    
24 May 2022 07:28:56.744    24 May 2022 07:32:57.331      240.58675265    
24 May 2022 10:46:15.198    24 May 2022 10:51:35.939      320.74042641    
24 May 2022 12:22:52.289    24 May 2022 12:31:02.554      490.26556523    
24 May 2022 14:01:58.395    24 May 2022 14:06:05.045      246.64983490    
25 May 2022 03:33:15.941    25 May 2022 03:38:44.060      328.11905203    
25 May 2022 05:09:02.701    25 May 2022 05:17:16.209      493.50851214    
25 May 2022 06:48:48.571    25 May 2022 06:53:46.308      297.73704680    
25 May 2022 10:07:02.130    25 May 2022 10:11:31.451      269.32066691    
25 May 2022 11:43:27.405    25 May 2022 11:51:29.505      482.09952498    
25 May 2022 13:21:45.436    25 May 2022 13:27:36.862      351.42569707    
26 May 2022 02:55:00.751    26 May 2022 02:58:17.658      196.90753090    
26 May 2022 04:29:30.802    26 May 2022 04:37:49.839      499.03741936    
26 May 2022 06:08:44.876    26 May 2022 06:14:31.849      346.97282631    
26 May 2022 09:27:51.111    26 May 2022 09:31:20.288      209.17742260    
26 May 2022 11:04:03.917    26 May 2022 11:11:50.065      466.14862641    
26 May 2022 12:41:51.277    26 May 2022 12:48:45.718      414.44124305    
27 May 2022 03:50:04.065    27 May 2022 03:58:19.545      495.48038053    
27 May 2022 05:28:45.235    27 May 2022 05:35:14.587      389.35143653    
27 May 2022 08:48:45.431    27 May 2022 08:50:59.453      134.02244684    
27 May 2022 10:24:41.498    27 May 2022 10:32:04.477      442.97894910    
27 May 2022 12:02:06.304    27 May 2022 12:09:41.064      454.76001827    
28 May 2022 03:10:43.151    28 May 2022 03:18:44.550      481.39908181    
28 May 2022 04:48:49.586    28 May 2022 04:55:54.722      425.13643970    
28 May 2022 06:30:36.055    28 May 2022 06:31:23.417      47.361861519    
28 May 2022 09:45:19.936    28 May 2022 09:52:12.915      412.97809028    
28 May 2022 11:22:26.961    28 May 2022 11:30:26.300      479.33851759    
29 May 2022 02:31:29.131    29 May 2022 02:39:03.655      454.52375453    
29 May 2022 04:08:58.005    29 May 2022 04:16:32.254      454.24887075    
29 May 2022 05:49:53.608    29 May 2022 05:52:34.001      160.39350835    
29 May 2022 09:05:59.121    29 May 2022 09:12:15.495      376.37396436    
29 May 2022 10:42:51.425    29 May 2022 10:51:03.098      491.67386043    
30 May 2022 01:52:23.908    30 May 2022 01:59:14.821      410.91339398    
30 May 2022 03:29:10.644    30 May 2022 03:37:07.053      476.40844239    
30 May 2022 05:09:32.658    30 May 2022 05:13:23.447      230.78921823    
30 May 2022 08:26:39.072    30 May 2022 08:32:12.266      333.19326133    
30 May 2022 10:03:18.600    30 May 2022 10:11:32.411      493.81112693    
30 May 2022 11:42:36.105    30 May 2022 11:46:20.034      223.92901228    
31 May 2022 01:13:31.461    31 May 2022 01:19:13.932      342.47096133    
31 May 2022 02:49:27.719    31 May 2022 02:57:38.883      491.16433701    
31 May 2022 04:29:18.183    31 May 2022 04:34:07.166      288.98332240    
31 May 2022 07:47:20.032    31 May 2022 07:52:03.127      283.09554347    
31 May 2022 09:23:47.773    31 May 2022 09:31:54.828      487.05570409    
31 May 2022 11:02:11.890    31 May 2022 11:07:52.574      340.68403932    
01 Jun 2022 00:35:03.856    01 Jun 2022 00:38:48.788      224.93196179    
01 Jun 2022 02:09:49.525    01 Jun 2022 02:18:07.392      497.86706261    
01 Jun 2022 03:49:08.267    01 Jun 2022 03:54:47.385      339.11759206    
01 Jun 2022 07:08:02.732    01 Jun 2022 07:11:47.563      224.83141132    
01 Jun 2022 08:44:18.450    01 Jun 2022 08:52:10.738      472.28745853    
01 Jun 2022 10:22:09.912    01 Jun 2022 10:28:58.729      408.81739663    
02 Jun 2022 01:30:16.486    02 Jun 2022 01:38:32.072      495.58626000    
02 Jun 2022 03:09:02.445    02 Jun 2022 03:15:24.808      382.36302927    
02 Jun 2022 06:28:49.544    02 Jun 2022 06:31:23.506      153.96196822    
02 Jun 2022 08:04:50.291    02 Jun 2022 08:12:20.408      450.11723076    
02 Jun 2022 09:42:18.117    02 Jun 2022 09:49:50.402      452.28567700    
03 Jun 2022 00:50:49.238    03 Jun 2022 00:58:52.185      482.94676628    
03 Jun 2022 02:29:00.652    03 Jun 2022 02:35:59.666      419.01466140    
03 Jun 2022 05:50:00.369    03 Jun 2022 05:50:31.439      31.070536561    
03 Jun 2022 07:25:23.069    03 Jun 2022 07:32:24.035      420.96589365    
03 Jun 2022 09:02:32.439    03 Jun 2022 09:10:31.518      479.07850875    
04 Jun 2022 00:11:28.799    04 Jun 2022 00:19:06.596      457.79693287    
04 Jun 2022 01:49:02.970    04 Jun 2022 01:56:31.974      449.00423168    
04 Jun 2022 03:30:03.369    04 Jun 2022 03:32:30.947      147.57837940    
04 Jun 2022 06:45:56.662    04 Jun 2022 06:52:21.754      385.09150377    
04 Jun 2022 08:22:50.869    04 Jun 2022 08:31:03.944      493.07523365    
04 Jun 2022 23:32:16.950    04 Jun 2022 23:39:13.400      416.44950137    
05 Jun 2022 01:09:09.559    05 Jun 2022 01:17:01.617      472.05813720    
05 Jun 2022 02:49:35.631    05 Jun 2022 02:53:15.973      220.34152733    
05 Jun 2022 06:06:31.078    05 Jun 2022 06:12:13.636      342.55842754    
05 Jun 2022 07:43:12.227    05 Jun 2022 07:51:28.729      496.50190455    
05 Jun 2022 09:22:39.983    05 Jun 2022 09:26:03.162      203.17925150    
05 Jun 2022 22:53:17.325    05 Jun 2022 22:59:08.835      351.51036708    
06 Jun 2022 00:29:20.636    06 Jun 2022 00:37:28.371      487.73433681    
06 Jun 2022 02:09:14.972    06 Jun 2022 02:13:54.742      279.76995361    
06 Jun 2022 05:27:06.524    06 Jun 2022 05:31:59.619      293.09485462    
06 Jun 2022 07:03:35.753    06 Jun 2022 07:11:46.515      490.76240264    
06 Jun 2022 08:42:04.848    06 Jun 2022 08:47:36.312      331.46432847    
06 Jun 2022 22:14:40.248    06 Jun 2022 22:18:42.447      242.19923731    
06 Jun 2022 23:49:36.497    06 Jun 2022 23:57:51.895      495.39778599    
07 Jun 2022 01:28:59.062    07 Jun 2022 01:34:29.924      330.86225437    
07 Jun 2022 04:47:43.648    07 Jun 2022 04:51:39.278      235.62993893    
07 Jun 2022 06:24:00.930    07 Jun 2022 06:31:57.725      476.79494515    
07 Jun 2022 08:01:55.579    07 Jun 2022 08:08:39.534      403.95534859    
07 Jun 2022 23:09:57.556    07 Jun 2022 23:18:11.698      494.14228492    
08 Jun 2022 00:48:47.351    08 Jun 2022 00:55:02.322      374.97151082    
08 Jun 2022 04:08:24.457    08 Jun 2022 04:11:10.911      166.45406659    
08 Jun 2022 05:44:27.399    08 Jun 2022 05:52:02.645      455.24672542    
08 Jun 2022 07:21:57.448    08 Jun 2022 07:29:27.419      449.97118040    
08 Jun 2022 22:30:24.431    08 Jun 2022 22:38:27.065      482.63405424    
09 Jun 2022 00:08:39.754    09 Jun 2022 00:15:32.203      412.44912985    
09 Jun 2022 03:29:20.842    09 Jun 2022 03:30:23.016      62.173729856    
09 Jun 2022 05:04:54.922    09 Jun 2022 05:12:01.484      426.56188239    
09 Jun 2022 06:42:05.899    09 Jun 2022 06:50:04.378      478.47960144    
09 Jun 2022 21:50:58.102    09 Jun 2022 21:58:36.900      458.79749511    
09 Jun 2022 23:28:36.349    09 Jun 2022 23:35:59.598      443.24844667    
10 Jun 2022 01:09:41.955    10 Jun 2022 01:11:54.637      132.68155062    
10 Jun 2022 04:25:23.370    10 Jun 2022 04:31:54.384      391.01368360    
10 Jun 2022 06:02:18.750    10 Jun 2022 06:10:32.455      493.70529744    
10 Jun 2022 21:11:40.269    10 Jun 2022 21:18:39.374      419.10512152    
10 Jun 2022 22:48:37.290    10 Jun 2022 22:56:24.397      467.10683353    
11 Jun 2022 00:29:07.160    11 Jun 2022 00:32:36.230      209.06955600    
11 Jun 2022 03:45:52.741    11 Jun 2022 03:51:41.419      348.67739046    
11 Jun 2022 05:22:34.741    11 Jun 2022 05:30:52.775      498.03383775    
11 Jun 2022 07:02:11.485    11 Jun 2022 07:05:15.761      184.27572768    
11 Jun 2022 20:32:34.348    11 Jun 2022 20:38:30.938      356.58973471    
11 Jun 2022 22:08:42.791    11 Jun 2022 22:16:46.382      483.59110717    
11 Jun 2022 23:48:40.483    11 Jun 2022 23:53:10.628      270.14544209    
12 Jun 2022 03:06:23.235    12 Jun 2022 03:11:22.528      299.29309222    
12 Jun 2022 04:42:53.067    12 Jun 2022 04:51:06.021      492.95416020    
12 Jun 2022 06:21:26.041    12 Jun 2022 06:26:49.458      323.41719694    
12 Jun 2022 19:53:49.696    12 Jun 2022 19:58:02.096      252.40061057    
12 Jun 2022 21:28:53.139    12 Jun 2022 21:37:05.216      492.07697287    
12 Jun 2022 23:08:18.856    12 Jun 2022 23:13:41.243      322.38681911    
13 Jun 2022 02:26:55.477    13 Jun 2022 02:30:57.297      241.81965245    
13 Jun 2022 04:03:13.181    13 Jun 2022 04:11:12.635      479.45323986    
13 Jun 2022 05:41:10.144    13 Jun 2022 05:47:49.638      399.49390346    
13 Jun 2022 20:49:08.737    13 Jun 2022 20:57:20.411      491.67410906    
13 Jun 2022 22:28:01.580    13 Jun 2022 22:34:09.030      367.45010661    
14 Jun 2022 01:47:31.398    14 Jun 2022 01:50:24.094      172.69549195    
14 Jun 2022 03:23:34.707    14 Jun 2022 03:31:12.913      458.20629308    
14 Jun 2022 05:01:06.230    14 Jun 2022 05:08:33.719      447.48895563    
14 Jun 2022 20:09:30.185    14 Jun 2022 20:17:31.260      481.07447805    
14 Jun 2022 21:47:48.519    14 Jun 2022 21:54:34.305      405.78571170    
15 Jun 2022 01:08:21.574    15 Jun 2022 01:09:32.720      71.146254928    
15 Jun 2022 02:43:57.392    15 Jun 2022 02:51:07.064      429.67149513    
15 Jun 2022 04:21:09.294    15 Jun 2022 04:29:06.555      477.26151027    
15 Jun 2022 19:29:58.434    15 Jun 2022 19:37:36.682      458.24831093    
15 Jun 2022 21:07:39.728    15 Jun 2022 21:14:57.116      437.38765066    
15 Jun 2022 22:48:51.396    15 Jun 2022 22:50:46.707      115.31073010    
16 Jun 2022 02:04:21.101    16 Jun 2022 02:10:55.226      394.12445681    
16 Jun 2022 03:41:16.995    16 Jun 2022 03:49:30.333      493.33750875    
16 Jun 2022 18:50:35.131    16 Jun 2022 18:57:34.893      419.76213584    
16 Jun 2022 20:27:35.349    16 Jun 2022 20:35:17.362      462.01330635    
16 Jun 2022 22:08:08.887    16 Jun 2022 22:11:26.139      197.25278746    
17 Jun 2022 01:24:45.831    17 Jun 2022 01:30:37.461      351.62976865    
17 Jun 2022 03:01:28.002    17 Jun 2022 03:09:46.240      498.23805738    
17 Jun 2022 04:41:12.449    17 Jun 2022 04:43:59.469      167.02046050    
17 Jun 2022 18:11:23.563    17 Jun 2022 18:17:22.456      358.89346108    
17 Jun 2022 19:47:35.583    17 Jun 2022 19:55:34.825      479.24156170    
17 Jun 2022 21:27:36.203    17 Jun 2022 21:31:56.719      260.51622487    
18 Jun 2022 00:45:11.789    18 Jun 2022 00:50:13.686      301.89637818    
18 Jun 2022 02:21:41.467    18 Jun 2022 02:29:54.990      493.52242998    
18 Jun 2022 04:00:17.280    18 Jun 2022 04:05:33.526      316.24633775    
18 Jun 2022 17:32:32.558    18 Jun 2022 17:36:50.397      257.83886185    
18 Jun 2022 19:07:40.710    18 Jun 2022 19:15:49.167      488.45752931    
18 Jun 2022 20:47:08.989    18 Jun 2022 20:52:23.145      314.15630495    
19 Jun 2022 00:05:39.636    19 Jun 2022 00:09:43.442      243.80586458    
19 Jun 2022 01:41:56.819    19 Jun 2022 01:49:57.036      480.21623141    
19 Jun 2022 03:19:55.284    19 Jun 2022 03:26:30.476      395.19186106    
19 Jun 2022 18:27:51.122    19 Jun 2022 18:35:59.902      488.78064507    
19 Jun 2022 20:06:46.306    19 Jun 2022 20:12:46.608      360.30226958    
19 Jun 2022 23:26:11.414    19 Jun 2022 23:29:04.971      173.55709649    
20 Jun 2022 01:02:13.666    20 Jun 2022 01:09:52.681      459.01481125    
20 Jun 2022 02:39:45.979    20 Jun 2022 02:47:10.645      444.66595401    
20 Jun 2022 17:48:07.408    20 Jun 2022 17:56:06.323      478.91597034    
20 Jun 2022 19:26:27.942    20 Jun 2022 19:33:07.499      399.55719427    
20 Jun 2022 22:46:58.742    20 Jun 2022 22:48:07.024      68.281923502    
21 Jun 2022 00:22:31.747    21 Jun 2022 00:29:42.130      430.38305113    
21 Jun 2022 01:59:43.958    21 Jun 2022 02:07:39.275      475.31705290    
21 Jun 2022 17:08:30.503    21 Jun 2022 17:16:07.358      456.85544010    
21 Jun 2022 18:46:13.918    21 Jun 2022 18:53:25.895      431.97779517    
21 Jun 2022 20:27:32.774    21 Jun 2022 20:29:08.326      95.551637979    
21 Jun 2022 23:42:50.924    21 Jun 2022 23:49:25.514      394.59003559    
22 Jun 2022 01:19:46.752    22 Jun 2022 01:27:58.679      491.92743982    
22 Jun 2022 16:29:02.029    22 Jun 2022 16:36:01.239      419.20927159    
22 Jun 2022 18:06:04.358    22 Jun 2022 18:13:41.709      457.35106518    
22 Jun 2022 19:46:41.358    22 Jun 2022 19:49:47.048      185.69014838    
22 Jun 2022 23:03:11.204    22 Jun 2022 23:09:02.879      351.67520035    
23 Jun 2022 00:39:52.968    23 Jun 2022 00:48:10.099      497.13118065    
23 Jun 2022 02:19:43.678    23 Jun 2022 02:22:15.376      151.69735757    
23 Jun 2022 15:49:45.215    23 Jun 2022 15:55:44.583      359.36797508    
23 Jun 2022 17:25:59.459    23 Jun 2022 17:33:54.730      475.27133989    
23 Jun 2022 19:06:02.516    23 Jun 2022 19:10:14.179      251.66269873    
23 Jun 2022 22:23:32.823    23 Jun 2022 22:28:34.109      301.28598588    
24 Jun 2022 00:00:01.727    24 Jun 2022 00:08:14.272      492.54516115    
24 Jun 2022 01:38:39.361    24 Jun 2022 01:43:49.311      309.95072307    
24 Jun 2022 15:10:48.650    24 Jun 2022 15:15:08.651      260.00101820    
24 Jun 2022 16:45:59.492    24 Jun 2022 16:54:04.624      485.13252031    
24 Jun 2022 18:25:29.699    24 Jun 2022 18:30:36.613      306.91418785    
24 Jun 2022 21:43:56.520    24 Jun 2022 21:47:58.665      242.14582876    
24 Jun 2022 23:20:12.443    24 Jun 2022 23:28:11.669      479.22560707    
25 Jun 2022 00:58:11.646    25 Jun 2022 01:04:42.714      391.06857323    
25 Jun 2022 16:06:04.850    25 Jun 2022 16:14:10.909      486.05949049    
25 Jun 2022 17:45:01.644    25 Jun 2022 17:50:55.880      354.23629903    
25 Jun 2022 21:04:24.615    25 Jun 2022 21:07:14.513      169.89852022    
25 Jun 2022 22:40:24.716    25 Jun 2022 22:48:02.598      457.88219129    
26 Jun 2022 00:17:57.196    26 Jun 2022 00:25:18.764      441.56718850    


Number of events : 333


Observer: Hawaii
Start Time (UTC)            Stop Time (UTC)               Duration (s)         
27 Apr 2022 14:30:18.190    27 Apr 2022 14:38:24.340      486.14980067    
27 Apr 2022 22:48:48.746    27 Apr 2022 22:54:11.342      322.59543609    
28 Apr 2022 00:25:12.929    28 Apr 2022 00:32:54.898      461.96908228    
28 Apr 2022 13:51:20.545    28 Apr 2022 13:59:20.925      480.37957605    
28 Apr 2022 15:31:29.951    28 Apr 2022 15:34:37.385      187.43402503    
28 Apr 2022 22:10:39.361    28 Apr 2022 22:14:02.601      203.24018835    
28 Apr 2022 23:46:01.615    28 Apr 2022 23:54:06.131      484.51672451    
29 Apr 2022 13:12:31.148    29 Apr 2022 13:20:09.236      458.08744471    
29 Apr 2022 14:51:17.553    29 Apr 2022 14:56:30.276      312.72309003    
29 Apr 2022 23:06:56.533    29 Apr 2022 23:15:07.068      490.53491506    
30 Apr 2022 12:33:51.719    30 Apr 2022 12:40:47.267      415.54781614    
30 Apr 2022 14:11:31.560    30 Apr 2022 14:17:58.497      386.93668493    
30 Apr 2022 22:27:56.829    30 Apr 2022 22:35:58.258      481.42896560    
01 May 2022 00:08:00.237    01 May 2022 00:10:16.094      135.85737327    
01 May 2022 11:55:26.546    01 May 2022 12:01:10.448      343.90195274    
01 May 2022 13:31:58.982    01 May 2022 13:39:14.728      435.74605230    
01 May 2022 21:49:02.396    01 May 2022 21:56:39.498      457.10204251    
01 May 2022 23:27:29.990    01 May 2022 23:32:44.469      314.47936037    
02 May 2022 11:17:30.452    02 May 2022 11:21:03.674      213.22256072    
02 May 2022 12:52:36.135    02 May 2022 13:00:22.340      466.20415977    
02 May 2022 21:10:13.951    02 May 2022 21:17:09.753      415.80145148    
02 May 2022 22:47:44.555    02 May 2022 22:54:25.036      400.48122554    
03 May 2022 12:13:21.561    03 May 2022 12:21:22.488      480.92702078    
03 May 2022 20:31:33.712    03 May 2022 20:37:26.483      352.77094507    
03 May 2022 22:08:14.871    03 May 2022 22:15:46.571      451.69956320    
04 May 2022 11:34:14.812    04 May 2022 11:42:15.321      480.50883348    
04 May 2022 13:15:15.450    04 May 2022 13:16:46.068      90.618898126    
04 May 2022 19:53:08.484    04 May 2022 19:57:22.559      254.07506305    
04 May 2022 21:28:54.652    04 May 2022 21:36:55.078      480.42570523    
05 May 2022 10:55:16.214    05 May 2022 11:03:00.223      464.00928665    
05 May 2022 12:34:27.778    05 May 2022 12:39:00.826      273.04765333    
05 May 2022 20:49:41.328    05 May 2022 20:57:52.836      491.50826682    
06 May 2022 10:16:27.069    06 May 2022 10:23:35.610      428.54110622    
06 May 2022 11:54:28.256    06 May 2022 12:00:29.455      361.19898286    
06 May 2022 20:10:33.737    06 May 2022 20:18:40.713      486.97688361    
07 May 2022 09:37:50.622    07 May 2022 09:43:57.954      367.33132488    
07 May 2022 11:14:45.192    07 May 2022 11:21:43.337      418.14471037    
07 May 2022 19:31:31.541    07 May 2022 19:39:18.743      467.20189877    
07 May 2022 21:10:20.889    07 May 2022 21:14:57.338      276.44916878    
08 May 2022 08:59:36.502    08 May 2022 09:03:57.348      260.84560538    
08 May 2022 10:35:13.031    08 May 2022 10:42:47.712      454.68068733    
08 May 2022 18:52:35.181    08 May 2022 18:59:46.174      430.99293580    
08 May 2022 20:30:21.307    08 May 2022 20:36:40.751      379.44331064    
09 May 2022 09:55:49.716    09 May 2022 10:03:44.328      474.61183111    
09 May 2022 18:13:46.309    09 May 2022 18:20:01.026      374.71759102    
09 May 2022 19:50:41.726    09 May 2022 19:58:01.122      439.39530925    
10 May 2022 09:16:34.493    10 May 2022 09:24:33.630      479.13639009    
10 May 2022 17:35:09.736    10 May 2022 17:39:58.160      288.42442789    
10 May 2022 19:11:13.117    10 May 2022 19:19:07.189      474.07266718    
11 May 2022 08:37:27.440    11 May 2022 08:45:15.240      467.79933254    
11 May 2022 10:17:04.707    11 May 2022 10:20:54.520      229.81231904    
11 May 2022 16:57:09.770    11 May 2022 16:59:12.936      123.16635882    
11 May 2022 18:31:52.152    11 May 2022 18:40:01.985      489.83305934    
12 May 2022 07:58:29.527    12 May 2022 08:05:47.887      438.36010848    
12 May 2022 09:36:50.482    12 May 2022 09:42:25.667      335.18420651    
12 May 2022 17:52:37.327    12 May 2022 18:00:46.706      489.37887533    
13 May 2022 07:19:43.295    13 May 2022 07:26:08.737      385.44164834    
13 May 2022 08:56:57.153    13 May 2022 09:03:37.883      400.73081714    
13 May 2022 17:13:28.082    13 May 2022 17:21:21.598      473.51592671    
13 May 2022 18:52:40.764    13 May 2022 18:56:32.757      231.99313853    
14 May 2022 06:41:15.680    14 May 2022 06:46:10.553      294.87327643    
14 May 2022 08:17:16.131    14 May 2022 08:24:39.425      443.29359045    
14 May 2022 16:34:24.627    14 May 2022 16:41:46.122      441.49490967    
14 May 2022 18:12:25.350    14 May 2022 18:18:21.499      356.14950625    
15 May 2022 06:03:50.991    15 May 2022 06:05:08.725      77.733260288    
15 May 2022 07:37:44.591    15 May 2022 07:45:32.784      468.19267147    
15 May 2022 15:55:28.233    15 May 2022 16:01:58.666      390.43312449    
15 May 2022 17:32:36.030    15 May 2022 17:39:41.281      425.25048649    
16 May 2022 06:58:21.437    16 May 2022 07:06:18.725      477.28853342    
16 May 2022 15:16:42.595    16 May 2022 15:21:55.183      312.58764204    
16 May 2022 16:52:59.418    16 May 2022 17:00:45.178      465.75955659    
17 May 2022 06:19:06.504    17 May 2022 06:26:57.086      470.58191275    
17 May 2022 07:59:11.000    17 May 2022 08:02:13.195      182.19542722    
17 May 2022 14:38:22.340    17 May 2022 14:41:20.692      178.35153651    
17 May 2022 16:13:31.234    17 May 2022 16:21:37.151      485.91704036    
18 May 2022 05:40:00.490    18 May 2022 05:47:26.846      446.35607132    
18 May 2022 07:18:39.806    18 May 2022 07:23:49.709      309.90311344    
18 May 2022 15:34:09.593    18 May 2022 15:42:18.760      489.16770386    
19 May 2022 05:01:05.423    19 May 2022 05:07:45.655      400.23140229    
19 May 2022 06:38:36.248    19 May 2022 06:45:00.690      384.44285353    
19 May 2022 14:54:53.710    19 May 2022 15:02:50.452      476.74191945    
19 May 2022 16:34:33.437    19 May 2022 16:37:30.882      177.44558343    
20 May 2022 04:22:26.622    20 May 2022 04:27:47.875      321.25296638    
20 May 2022 05:58:46.613    20 May 2022 06:05:59.499      432.88536983    
20 May 2022 14:15:43.603    20 May 2022 14:23:11.862      448.25887545    
20 May 2022 15:53:58.314    20 May 2022 15:59:29.121      330.80689672    
21 May 2022 03:44:26.435    21 May 2022 03:47:10.836      164.40102817    
21 May 2022 05:19:07.117    21 May 2022 05:26:49.565      462.44775380    
21 May 2022 13:36:40.265    21 May 2022 13:43:21.637      401.37273838    
21 May 2022 15:13:59.028    21 May 2022 15:20:48.719      409.69062225    
22 May 2022 04:39:36.293    22 May 2022 04:47:32.003      475.71005048    
22 May 2022 12:57:46.700    22 May 2022 13:03:16.406      329.70577710    
22 May 2022 14:34:14.470    22 May 2022 14:41:50.456      455.98649459    
23 May 2022 04:00:13.753    23 May 2022 04:08:06.859      473.10654010    
23 May 2022 05:40:48.765    23 May 2022 05:42:56.148      127.38311923    
23 May 2022 12:19:13.510    23 May 2022 12:22:45.198      211.68713823    
23 May 2022 13:54:39.158    23 May 2022 14:02:39.484      480.32647868    
24 May 2022 03:20:59.969    24 May 2022 03:28:33.324      453.35560242    
24 May 2022 04:59:56.056    24 May 2022 05:04:42.552      286.49604806    
24 May 2022 13:15:10.785    24 May 2022 13:23:17.773      486.98758625    
25 May 2022 02:41:56.596    25 May 2022 02:48:49.411      412.81595420    
25 May 2022 04:19:42.157    25 May 2022 04:25:52.312      370.15520566    
25 May 2022 12:35:48.352    25 May 2022 12:43:45.979      477.62694501    
25 May 2022 14:16:05.371    25 May 2022 14:17:45.805      100.43458178    
26 May 2022 02:03:07.906    26 May 2022 02:08:50.522      342.61618315    
26 May 2022 03:39:43.999    26 May 2022 03:46:48.137      424.13807174    
26 May 2022 11:56:31.711    26 May 2022 12:04:03.898      452.18663245    
26 May 2022 13:34:59.917    26 May 2022 13:40:03.970      304.05222452    
27 May 2022 01:24:48.839    27 May 2022 01:28:21.394      212.55561572    
27 May 2022 02:59:56.660    27 May 2022 03:07:34.593      457.93248176    
27 May 2022 11:17:21.653    27 May 2022 11:24:10.379      408.72664419    
27 May 2022 12:54:50.172    27 May 2022 13:01:23.645      393.47297925    
28 May 2022 02:20:18.298    28 May 2022 02:28:13.169      474.87121727    
28 May 2022 10:38:20.728    28 May 2022 10:44:02.505      341.77643243    
28 May 2022 12:14:57.568    28 May 2022 12:22:23.067      445.49941106    
29 May 2022 01:40:48.321    29 May 2022 01:48:44.115      475.79395951    
29 May 2022 03:22:05.985    29 May 2022 03:22:54.020      48.035108659    
29 May 2022 09:59:37.396    29 May 2022 10:03:31.447      234.05102128    
29 May 2022 11:35:15.104    29 May 2022 11:43:08.912      473.80845429    
30 May 2022 01:01:27.023    30 May 2022 01:09:06.804      459.78073322    
30 May 2022 02:40:37.870    30 May 2022 02:45:04.039      266.16860821    
30 May 2022 10:55:40.010    30 May 2022 11:03:43.617      483.60727555    
31 May 2022 00:22:15.785    31 May 2022 00:29:19.529      423.74342869    
31 May 2022 02:00:13.743    31 May 2022 02:06:12.324      358.58134154    
31 May 2022 10:16:11.073    31 May 2022 10:24:08.060      476.98730322    
31 May 2022 23:43:18.182    31 May 2022 23:49:18.396      360.21416121    
01 Jun 2022 01:20:07.312    01 Jun 2022 01:27:04.817      417.50502301    
01 Jun 2022 09:36:48.004    01 Jun 2022 09:44:22.188      454.18405139    
01 Jun 2022 11:15:29.113    01 Jun 2022 11:20:06.131      277.01853176    
01 Jun 2022 23:04:45.436    01 Jun 2022 23:08:51.868      246.43202465    
02 Jun 2022 00:40:12.402    02 Jun 2022 00:47:47.345      454.94335721    
02 Jun 2022 08:57:31.436    02 Jun 2022 09:04:25.016      413.57988965    
02 Jun 2022 10:35:08.542    02 Jun 2022 10:41:26.179      377.63667880    
03 Jun 2022 00:00:26.806    03 Jun 2022 00:08:21.772      474.96654529    
03 Jun 2022 08:18:23.606    03 Jun 2022 08:24:13.950      350.34426466    
03 Jun 2022 09:55:07.977    03 Jun 2022 10:02:23.191      435.21433119    
03 Jun 2022 23:20:49.756    03 Jun 2022 23:28:48.534      478.77807630    
04 Jun 2022 07:39:31.673    04 Jun 2022 07:43:41.468      249.79541983    
04 Jun 2022 09:15:18.523    04 Jun 2022 09:23:05.741      467.21753374    
04 Jun 2022 22:41:21.400    04 Jun 2022 22:49:07.154      465.75315512    
05 Jun 2022 00:20:44.541    05 Jun 2022 00:24:54.450      249.90900960    
05 Jun 2022 08:35:36.913    05 Jun 2022 08:43:36.775      479.86165836    
05 Jun 2022 22:02:02.918    05 Jun 2022 22:09:16.134      433.21614655    
05 Jun 2022 23:40:10.836    05 Jun 2022 23:46:00.911      350.07477778    
06 Jun 2022 07:56:01.719    06 Jun 2022 08:03:57.391      475.67160521    
06 Jun 2022 21:22:57.406    06 Jun 2022 21:29:12.065      374.65867368    
06 Jun 2022 22:59:56.743    06 Jun 2022 23:06:49.835      413.09161435    
07 Jun 2022 07:16:32.521    07 Jun 2022 07:24:07.671      455.15066598    
07 Jun 2022 08:55:25.675    07 Jun 2022 08:59:36.859      251.18418782    
07 Jun 2022 20:44:13.964    07 Jun 2022 20:48:45.533      271.56860470    
07 Jun 2022 22:19:54.841    07 Jun 2022 22:27:28.300      453.45976098    
08 Jun 2022 06:37:09.820    08 Jun 2022 06:44:06.765      416.94500260    
08 Jun 2022 08:14:54.313    08 Jun 2022 08:20:57.619      363.30561843    
08 Jun 2022 21:40:02.593    08 Jun 2022 21:47:58.499      475.90655666    
09 Jun 2022 05:57:55.617    09 Jun 2022 06:03:52.315      356.69825982    
09 Jun 2022 07:34:46.184    09 Jun 2022 07:41:52.238      426.05357099    
09 Jun 2022 21:00:19.077    09 Jun 2022 21:08:21.016      481.93886527    
10 Jun 2022 05:18:56.202    10 Jun 2022 05:23:17.662      261.45956931    
10 Jun 2022 06:54:50.152    10 Jun 2022 07:02:31.531      461.37860947    
10 Jun 2022 20:20:44.326    10 Jun 2022 20:28:35.487      471.16098481    
10 Jun 2022 22:00:17.006    10 Jun 2022 22:04:15.145      238.13928774    
11 Jun 2022 06:15:02.428    11 Jun 2022 06:22:58.957      476.52902738    
11 Jun 2022 19:41:19.364    11 Jun 2022 19:48:40.559      441.19495028    
11 Jun 2022 21:19:34.822    11 Jun 2022 21:25:19.344      344.52183126    
12 Jun 2022 05:35:21.374    12 Jun 2022 05:43:15.818      474.44313986    
12 Jun 2022 19:02:06.960    12 Jun 2022 19:08:33.140      386.17914497    
12 Jun 2022 20:39:13.893    12 Jun 2022 20:46:04.538      410.64490759    
13 Jun 2022 04:55:46.446    13 Jun 2022 05:03:22.309      455.86293204    
13 Jun 2022 06:34:50.318    13 Jun 2022 06:38:38.607      228.28949110    
13 Jun 2022 18:23:14.936    13 Jun 2022 18:28:05.082      290.14551498    
13 Jun 2022 19:59:05.706    13 Jun 2022 20:06:38.884      453.17761952    
14 Jun 2022 04:16:18.031    14 Jun 2022 04:23:17.682      419.65145512    
14 Jun 2022 05:54:08.605    14 Jun 2022 06:00:00.133      351.52854397    
14 Jun 2022 19:19:07.457    14 Jun 2022 19:27:04.828      477.37129549    
15 Jun 2022 03:36:57.939    15 Jun 2022 03:42:59.753      361.81384292    
15 Jun 2022 05:13:53.460    15 Jun 2022 05:20:52.270      418.80993132    
15 Jun 2022 18:39:18.101    15 Jun 2022 18:47:23.064      484.96307720    
16 Jun 2022 02:57:51.845    16 Jun 2022 03:02:22.465      270.62046246    
16 Jun 2022 04:33:51.299    16 Jun 2022 04:41:28.264      456.96507351    
16 Jun 2022 17:59:37.580    16 Jun 2022 18:07:33.301      475.72096781    
16 Jun 2022 19:39:16.961    16 Jun 2022 19:43:07.643      230.68170492    
17 Jun 2022 02:19:39.960    17 Jun 2022 02:20:45.220      65.260960395    
17 Jun 2022 03:53:57.840    17 Jun 2022 04:01:52.055      474.21556270    
17 Jun 2022 17:20:06.812    17 Jun 2022 17:27:34.278      447.46568170    
17 Jun 2022 18:58:27.480    17 Jun 2022 19:04:08.939      341.45912533    
18 Jun 2022 03:14:11.254    18 Jun 2022 03:22:05.120      473.86556963    
18 Jun 2022 16:40:48.355    18 Jun 2022 16:47:23.098      394.74289102    
18 Jun 2022 18:18:00.458    18 Jun 2022 18:24:50.143      409.68501256    
19 Jun 2022 02:34:30.890    19 Jun 2022 02:42:07.747      456.85692810    
19 Jun 2022 04:13:43.410    19 Jun 2022 04:17:13.739      210.32958424    
19 Jun 2022 16:01:49.283    19 Jun 2022 16:06:52.349      303.06657652    
19 Jun 2022 17:37:46.571    19 Jun 2022 17:45:20.207      453.63605598    
20 Jun 2022 01:54:57.042    20 Jun 2022 02:01:59.266      422.22349722    
20 Jun 2022 03:32:52.195    20 Jun 2022 03:38:35.392      343.19721248    
20 Jun 2022 15:23:54.198    20 Jun 2022 15:25:17.084      82.885709207    
20 Jun 2022 16:57:42.825    20 Jun 2022 17:05:41.753      478.92818298    
21 Jun 2022 01:15:31.379    21 Jun 2022 01:21:37.620      366.24049740    
21 Jun 2022 02:52:30.569    21 Jun 2022 02:59:24.654      414.08566543    
21 Jun 2022 16:17:48.092    21 Jun 2022 16:25:55.544      487.45124484    
22 Jun 2022 00:36:19.135    22 Jun 2022 00:40:57.180      278.04511730    
22 Jun 2022 02:12:22.634    22 Jun 2022 02:19:57.075      454.44141207    
22 Jun 2022 15:38:02.261    22 Jun 2022 15:46:01.334      479.07343372    
22 Jun 2022 17:17:45.557    22 Jun 2022 17:21:32.537      226.98013515    
22 Jun 2022 23:57:51.574    22 Jun 2022 23:59:26.282      94.708506111    
23 Jun 2022 01:32:23.698    23 Jun 2022 01:40:16.993      473.29514141    
23 Jun 2022 14:58:26.188    23 Jun 2022 15:05:57.914      451.72548465    
23 Jun 2022 16:36:49.830    23 Jun 2022 16:42:30.138      340.30736005    
24 Jun 2022 00:52:31.787    24 Jun 2022 01:00:26.027      474.24083885    
24 Jun 2022 14:19:02.325    24 Jun 2022 14:25:42.487      400.16264889    
24 Jun 2022 15:56:17.294    24 Jun 2022 16:03:06.991      409.69663271    
25 Jun 2022 00:12:46.168    25 Jun 2022 00:20:24.539      458.37187381    
25 Jun 2022 01:52:04.322    25 Jun 2022 01:55:23.729      199.40727374    
25 Jun 2022 13:39:57.381    25 Jun 2022 13:45:08.003      310.62151976    
25 Jun 2022 15:15:58.148    25 Jun 2022 15:23:32.522      454.37428057    
25 Jun 2022 23:33:07.074    25 Jun 2022 23:40:11.919      424.84468692    
26 Jun 2022 01:11:05.062    26 Jun 2022 01:16:44.019      338.95700213    


Number of events : 216


Observer: Ireland
Start Time (UTC)            Stop Time (UTC)               Duration (s)         
28 Apr 2022 06:15:44.574    28 Apr 2022 06:22:01.151      376.57651808    
