GMAT/Constellation/Contact/ContactLocator8.txt

Target: HSEYE8

Observer: Bahrain
Start Time (UTC)            Stop Time (UTC)               Duration (s)         
27 Apr 2022 16:24:38.207    27 Apr 2022 16:31:57.966      439.75921104    
27 Apr 2022 18:02:33.321    27 Apr 2022 18:09:23.800      410.47885852    
28 Apr 2022 00:40:26.875    28 Apr 2022 00:47:01.546      394.67060622    
28 Apr 2022 02:17:39.836    28 Apr 2022 02:25:16.614      456.77774395    
28 Apr 2022 15:48:30.519    28 Apr 2022 15:55:06.664      396.14498655    
28 Apr 2022 17:25:40.008    28 Apr 2022 17:33:03.696      443.68857548    
29 Apr 2022 00:04:13.024    29 Apr 2022 00:09:57.764      344.73967639    
29 Apr 2022 01:40:57.487    29 Apr 2022 01:48:57.012      479.52482561    
29 Apr 2022 15:12:33.596    29 Apr 2022 15:18:04.177      330.58122278    
29 Apr 2022 16:48:51.608    29 Apr 2022 16:56:39.289      467.68133473    
29 Apr 2022 23:28:05.522    29 Apr 2022 23:32:43.275      277.75321207    
30 Apr 2022 01:04:18.839    30 Apr 2022 01:12:30.354      491.51481508    
30 Apr 2022 14:36:57.439    30 Apr 2022 14:40:40.371      222.93265031    
30 Apr 2022 16:12:07.714    30 Apr 2022 16:20:10.856      483.14183035    
30 Apr 2022 22:52:12.384    30 Apr 2022 22:55:09.963      177.57955537    
01 May 2022 00:27:43.145    01 May 2022 00:35:57.237      494.09169898    
01 May 2022 15:35:28.177    01 May 2022 15:43:38.410      490.23270481    
01 May 2022 17:16:28.991    01 May 2022 17:18:57.702      148.71110371    
01 May 2022 23:51:09.974    01 May 2022 23:59:17.944      487.96981350    
02 May 2022 01:30:50.023    02 May 2022 01:34:17.129      207.10626921    
02 May 2022 14:58:53.057    02 May 2022 15:07:01.749      488.69212589    
02 May 2022 16:38:48.194    02 May 2022 16:43:08.669      260.47538478    
02 May 2022 23:14:39.119    02 May 2022 23:22:32.526      473.40744780    
03 May 2022 00:53:19.914    03 May 2022 00:58:42.973      323.05818441    
03 May 2022 14:22:22.641    03 May 2022 14:30:20.444      477.80278613    
03 May 2022 16:01:28.246    03 May 2022 16:06:59.770      331.52362739    
03 May 2022 22:38:10.585    03 May 2022 22:45:40.827      450.24224423    
04 May 2022 00:16:11.814    04 May 2022 00:22:43.914      392.10029697    
04 May 2022 13:45:57.529    04 May 2022 13:53:33.753      456.22354163    
04 May 2022 15:24:18.074    04 May 2022 15:30:41.989      383.91461227    
04 May 2022 22:01:44.636    04 May 2022 22:08:42.437      417.80118038    
04 May 2022 23:39:13.836    04 May 2022 23:46:31.693      437.85735208    
05 May 2022 13:09:38.845    05 May 2022 13:16:40.408      421.56284525    
05 May 2022 14:47:14.633    05 May 2022 14:54:18.266      423.63268038    
05 May 2022 21:25:21.946    05 May 2022 21:31:36.542      374.59653957    
05 May 2022 23:02:22.115    05 May 2022 23:10:10.024      467.90833259    
06 May 2022 12:33:28.803    06 May 2022 12:39:38.052      369.24891971    
06 May 2022 14:10:16.616    06 May 2022 14:17:49.790      453.17406737    
06 May 2022 20:49:04.041    06 May 2022 20:54:21.485      317.44352058    
06 May 2022 22:25:34.805    06 May 2022 22:33:40.606      485.80107966    
07 May 2022 11:57:32.671    07 May 2022 12:02:21.283      288.61217676    
07 May 2022 13:33:23.378    07 May 2022 13:41:17.074      473.69591058    
07 May 2022 20:12:54.936    07 May 2022 20:16:53.140      238.20358375    
07 May 2022 21:48:50.874    07 May 2022 21:57:04.321      493.44755549    
08 May 2022 11:22:13.556    08 May 2022 11:24:26.853      133.29690699    
08 May 2022 12:56:34.627    08 May 2022 13:04:40.282      485.65519400    
08 May 2022 19:37:15.157    08 May 2022 19:38:50.892      95.735519752    
08 May 2022 21:12:09.718    08 May 2022 21:20:21.623      491.90428565    
08 May 2022 22:53:01.499    08 May 2022 22:54:01.976      60.476473044    
09 May 2022 12:19:50.306    09 May 2022 12:27:59.333      489.02696836    
09 May 2022 14:00:17.926    09 May 2022 14:03:42.365      204.43923448    
09 May 2022 20:35:31.012    09 May 2022 20:43:32.690      481.67825985    
09 May 2022 22:14:39.074    09 May 2022 22:19:08.278      269.20400276    
10 May 2022 11:43:10.581    10 May 2022 11:51:13.926      483.34453620    
10 May 2022 13:22:41.785    10 May 2022 13:27:35.612      293.82681636    
10 May 2022 19:58:54.650    10 May 2022 20:06:37.485      462.83476482    
10 May 2022 21:37:14.913    10 May 2022 21:43:13.466      358.55311170    
11 May 2022 11:06:35.886    11 May 2022 11:14:23.495      467.60943969    
11 May 2022 12:45:19.745    11 May 2022 12:51:15.729      355.98344367    
11 May 2022 19:22:20.762    11 May 2022 19:29:35.738      434.97598098    
11 May 2022 21:00:05.435    11 May 2022 21:07:00.988      415.55237946    
12 May 2022 10:30:07.056    12 May 2022 10:37:27.073      440.01730849    
12 May 2022 12:08:05.928    12 May 2022 12:14:48.512      402.58327767    
12 May 2022 18:45:49.803    12 May 2022 18:52:26.862      397.05926034    
12 May 2022 20:23:03.995    12 May 2022 20:30:37.352      453.35683550    
13 May 2022 09:53:45.680    13 May 2022 10:00:22.943      397.26351863    
13 May 2022 11:30:58.259    13 May 2022 11:38:15.938      437.67897093    
13 May 2022 18:09:22.823    13 May 2022 18:15:09.687      346.86307283    
13 May 2022 19:46:07.894    13 May 2022 19:54:05.123      477.22956296    
14 May 2022 09:17:35.126    14 May 2022 09:23:07.611      332.48545550    
14 May 2022 10:53:55.779    14 May 2022 11:01:38.853      463.07369841    
14 May 2022 17:33:02.324    14 May 2022 17:37:41.605      279.28066431    
14 May 2022 19:09:15.731    14 May 2022 19:17:25.567      489.83576910    
15 May 2022 08:41:45.243    15 May 2022 08:45:31.106      225.86268371    
15 May 2022 10:16:58.030    15 May 2022 10:24:57.604      479.57365669    
15 May 2022 16:56:56.514    15 May 2022 16:59:54.322      177.80887292    
15 May 2022 18:32:26.706    15 May 2022 18:40:39.348      492.64189795    
16 May 2022 09:40:04.841    16 May 2022 09:48:12.237      487.39581427    
16 May 2022 11:21:11.230    16 May 2022 11:23:24.415      133.18452768    
16 May 2022 17:55:40.364    16 May 2022 18:03:46.786      486.42257819    
16 May 2022 19:35:21.852    16 May 2022 19:38:42.257      200.40460570    
17 May 2022 09:03:16.275    17 May 2022 09:11:22.569      486.29346503    
17 May 2022 10:43:12.676    17 May 2022 10:47:26.413      253.73641950    
17 May 2022 17:18:56.498    17 May 2022 17:26:47.956      471.45776139    
17 May 2022 18:57:36.649    17 May 2022 19:02:56.938      320.28882707    
18 May 2022 08:26:32.638    18 May 2022 08:34:28.170      475.53170737    
18 May 2022 10:05:38.068    18 May 2022 10:11:05.614      327.54564781    
18 May 2022 16:42:15.130    18 May 2022 16:49:42.703      447.57257737    
18 May 2022 18:20:14.866    18 May 2022 18:26:45.375      390.50816620    
19 May 2022 07:49:54.568    19 May 2022 07:57:28.278      453.71008589    
19 May 2022 09:28:13.959    19 May 2022 09:34:35.399      381.43993907    
19 May 2022 16:05:36.563    19 May 2022 16:12:30.599      414.03538092    
19 May 2022 17:43:03.658    19 May 2022 17:50:20.283      436.62514159    
20 May 2022 07:13:23.267    20 May 2022 07:20:21.567      418.30025733    
20 May 2022 08:50:56.984    20 May 2022 08:57:59.050      422.06612657    
20 May 2022 15:29:01.555    20 May 2022 15:35:10.764      369.20876704    
20 May 2022 17:05:58.985    20 May 2022 17:13:45.573      466.58794050    
21 May 2022 06:37:01.127    21 May 2022 06:43:05.521      364.39356609    
21 May 2022 08:13:45.742    21 May 2022 08:21:17.863      452.12129635    
21 May 2022 14:52:31.845    21 May 2022 14:57:41.351      309.50594796    
21 May 2022 16:28:58.943    21 May 2022 16:37:03.017      484.07333242    
22 May 2022 06:00:53.991    22 May 2022 06:05:34.175      280.18320763    
22 May 2022 07:36:39.563    22 May 2022 07:44:32.398      472.83553630    
22 May 2022 14:16:12.209    22 May 2022 14:19:57.488      225.27915048    
22 May 2022 15:52:02.483    22 May 2022 16:00:13.528      491.04492160    
23 May 2022 05:25:31.516    23 May 2022 05:27:17.746      106.23053644    
23 May 2022 06:59:38.147    23 May 2022 07:07:42.831      484.68418771    
23 May 2022 13:40:37.581    23 May 2022 13:41:24.166      46.584718593    
23 May 2022 15:15:08.999    23 May 2022 15:23:17.572      488.57315305    
23 May 2022 16:55:43.172    23 May 2022 16:57:14.523      91.350488027    
24 May 2022 06:22:41.452    24 May 2022 06:30:49.077      487.62537731    
24 May 2022 08:03:03.333    24 May 2022 08:06:34.217      210.88410434    
24 May 2022 14:38:18.174    24 May 2022 14:46:15.325      477.15111683    
24 May 2022 16:17:19.750    24 May 2022 16:21:56.675      276.92443966    
25 May 2022 05:45:49.671    25 May 2022 05:53:50.810      481.13973713    
25 May 2022 07:25:15.208    25 May 2022 07:30:14.411      299.20216250    
25 May 2022 14:01:29.927    25 May 2022 14:09:06.726      456.79867241    
25 May 2022 15:39:44.582    25 May 2022 15:45:47.909      363.32676691    
26 May 2022 05:09:03.287    26 May 2022 05:16:47.410      464.12326775    
26 May 2022 06:47:41.057    26 May 2022 06:53:41.897      360.83976352    
26 May 2022 13:24:44.435    26 May 2022 13:31:51.457      427.02199073    
26 May 2022 15:02:23.653    26 May 2022 15:09:22.102      418.44909479    
27 May 2022 04:32:23.239    27 May 2022 04:39:37.803      434.56425865    
27 May 2022 06:10:15.266    27 May 2022 06:17:02.200      406.93401316    
27 May 2022 12:48:02.250    27 May 2022 12:54:28.828      386.57823567    
27 May 2022 14:25:10.717    27 May 2022 14:32:45.354      454.63638310    
28 May 2022 03:55:51.336    28 May 2022 04:02:20.040      388.70338288    
28 May 2022 05:32:55.817    28 May 2022 05:40:17.226      441.40908485    
28 May 2022 12:11:24.654    28 May 2022 12:16:57.428      332.77485181    
28 May 2022 13:48:03.181    28 May 2022 13:56:00.114      476.93330313    
29 May 2022 03:19:31.580    29 May 2022 03:24:49.980      318.39973239    
29 May 2022 04:55:41.777    29 May 2022 05:03:27.783      466.00526223    
29 May 2022 11:34:54.867    29 May 2022 11:39:13.919      259.05219420    
29 May 2022 13:10:59.684    29 May 2022 13:19:07.592      487.90721891    
30 May 2022 02:43:37.144    30 May 2022 02:46:54.310      197.16556706    
30 May 2022 04:18:32.705    30 May 2022 04:26:34.181      481.47584915    
30 May 2022 10:58:45.700    30 May 2022 11:01:05.394      139.69388874    
30 May 2022 12:33:59.451    30 May 2022 12:42:08.410      488.95871787    
31 May 2022 03:41:28.451    31 May 2022 03:49:36.426      487.97487847    
31 May 2022 05:22:17.205    31 May 2022 05:25:00.865      163.65967387    
31 May 2022 11:57:02.047    31 May 2022 12:05:02.846      480.79849194    
31 May 2022 13:36:27.599    31 May 2022 13:40:14.817      227.21809183    
01 Jun 2022 03:04:29.113    01 Jun 2022 03:12:34.279      485.16604174    
01 Jun 2022 04:44:13.424    01 Jun 2022 04:48:44.815      271.39021255    
01 Jun 2022 11:20:07.297    01 Jun 2022 11:27:50.922      463.62486564    
01 Jun 2022 12:58:36.853    01 Jun 2022 13:04:11.480      334.62635680    
02 Jun 2022 02:27:35.054    02 Jun 2022 02:35:27.226      472.17240717    
02 Jun 2022 04:06:29.258    02 Jun 2022 04:12:10.514      341.25661310    
02 Jun 2022 10:43:15.274    02 Jun 2022 10:50:32.411      437.13738861    
02 Jun 2022 12:21:05.966    02 Jun 2022 12:27:45.549      399.58356394    
03 Jun 2022 01:50:47.027    03 Jun 2022 01:58:14.372      447.34459757    
03 Jun 2022 03:28:54.939    03 Jun 2022 03:35:27.641      392.70248925    
03 Jun 2022 10:06:26.381    03 Jun 2022 10:13:06.761      400.37986727    
03 Jun 2022 11:43:44.846    03 Jun 2022 11:51:06.967      442.12169572    
04 Jun 2022 01:14:06.472    04 Jun 2022 01:20:54.129      407.65616713    
04 Jun 2022 02:51:27.618    04 Jun 2022 02:58:38.935      431.31613360    
04 Jun 2022 09:29:41.604    04 Jun 2022 09:35:32.845      351.24095846    
04 Jun 2022 11:06:29.965    04 Jun 2022 11:14:19.108      469.14249564    
05 Jun 2022 00:37:36.389    05 Jun 2022 00:43:23.354      346.96540141    
05 Jun 2022 02:14:06.062    05 Jun 2022 02:21:45.504      459.44138432    
05 Jun 2022 08:53:03.311    05 Jun 2022 08:57:48.169      284.85770765    
05 Jun 2022 10:29:19.600    05 Jun 2022 10:37:23.542      483.94209350    
06 Jun 2022 00:01:24.948    06 Jun 2022 00:05:33.734      248.78639511    
06 Jun 2022 01:36:49.679    06 Jun 2022 01:44:47.808      478.12859280    
06 Jun 2022 08:16:39.095    06 Jun 2022 08:19:45.034      185.93977424    
06 Jun 2022 09:52:12.788    06 Jun 2022 10:00:21.077      488.28884403    
07 Jun 2022 00:59:38.228    07 Jun 2022 01:07:45.949      487.72091246    
07 Jun 2022 02:40:58.051    07 Jun 2022 02:42:44.822      106.77052421    
07 Jun 2022 09:15:08.985    07 Jun 2022 09:23:12.104      483.11849011    
07 Jun 2022 10:55:03.034    07 Jun 2022 10:57:50.904      167.87016640    
08 Jun 2022 00:22:31.727    08 Jun 2022 00:30:39.768      488.04101169    
08 Jun 2022 02:02:33.451    08 Jun 2022 02:06:37.976      244.52520947    
08 Jun 2022 08:38:07.931    08 Jun 2022 08:45:56.729      468.79863152    
08 Jun 2022 10:16:52.304    08 Jun 2022 10:21:57.525      305.22007174    
08 Jun 2022 23:45:30.456    08 Jun 2022 23:53:28.847      478.39099236    
09 Jun 2022 01:24:39.177    09 Jun 2022 01:30:02.271      323.09327776    
09 Jun 2022 08:01:09.618    09 Jun 2022 08:08:34.812      445.19433671    
09 Jun 2022 09:39:11.084    09 Jun 2022 09:45:31.975      380.89078664    
09 Jun 2022 23:08:35.035    09 Jun 2022 23:16:12.420      457.38500718    
10 Jun 2022 00:46:56.589    10 Jun 2022 00:53:16.272      379.68360839    
10 Jun 2022 07:24:14.342    10 Jun 2022 07:31:05.912      411.57044257    
10 Jun 2022 09:01:41.834    10 Jun 2022 09:08:51.649      429.81497560    
10 Jun 2022 22:31:46.665    10 Jun 2022 22:38:49.155      422.48936909    
11 Jun 2022 00:09:21.739    11 Jun 2022 00:16:23.832      422.09256445    
11 Jun 2022 06:47:22.889    11 Jun 2022 06:53:29.110      366.22147593    
11 Jun 2022 08:24:19.783    11 Jun 2022 08:32:01.178      461.39484385    
11 Jun 2022 21:55:07.746    11 Jun 2022 22:01:16.513      368.76661495    
11 Jun 2022 23:31:53.055    11 Jun 2022 23:39:26.413      453.35809907    
12 Jun 2022 06:10:37.106    12 Jun 2022 06:15:42.437      305.33135911    
12 Jun 2022 07:47:02.780    12 Jun 2022 07:55:02.569      479.78929403    
12 Jun 2022 21:18:44.143    12 Jun 2022 21:23:28.497      284.35386841    
12 Jun 2022 22:54:29.795    12 Jun 2022 23:02:24.638      474.84291703    
13 Jun 2022 05:34:02.244    13 Jun 2022 05:37:40.540      218.29648619    
13 Jun 2022 07:09:49.666    13 Jun 2022 07:17:56.836      487.16984518    
13 Jun 2022 20:43:05.184    13 Jun 2022 20:44:55.648      110.46385939    
13 Jun 2022 22:17:11.632    13 Jun 2022 22:25:18.705      487.07335889    
14 Jun 2022 06:32:39.786    14 Jun 2022 06:40:44.489      484.70360963    
14 Jun 2022 08:13:14.732    14 Jun 2022 08:14:38.432      83.700147620    
14 Jun 2022 21:39:58.519    14 Jun 2022 21:48:08.532      490.01285745    
14 Jun 2022 23:20:16.255    14 Jun 2022 23:23:55.163      218.90815557    
15 Jun 2022 05:55:32.802    15 Jun 2022 06:03:25.722      472.92027388    
15 Jun 2022 07:34:31.753    15 Jun 2022 07:39:07.757      276.00373673    
15 Jun 2022 21:02:50.665    15 Jun 2022 21:10:53.773      483.10842648    
15 Jun 2022 22:42:12.032    15 Jun 2022 22:47:18.611      306.57881104    
16 Jun 2022 05:18:28.637    16 Jun 2022 05:26:00.467      451.83033660    
16 Jun 2022 06:56:40.073    16 Jun 2022 07:02:43.268      363.19484372    
16 Jun 2022 20:25:48.597    16 Jun 2022 20:33:33.769      465.17157824    
16 Jun 2022 22:04:21.728    16 Jun 2022 22:10:29.724      367.99607906    
17 Jun 2022 04:41:27.500    17 Jun 2022 04:48:28.376      420.87581417    
17 Jun 2022 06:19:03.067    17 Jun 2022 06:26:01.451      418.38347737    
17 Jun 2022 19:48:53.342    17 Jun 2022 19:56:07.355      434.01299051    
17 Jun 2022 21:26:39.979    17 Jun 2022 21:33:33.778      413.79975808    
18 Jun 2022 04:04:30.027    18 Jun 2022 04:10:48.676      378.64959575    
18 Jun 2022 05:41:34.324    18 Jun 2022 05:49:08.578      454.25403756    
18 Jun 2022 19:12:06.913    18 Jun 2022 19:18:32.383      385.46992941    
18 Jun 2022 20:49:04.829    18 Jun 2022 20:56:32.624      447.79485570    
19 Jun 2022 03:27:37.713    19 Jun 2022 03:32:59.748      322.03410905    
19 Jun 2022 05:04:11.199    19 Jun 2022 05:12:07.147      475.94814955    
19 Jun 2022 18:35:33.906    19 Jun 2022 18:40:44.121      310.21456160    
19 Jun 2022 20:11:35.378    19 Jun 2022 20:19:27.040      471.66170315    
20 Jun 2022 02:50:54.513    20 Jun 2022 02:54:57.525      243.01184888    
20 Jun 2022 04:26:52.321    20 Jun 2022 04:34:58.384      486.06347231    
20 Jun 2022 17:59:31.173    20 Jun 2022 18:02:25.579      174.40603576    
20 Jun 2022 19:34:11.210    20 Jun 2022 19:42:17.310      486.10033812    
21 Jun 2022 02:14:40.059    21 Jun 2022 02:16:22.286      102.22670393    
21 Jun 2022 03:49:36.914    21 Jun 2022 03:57:42.912      485.99842445    
21 Jun 2022 18:56:52.211    21 Jun 2022 19:05:03.409      491.19813378    
21 Jun 2022 20:37:24.661    21 Jun 2022 20:40:39.134      194.47366730    
22 Jun 2022 03:12:24.559    22 Jun 2022 03:20:20.995      476.43563653    
22 Jun 2022 04:51:37.669    22 Jun 2022 04:55:45.397      247.72831395    
22 Jun 2022 18:19:38.527    22 Jun 2022 18:27:45.047      486.52015988    
22 Jun 2022 19:59:10.800    22 Jun 2022 20:04:02.454      291.65388193    
23 Jun 2022 02:35:15.110    23 Jun 2022 02:42:52.624      457.51338545    
23 Jun 2022 04:13:35.607    23 Jun 2022 04:19:22.715      347.10829693    
23 Jun 2022 17:42:30.603    23 Jun 2022 17:50:21.631      471.02773958    
23 Jun 2022 19:21:13.468    23 Jun 2022 19:27:10.993      357.52554234    
24 Jun 2022 01:58:08.697    24 Jun 2022 02:05:17.514      428.81738307    
24 Jun 2022 03:35:51.385    24 Jun 2022 03:42:39.658      408.27297410    
24 Jun 2022 17:05:29.334    24 Jun 2022 17:12:52.112      442.77738486    
24 Jun 2022 18:43:25.503    24 Jun 2022 18:50:11.816      406.31284781    
25 Jun 2022 01:21:05.833    25 Jun 2022 01:27:34.998      389.16496349    
25 Jun 2022 02:58:16.500    25 Jun 2022 03:05:44.574      448.07355251    
25 Jun 2022 16:28:36.468    25 Jun 2022 16:35:14.592      398.12442254    
25 Jun 2022 18:05:44.534    25 Jun 2022 18:13:07.175      442.64105080    
26 Jun 2022 00:44:07.764    26 Jun 2022 00:49:43.689      335.92530338    
26 Jun 2022 02:20:47.766    26 Jun 2022 02:28:40.486      472.71983083    


Number of events : 246


Observer: Cape_Town
Start Time (UTC)            Stop Time (UTC)               Duration (s)         
27 Apr 2022 12:52:39.176    27 Apr 2022 12:55:32.748      173.57181584    
27 Apr 2022 14:28:58.727    27 Apr 2022 14:36:33.613      454.88632140    
27 Apr 2022 16:06:42.670    27 Apr 2022 16:14:10.781      448.11066538    
28 Apr 2022 07:17:10.926    28 Apr 2022 07:25:18.231      487.30447248    
28 Apr 2022 08:55:42.975    28 Apr 2022 09:02:35.428      412.45308464    
28 Apr 2022 12:16:28.558    28 Apr 2022 12:18:13.943      105.38544509    
28 Apr 2022 13:52:32.357    28 Apr 2022 13:59:44.867      432.50991799    
28 Apr 2022 15:30:00.701    28 Apr 2022 15:37:52.800      472.09970463    
29 Apr 2022 06:40:47.755    29 Apr 2022 06:48:38.776      471.02091598    
29 Apr 2022 08:18:50.746    29 Apr 2022 08:26:09.326      438.58030066    
29 Apr 2022 10:00:15.220    29 Apr 2022 10:02:17.117      121.89722626    
29 Apr 2022 13:16:06.193    29 Apr 2022 13:22:52.022      405.82843112    
29 Apr 2022 14:53:21.424    29 Apr 2022 15:01:28.601      487.17766078    
30 Apr 2022 06:04:29.252    30 Apr 2022 06:11:54.715      445.46364538    
30 Apr 2022 07:42:00.880    30 Apr 2022 07:49:41.270      460.38994367    
30 Apr 2022 09:22:56.709    30 Apr 2022 09:26:03.013      186.30374739    
30 Apr 2022 12:39:40.184    30 Apr 2022 12:45:55.141      374.95705455    
30 Apr 2022 14:16:44.082    30 Apr 2022 14:24:58.855      494.77326684    
01 May 2022 05:28:16.656    01 May 2022 05:35:04.730      408.07476242    
01 May 2022 07:05:13.483    01 May 2022 07:13:11.152      477.66830907    
01 May 2022 08:45:43.888    01 May 2022 08:49:42.934      239.04670179    
01 May 2022 12:03:14.328    01 May 2022 12:08:54.261      339.93217506    
01 May 2022 13:40:08.153    01 May 2022 13:48:24.000      495.84708702    
01 May 2022 15:19:42.304    01 May 2022 15:23:19.291      216.98685426    
02 May 2022 04:52:12.276    02 May 2022 04:58:06.430      354.15459025    
02 May 2022 06:28:28.685    02 May 2022 06:36:38.820      490.13514920    
02 May 2022 08:08:34.231    02 May 2022 08:13:19.600      285.36945238    
02 May 2022 11:26:48.706    02 May 2022 11:31:49.365      300.65991681    
02 May 2022 13:03:33.258    02 May 2022 13:11:44.336      491.07816989    
02 May 2022 14:42:20.242    02 May 2022 14:47:40.247      320.00572284    
03 May 2022 04:16:21.535    03 May 2022 04:20:54.310      272.77453729    
03 May 2022 05:51:46.646    03 May 2022 06:00:04.074      497.42838753    
03 May 2022 07:31:27.049    03 May 2022 07:36:53.857      326.80751123    
03 May 2022 10:50:23.541    03 May 2022 10:54:40.326      256.78487441    
03 May 2022 12:26:59.112    03 May 2022 12:35:00.076      480.96440710    
03 May 2022 14:05:15.916    03 May 2022 14:11:40.191      384.27449232    
04 May 2022 03:41:10.050    04 May 2022 03:43:02.670      112.61949451    
04 May 2022 05:15:07.577    04 May 2022 05:23:26.652      499.07498925    
04 May 2022 06:54:22.134    04 May 2022 07:00:26.039      363.90527319    
04 May 2022 10:13:59.393    04 May 2022 10:17:26.715      207.32159789    
04 May 2022 11:50:25.497    04 May 2022 11:58:11.378      465.88078531    
04 May 2022 13:28:19.959    04 May 2022 13:35:28.396      428.43732422    
05 May 2022 04:38:31.765    05 May 2022 04:46:46.207      494.44185770    
05 May 2022 06:17:19.448    05 May 2022 06:23:56.276      396.82831712    
05 May 2022 09:37:37.827    05 May 2022 09:40:07.133      149.30603988    
05 May 2022 11:13:52.247    05 May 2022 11:21:18.361      446.11442860    
05 May 2022 12:51:29.042    05 May 2022 12:59:08.096      459.05332693    
06 May 2022 04:01:59.612    06 May 2022 04:10:02.264      482.65239741    
06 May 2022 05:40:19.031    06 May 2022 05:47:24.595      425.56457967    
06 May 2022 07:22:03.264    06 May 2022 07:23:19.917      76.652382966    
06 May 2022 09:01:26.507    06 May 2022 09:02:34.121      67.613475106    
06 May 2022 10:37:19.239    06 May 2022 10:44:21.123      421.88482097    
06 May 2022 12:14:41.490    06 May 2022 12:22:40.875      479.38542314    
07 May 2022 03:25:31.717    07 May 2022 03:33:14.153      462.43586397    
07 May 2022 05:03:20.957    07 May 2022 05:10:50.959      450.00171955    
07 May 2022 06:44:30.804    07 May 2022 06:47:06.343      155.53857466    
07 May 2022 10:00:46.391    07 May 2022 10:07:19.743      393.35195767    
07 May 2022 11:37:56.300    07 May 2022 11:46:07.643      491.34339300    
08 May 2022 02:49:09.025    08 May 2022 02:56:20.852      431.82764354    
08 May 2022 04:26:25.325    08 May 2022 04:34:15.281      469.95634690    
08 May 2022 06:07:08.685    08 May 2022 06:10:41.996      213.31151618    
08 May 2022 09:24:13.668    08 May 2022 09:30:14.279      360.61070811    
08 May 2022 11:01:12.816    08 May 2022 11:09:28.974      496.15734484    
08 May 2022 12:41:37.537    08 May 2022 12:43:25.630      108.09250331    
09 May 2022 02:12:53.170    09 May 2022 02:19:20.651      387.48047630    
09 May 2022 03:49:32.258    09 May 2022 03:57:37.438      485.17999729    
09 May 2022 05:29:50.567    09 May 2022 05:34:13.439      262.87217794    
09 May 2022 08:47:41.097    09 May 2022 08:53:04.760      323.66284160    
09 May 2022 10:24:30.578    09 May 2022 10:32:45.249      494.67116268    
09 May 2022 12:03:39.687    09 May 2022 12:08:10.762      271.07556963    
10 May 2022 01:36:47.478    10 May 2022 01:42:10.151      322.67318757    
10 May 2022 03:12:41.906    10 May 2022 03:20:57.256      495.35031184    
10 May 2022 04:52:35.183    10 May 2022 04:57:42.132      306.94873491    
10 May 2022 08:11:08.807    10 May 2022 08:15:51.149      282.34222359    
10 May 2022 09:47:49.247    10 May 2022 09:55:56.738      487.49027601    
10 May 2022 11:26:20.688    10 May 2022 11:32:13.761      353.07363749    
11 May 2022 01:01:01.485    11 May 2022 01:04:39.741      218.25550591    
11 May 2022 02:35:54.461    11 May 2022 02:44:14.510      500.04897279    
11 May 2022 04:15:22.160    11 May 2022 04:21:08.608      346.44756576    
11 May 2022 07:34:37.126    11 May 2022 07:38:33.245      236.11819317    
11 May 2022 09:11:08.574    11 May 2022 09:19:03.637      475.06377306    
11 May 2022 10:49:13.861    11 May 2022 10:56:01.224      407.36260701    
12 May 2022 01:59:10.180    12 May 2022 02:07:28.903      498.72296158    
12 May 2022 03:38:11.410    12 May 2022 03:44:33.087      381.67671233    
12 May 2022 06:58:06.890    12 May 2022 07:01:10.381      183.49091092    
12 May 2022 08:34:28.366    12 May 2022 08:42:06.099      457.73301971    
12 May 2022 10:12:13.645    12 May 2022 10:19:38.631      444.98638264    
13 May 2022 01:22:29.412    13 May 2022 01:30:40.032      490.61935247    
13 May 2022 03:01:02.954    13 May 2022 03:07:55.645      412.69021371    
13 May 2022 06:21:40.795    13 May 2022 06:23:40.067      119.27209968    
13 May 2022 07:57:48.482    13 May 2022 08:05:04.243      435.76082981    
13 May 2022 09:35:17.643    13 May 2022 09:43:08.301      470.65793703    
14 May 2022 00:45:52.664    14 May 2022 00:53:47.336      474.67133403    
14 May 2022 02:23:56.867    14 May 2022 02:31:16.279      439.41221314    
14 May 2022 04:05:19.993    14 May 2022 04:07:24.991      124.99796507    
14 May 2022 07:21:08.824    14 May 2022 07:27:58.171      409.34711111    
14 May 2022 08:58:24.542    14 May 2022 09:06:31.469      486.92705235    
15 May 2022 00:09:20.705    15 May 2022 00:16:49.987      449.28251485    
15 May 2022 01:46:53.249    15 May 2022 01:54:34.934      461.68524254    
15 May 2022 03:27:48.130    15 May 2022 03:30:56.988      188.85843015    
15 May 2022 06:44:29.337    15 May 2022 06:50:47.969      378.63191077    
15 May 2022 08:21:33.524    15 May 2022 08:29:48.883      495.35908863    
15 May 2022 23:32:54.796    15 May 2022 23:39:46.663      411.86681965    
16 May 2022 01:09:52.223    16 May 2022 01:17:51.509      479.28564150    
16 May 2022 02:50:21.703    16 May 2022 02:54:23.334      241.63163546    
16 May 2022 06:07:50.016    16 May 2022 06:13:33.698      343.68150973    
16 May 2022 07:44:44.037    16 May 2022 07:53:01.031      496.99394259    
16 May 2022 09:24:19.737    16 May 2022 09:27:52.651      212.91433121    
16 May 2022 22:56:37.285    16 May 2022 23:02:34.956      357.67106151    
17 May 2022 00:32:53.938    17 May 2022 00:41:05.859      491.92091326    
17 May 2022 02:12:58.421    17 May 2022 02:17:46.549      288.12837488    
17 May 2022 05:31:10.935    17 May 2022 05:36:15.378      304.44351754    
17 May 2022 07:07:55.686    17 May 2022 07:16:08.246      492.56078198    
17 May 2022 08:46:42.688    17 May 2022 08:52:02.245      319.55739025    
17 May 2022 22:20:33.668    17 May 2022 22:25:09.309      275.64101208    
17 May 2022 23:55:58.576    18 May 2022 00:04:17.789      499.21332177    
18 May 2022 01:35:37.677    18 May 2022 01:41:07.436      329.75891659    
18 May 2022 04:54:32.301    18 May 2022 04:58:52.931      260.62988285    
18 May 2022 06:31:08.181    18 May 2022 06:39:10.773      482.59149167    
18 May 2022 08:09:24.444    18 May 2022 08:15:49.785      385.34176173    
18 May 2022 21:45:09.857    18 May 2022 21:47:03.748      113.89132238    
18 May 2022 23:19:06.369    18 May 2022 23:27:27.038      500.66849864    
19 May 2022 00:58:19.310    19 May 2022 01:04:26.317      367.00774329    
19 May 2022 04:17:54.623    19 May 2022 04:21:26.014      211.39048361    
19 May 2022 05:54:21.306    19 May 2022 06:02:08.792      467.48579069    
19 May 2022 07:32:14.950    19 May 2022 07:39:25.255      430.30478354    
19 May 2022 22:42:17.632    19 May 2022 22:50:33.254      495.62227431    
20 May 2022 00:21:03.317    20 May 2022 00:27:43.321      400.00392100    
20 May 2022 03:41:19.291    20 May 2022 03:43:53.442      154.15160805    
20 May 2022 05:17:34.897    20 May 2022 05:25:02.448      447.55024484    
20 May 2022 06:55:10.733    20 May 2022 07:02:52.056      461.32257791    
20 May 2022 22:05:32.801    20 May 2022 22:13:35.951      483.14965978    
20 May 2022 23:43:49.765    20 May 2022 23:50:58.474      428.70940960    
21 May 2022 01:25:26.554    21 May 2022 01:26:59.151      92.596727936    
21 May 2022 03:04:52.493    21 May 2022 03:06:09.271      76.778626058    
21 May 2022 04:40:48.836    21 May 2022 04:47:51.858      423.02103111    
21 May 2022 06:18:10.064    21 May 2022 06:26:11.846      481.78247624    
21 May 2022 21:28:52.527    21 May 2022 21:36:34.426      461.89885911    
21 May 2022 23:06:38.751    21 May 2022 23:14:11.741      452.99080638    
22 May 2022 00:47:44.100    22 May 2022 00:50:29.233      165.13305623    
22 May 2022 04:04:03.047    22 May 2022 04:10:37.120      394.07372251    
22 May 2022 05:41:11.920    22 May 2022 05:49:25.576      493.65622276    
22 May 2022 20:52:17.835    22 May 2022 20:59:27.591      429.75585678    
22 May 2022 22:29:30.392    22 May 2022 22:37:23.037      472.64522980    
23 May 2022 00:10:09.746    23 May 2022 00:13:51.055      221.30896450    
23 May 2022 03:27:17.497    23 May 2022 03:33:18.316      360.81863358    
23 May 2022 05:04:15.634    23 May 2022 05:12:33.844      498.20940258    
23 May 2022 06:44:27.429    23 May 2022 06:46:42.973      135.54390182    
23 May 2022 20:15:50.525    23 May 2022 20:22:13.580      383.05481320    
23 May 2022 21:52:24.828    23 May 2022 22:00:32.231      487.40356638    
23 May 2022 23:32:39.125    23 May 2022 23:37:09.231      270.10578039    
24 May 2022 02:50:32.218    24 May 2022 02:55:55.491      323.27297843    
24 May 2022 04:27:20.741    24 May 2022 04:35:37.049      496.30831528    
24 May 2022 06:06:24.369    24 May 2022 06:11:07.876      283.50725732    
24 May 2022 19:39:34.363    24 May 2022 19:44:48.560      314.19757158    
24 May 2022 21:15:22.225    24 May 2022 21:23:39.144      496.91876887    
24 May 2022 22:55:11.269    24 May 2022 23:00:24.941      313.67245624    
25 May 2022 02:13:47.341    25 May 2022 02:18:28.625      281.28444386    
25 May 2022 03:50:26.901    25 May 2022 03:58:35.474      488.57371631    
25 May 2022 05:28:54.193    25 May 2022 05:34:56.781      362.58736958    
25 May 2022 19:03:41.083    25 May 2022 19:07:00.728      199.64494973    
25 May 2022 20:38:22.794    25 May 2022 20:46:43.534      500.73993194    
25 May 2022 22:17:45.906    25 May 2022 22:23:38.628      352.72181978    
26 May 2022 01:37:03.202    26 May 2022 01:40:57.529      234.32739212    
26 May 2022 03:13:33.858    26 May 2022 03:21:29.324      475.46592305    
26 May 2022 04:51:35.645    26 May 2022 04:58:30.861      415.21590063    
26 May 2022 20:01:26.811    26 May 2022 20:09:45.078      498.26756649    
26 May 2022 21:40:22.993    26 May 2022 21:46:50.465      387.47221342    
27 May 2022 01:00:20.661    27 May 2022 01:03:21.527      180.86546184    
27 May 2022 02:36:41.420    27 May 2022 02:44:18.755      457.33496910    
27 May 2022 04:14:23.608    27 May 2022 04:21:55.150      451.54162300    
27 May 2022 19:24:34.658    27 May 2022 19:32:43.336      488.67792013    
27 May 2022 21:03:02.576    27 May 2022 21:10:00.503      417.92662572    
27 May 2022 22:44:57.128    27 May 2022 22:45:48.145      51.017668610    
28 May 2022 00:23:42.586    28 May 2022 00:25:37.974      115.38793120    
28 May 2022 01:59:49.442    28 May 2022 02:07:03.892      434.45040296    
28 May 2022 03:37:15.807    28 May 2022 03:45:11.840      476.03277869    
28 May 2022 18:47:46.894    28 May 2022 18:55:37.683      470.78855485    
28 May 2022 20:25:44.742    28 May 2022 20:33:08.717      443.97468399    
28 May 2022 22:07:00.064    28 May 2022 22:09:21.244      141.17941522    
29 May 2022 01:22:57.822    29 May 2022 01:29:44.838      407.01675166    
29 May 2022 03:00:10.971    29 May 2022 03:08:22.114      491.14308731    
29 May 2022 18:11:04.383    29 May 2022 18:18:27.180      442.79733924    
29 May 2022 19:48:29.598    29 May 2022 19:56:15.029      465.43099175    
29 May 2022 21:29:17.875    29 May 2022 21:32:39.305      201.43005402    
30 May 2022 00:46:06.502    30 May 2022 00:52:21.678      375.17517504    
30 May 2022 02:23:08.299    30 May 2022 02:31:26.691      498.39186834    
30 May 2022 17:34:28.586    30 May 2022 17:41:10.289      401.70371250    
30 May 2022 19:11:17.273    30 May 2022 19:19:19.318      482.04464698    
30 May 2022 20:51:40.271    30 May 2022 20:55:52.874      252.60269344    
31 May 2022 00:09:15.482    31 May 2022 00:14:54.468      338.98584332    
31 May 2022 01:46:07.244    31 May 2022 01:54:26.037      498.79378950    
31 May 2022 03:25:28.902    31 May 2022 03:29:33.072      244.16983804    
31 May 2022 16:58:02.350    31 May 2022 17:03:44.081      341.73117550    
31 May 2022 18:34:07.919    31 May 2022 18:42:21.411      493.49177516    
31 May 2022 20:14:05.691    31 May 2022 20:19:03.728      298.03748396    
31 May 2022 23:32:24.844    31 May 2022 23:37:23.218      298.37340644    
01 Jun 2022 01:09:07.412    01 Jun 2022 01:17:20.474      493.06275446    
01 Jun 2022 02:47:45.710    01 Jun 2022 02:53:24.888      339.17804800    
01 Jun 2022 16:21:53.060    01 Jun 2022 16:26:01.092      248.03132949    
01 Jun 2022 17:57:01.728    01 Jun 2022 18:05:21.081      499.35386806    
01 Jun 2022 19:36:33.707    01 Jun 2022 19:42:12.474      338.76697915    
01 Jun 2022 22:55:34.829    01 Jun 2022 22:59:47.813      252.98306819    
02 Jun 2022 00:32:08.511    02 Jun 2022 00:40:10.231      481.72064169    
02 Jun 2022 02:10:18.118    02 Jun 2022 02:16:57.955      399.83700063    
02 Jun 2022 17:19:58.949    02 Jun 2022 17:28:18.028      499.07911912    
02 Jun 2022 18:59:04.223    02 Jun 2022 19:05:19.350      375.12617045    
02 Jun 2022 22:18:46.048    02 Jun 2022 22:22:07.810      201.76208897    
02 Jun 2022 23:55:10.320    03 Jun 2022 00:02:55.480      465.15995777    
03 Jun 2022 01:32:58.450    03 Jun 2022 01:40:19.860      441.40962046    
03 Jun 2022 16:42:59.929    03 Jun 2022 16:51:11.846      491.91727939    
03 Jun 2022 18:21:37.264    03 Jun 2022 18:28:24.433      407.16855788    
03 Jun 2022 21:42:00.293    03 Jun 2022 21:44:21.628      141.33514512    
03 Jun 2022 23:18:12.673    03 Jun 2022 23:25:36.354      443.68107923    
04 Jun 2022 00:55:43.733    04 Jun 2022 01:03:33.484      469.75052927    
04 Jun 2022 16:06:05.162    04 Jun 2022 16:14:01.968      476.80622960    
04 Jun 2022 17:44:12.908    04 Jun 2022 17:51:27.717      434.80946735    
04 Jun 2022 19:25:38.438    04 Jun 2022 19:27:34.174      115.73600188    
04 Jun 2022 21:05:28.279    04 Jun 2022 21:06:18.798      50.518631889    
04 Jun 2022 22:41:15.453    04 Jun 2022 22:48:12.966      417.51296151    
05 Jun 2022 00:18:32.414    05 Jun 2022 00:26:40.291      487.87675771    
05 Jun 2022 15:29:15.405    05 Jun 2022 15:36:47.563      452.15825111    
05 Jun 2022 17:06:51.258    05 Jun 2022 17:14:29.138      457.88016989    
05 Jun 2022 18:47:47.822    05 Jun 2022 18:50:49.440      181.61851644    
05 Jun 2022 22:04:18.585    05 Jun 2022 22:10:45.405      386.81962662    
05 Jun 2022 23:41:23.550    05 Jun 2022 23:49:41.139      497.58836988    
06 Jun 2022 14:52:31.904    06 Jun 2022 14:59:27.310      415.40660349    
06 Jun 2022 16:29:32.441    06 Jun 2022 16:37:28.586      476.14476982    
06 Jun 2022 18:10:03.243    06 Jun 2022 18:13:58.737      235.49324182    
06 Jun 2022 21:27:22.052    06 Jun 2022 21:33:13.741      351.68900597    
06 Jun 2022 23:04:16.515    06 Jun 2022 23:12:36.573      500.05851653    
07 Jun 2022 00:43:58.273    07 Jun 2022 00:47:18.423      200.15066421    
07 Jun 2022 14:15:56.967    07 Jun 2022 14:21:58.821      361.85392896    
07 Jun 2022 15:52:16.605    07 Jun 2022 16:00:25.902      489.29717975    
07 Jun 2022 17:32:22.069    07 Jun 2022 17:37:04.936      282.86660782    
07 Jun 2022 20:50:25.912    07 Jun 2022 20:55:38.002      312.09070341    
07 Jun 2022 22:27:10.867    07 Jun 2022 22:35:26.965      496.09830774    
08 Jun 2022 00:06:00.038    08 Jun 2022 00:11:15.313      315.27494327    
08 Jun 2022 13:39:35.966    08 Jun 2022 13:44:16.650      280.68339665    
08 Jun 2022 15:15:03.935    08 Jun 2022 15:23:20.878      496.94327870    
08 Jun 2022 16:54:43.642    08 Jun 2022 17:00:08.895      325.25285070    
08 Jun 2022 20:13:30.358    08 Jun 2022 20:17:58.121      267.76311777    
08 Jun 2022 21:50:06.284    08 Jun 2022 21:58:12.576      486.29278798    
08 Jun 2022 23:28:23.276    08 Jun 2022 23:34:47.632      384.35530277    
09 Jun 2022 13:03:53.059    09 Jun 2022 13:05:56.561      123.50153793    
09 Jun 2022 14:37:54.670    09 Jun 2022 14:46:13.237      498.56696577    
09 Jun 2022 16:17:07.796    09 Jun 2022 16:23:10.946      363.15005512    
09 Jun 2022 19:36:35.879    09 Jun 2022 19:40:13.777      217.89811717    
09 Jun 2022 21:13:02.526    09 Jun 2022 21:20:53.603      471.07728543    
09 Jun 2022 22:50:56.106    09 Jun 2022 22:58:07.180      431.07351994    
10 Jun 2022 14:00:49.131    10 Jun 2022 14:09:02.604      493.47271062    
10 Jun 2022 15:39:34.532    10 Jun 2022 15:46:11.212      396.67945295    
10 Jun 2022 18:59:43.813    10 Jun 2022 19:02:23.847      160.03418276    
10 Jun 2022 20:35:59.415    10 Jun 2022 20:43:30.197      450.78231309    
10 Jun 2022 22:13:34.676    10 Jun 2022 22:21:17.727      463.05130615    
11 Jun 2022 13:23:47.779    11 Jun 2022 13:31:48.466      480.68668720    
11 Jun 2022 15:02:03.924    11 Jun 2022 15:09:09.714      425.78928078    
11 Jun 2022 16:43:41.068    11 Jun 2022 16:45:07.889      86.820567981    
11 Jun 2022 18:22:59.890    11 Jun 2022 18:24:22.852      82.961654908    
11 Jun 2022 19:58:56.824    11 Jun 2022 20:06:02.483      425.65912376    
11 Jun 2022 21:36:17.114    11 Jun 2022 21:44:21.068      483.95490901    
12 Jun 2022 12:46:51.297    12 Jun 2022 12:54:30.072      458.77462226    
12 Jun 2022 14:24:36.077    12 Jun 2022 14:32:06.408      450.33036360    
12 Jun 2022 16:05:40.567    12 Jun 2022 16:08:22.294      161.72673575    
12 Jun 2022 19:21:54.675    12 Jun 2022 19:28:30.565      395.89006469    
12 Jun 2022 20:59:02.328    12 Jun 2022 21:07:18.219      495.89046368    
13 Jun 2022 12:10:00.789    13 Jun 2022 12:17:06.257      425.46802894    
13 Jun 2022 13:47:11.118    13 Jun 2022 13:55:01.201      470.08222790    
13 Jun 2022 15:27:48.999    13 Jun 2022 15:31:27.884      218.88524217    
13 Jun 2022 18:44:52.941    13 Jun 2022 18:50:54.523      361.58174928    
13 Jun 2022 20:21:49.615    13 Jun 2022 20:30:09.813      500.19795578    
13 Jun 2022 22:01:55.257    13 Jun 2022 22:04:23.334      148.07695124    
14 Jun 2022 11:33:18.220    14 Jun 2022 11:39:34.983      376.76266171    
14 Jun 2022 13:09:49.197    14 Jun 2022 13:17:53.952      484.75495559    
14 Jun 2022 14:50:01.464    14 Jun 2022 14:54:29.825      268.36113083    
14 Jun 2022 18:07:51.670    14 Jun 2022 18:13:14.400      322.73014449    
14 Jun 2022 19:44:38.487    14 Jun 2022 19:52:56.275      497.78837822    
14 Jun 2022 21:23:38.331    14 Jun 2022 21:28:29.419      291.08821977    
15 Jun 2022 10:56:47.849    15 Jun 2022 11:01:51.928      304.07927282    
15 Jun 2022 12:32:30.494    15 Jun 2022 12:40:44.469      493.97486259    
15 Jun 2022 14:12:16.935    15 Jun 2022 14:17:29.365      312.43038612    
15 Jun 2022 17:30:51.031    15 Jun 2022 17:35:30.156      279.12464021    
15 Jun 2022 19:07:28.593    15 Jun 2022 19:15:37.904      489.31052175    
15 Jun 2022 20:45:52.476    15 Jun 2022 20:52:01.463      368.98717834    
16 Jun 2022 10:20:44.292    16 Jun 2022 10:23:42.403      178.11117433    
16 Jun 2022 11:55:15.239    16 Jun 2022 12:03:32.494      497.25440688    
16 Jun 2022 13:34:35.138    16 Jun 2022 13:40:26.966      351.82770122    
16 Jun 2022 16:53:51.449    16 Jun 2022 16:57:41.535      230.08544702    
16 Jun 2022 18:30:19.675    16 Jun 2022 18:38:14.917      475.24227836    
16 Jun 2022 20:08:18.193    16 Jun 2022 20:15:18.894      420.70134318    
17 Jun 2022 11:18:03.738    17 Jun 2022 11:26:17.679      493.94053083    
17 Jun 2022 12:56:56.037    17 Jun 2022 13:03:22.806      386.76921953    
17 Jun 2022 16:16:54.039    17 Jun 2022 16:19:47.633      173.59406539    
17 Jun 2022 17:53:11.539    17 Jun 2022 18:00:47.482      455.94355767    
17 Jun 2022 19:30:50.518    17 Jun 2022 19:38:26.596      456.07754658    
18 Jun 2022 10:40:56.416    18 Jun 2022 10:48:59.543      483.12640472    
18 Jun 2022 12:19:19.687    18 Jun 2022 12:26:16.935      417.24801154    
18 Jun 2022 14:01:13.222    18 Jun 2022 14:02:01.379      48.156465939    
18 Jun 2022 15:40:02.945    18 Jun 2022 15:41:44.558      101.61324763    
18 Jun 2022 17:16:04.047    18 Jun 2022 17:23:15.733      431.68661885    
18 Jun 2022 18:53:27.215    18 Jun 2022 19:01:26.728      479.51368260    
19 Jun 2022 10:03:53.902    19 Jun 2022 10:11:37.394      463.49147363    
19 Jun 2022 11:41:46.185    19 Jun 2022 11:49:09.325      443.13987253    
19 Jun 2022 13:22:58.505    19 Jun 2022 13:25:20.222      141.71751235    
19 Jun 2022 16:38:57.109    19 Jun 2022 16:45:39.779      402.66971007    
19 Jun 2022 18:16:07.028    19 Jun 2022 18:24:20.470      493.44164247    
20 Jun 2022 09:26:57.189    20 Jun 2022 09:34:10.171      432.98148774    
20 Jun 2022 11:04:15.652    20 Jun 2022 11:11:59.894      464.24172824    
20 Jun 2022 12:45:00.029    20 Jun 2022 12:48:23.032      203.00306840    
20 Jun 2022 16:01:50.687    20 Jun 2022 16:07:59.701      369.01332327    
20 Jun 2022 17:38:49.165    20 Jun 2022 17:47:08.538      499.37292882    
20 Jun 2022 19:19:30.009    20 Jun 2022 19:20:43.013      73.003792064    
21 Jun 2022 08:50:08.005    21 Jun 2022 08:56:36.071      388.06612679    
21 Jun 2022 10:26:48.229    21 Jun 2022 10:34:48.509      480.27950367    
21 Jun 2022 12:07:06.537    21 Jun 2022 12:11:21.336      254.79918688    
21 Jun 2022 15:24:44.816    21 Jun 2022 15:30:15.545      330.72966482    
21 Jun 2022 17:01:33.084    21 Jun 2022 17:09:51.403      498.31883325    
21 Jun 2022 18:40:43.410    21 Jun 2022 18:45:10.148      266.73769617    
22 Jun 2022 08:13:29.905    22 Jun 2022 08:18:51.460      321.55491449    
22 Jun 2022 09:49:24.085    22 Jun 2022 09:57:34.983      490.89758692    
22 Jun 2022 11:29:16.398    22 Jun 2022 11:34:16.996      300.59803321    
22 Jun 2022 14:47:39.642    22 Jun 2022 14:52:27.278      287.63631703    
22 Jun 2022 16:24:18.397    22 Jun 2022 16:32:29.388      490.99093408    
22 Jun 2022 18:02:48.674    22 Jun 2022 18:08:42.576      353.90198777    
23 Jun 2022 07:37:13.464    23 Jun 2022 07:40:45.685      212.22094613    
23 Jun 2022 09:12:03.434    23 Jun 2022 09:20:19.067      495.63213238    
23 Jun 2022 10:51:29.168    23 Jun 2022 10:57:10.638      341.46963309    
23 Jun 2022 14:10:35.547    23 Jun 2022 14:14:34.669      239.12228665    
23 Jun 2022 15:47:04.819    23 Jun 2022 15:55:02.727      477.90814351    
23 Jun 2022 17:25:07.786    23 Jun 2022 17:31:58.226      410.43948788    
24 Jun 2022 08:34:46.560    24 Jun 2022 08:43:00.423      493.86392852    
24 Jun 2022 10:13:44.747    24 Jun 2022 10:20:02.506      377.75861348    
24 Jun 2022 13:33:33.521    24 Jun 2022 13:36:36.922      183.40030464    
24 Jun 2022 15:09:52.134    24 Jun 2022 15:17:31.592      459.45788242    
24 Jun 2022 16:47:34.390    24 Jun 2022 16:55:03.365      448.97469459    
25 Jun 2022 07:57:33.854    25 Jun 2022 08:05:38.592      484.73794326    
25 Jun 2022 09:36:03.158    25 Jun 2022 09:42:52.675      409.51727087    
25 Jun 2022 12:56:36.992    25 Jun 2022 12:58:30.840      113.84761410    
25 Jun 2022 14:32:40.185    25 Jun 2022 14:39:56.116      435.93119545    
25 Jun 2022 16:10:05.835    25 Jun 2022 16:18:00.549      474.71323715    
26 Jun 2022 07:20:25.897    26 Jun 2022 07:28:12.917      467.01937329    
26 Jun 2022 08:58:24.477    26 Jun 2022 09:05:41.130      436.65301153    
26 Jun 2022 10:39:44.668    26 Jun 2022 10:41:46.428      121.76012085    


Number of events : 343


Observer: Hawaii
Start Time (UTC)            Stop Time (UTC)               Duration (s)         
27 Apr 2022 15:21:40.997    27 Apr 2022 15:28:56.190      435.19300794    
27 Apr 2022 16:59:41.439    27 Apr 2022 17:05:59.590      378.15077434    
28 Apr 2022 04:53:10.847    28 Apr 2022 04:53:25.833      14.986375475    
28 Apr 2022 06:26:36.735    28 Apr 2022 06:34:41.272      484.53705168    
28 Apr 2022 14:45:26.701    28 Apr 2022 14:51:58.555      391.85452124    
28 Apr 2022 16:22:45.177    28 Apr 2022 16:29:55.963      430.78580681    
29 Apr 2022 05:50:00.485    29 Apr 2022 05:58:11.088      490.60336263    
29 Apr 2022 14:09:19.141    29 Apr 2022 14:14:50.029      330.88802998    
29 Apr 2022 15:45:56.799    29 Apr 2022 15:53:41.727      464.92802161    
30 Apr 2022 05:13:29.417    30 Apr 2022 05:21:35.613      486.19622940    
30 Apr 2022 06:53:55.772    30 Apr 2022 06:56:59.139      183.36772523    
30 Apr 2022 13:33:24.170    30 Apr 2022 13:37:24.552      240.38103466    
30 Apr 2022 15:09:13.977    30 Apr 2022 15:17:19.029      485.05239005    
01 May 2022 04:37:03.857    01 May 2022 04:44:54.337      470.47946693    
01 May 2022 06:16:18.095    01 May 2022 06:21:14.243      296.14772197    
01 May 2022 14:32:35.506    01 May 2022 14:40:48.881      493.37417339    
02 May 2022 04:00:44.623    02 May 2022 04:08:06.258      441.63509512    
02 May 2022 05:39:01.982    02 May 2022 05:45:08.744      366.76227056    
02 May 2022 13:56:00.758    02 May 2022 14:04:11.720      490.96181000    
03 May 2022 03:24:33.420    03 May 2022 03:31:09.486      396.06614155    
03 May 2022 05:01:56.731    03 May 2022 05:08:53.147      416.41515044    
03 May 2022 13:19:29.480    03 May 2022 13:27:27.597      478.11728572    
03 May 2022 14:59:00.806    03 May 2022 15:02:42.941      222.13563190    
04 May 2022 02:48:34.119    04 May 2022 02:53:59.967      325.84861480    
04 May 2022 04:24:59.089    04 May 2022 04:32:30.504      451.41488956    
04 May 2022 12:43:01.769    04 May 2022 12:50:36.215      454.44608855    
04 May 2022 14:21:29.433    04 May 2022 14:27:05.108      335.67476819    
05 May 2022 02:12:59.364    05 May 2022 02:16:24.872      205.50765933    
05 May 2022 03:48:07.617    05 May 2022 03:56:02.057      474.43982220    
05 May 2022 12:06:38.159    05 May 2022 12:13:36.827      418.66723036    
05 May 2022 13:44:19.681    05 May 2022 13:51:03.168      403.48688214    
06 May 2022 03:11:21.631    06 May 2022 03:19:28.292      486.66115596    
06 May 2022 11:30:19.968    06 May 2022 11:36:27.907      367.93902658    
06 May 2022 13:07:20.426    06 May 2022 13:14:48.054      447.62798940    
07 May 2022 02:34:40.887    07 May 2022 02:42:49.259      488.37143951    
07 May 2022 10:54:10.429    07 May 2022 10:59:06.010      295.58152829    
07 May 2022 12:30:27.944    07 May 2022 12:38:23.306      475.36178901    
08 May 2022 01:58:05.505    08 May 2022 02:06:04.651      479.14655996    
08 May 2022 03:37:56.609    08 May 2022 03:41:55.181      238.57194451    
08 May 2022 10:18:20.952    08 May 2022 10:21:19.515      178.56368960    
08 May 2022 11:53:40.472    08 May 2022 12:01:50.497      490.02539510    
09 May 2022 01:21:36.015    09 May 2022 01:29:13.754      457.73847036    
09 May 2022 03:00:23.575    09 May 2022 03:05:52.624      329.04856947    
09 May 2022 11:16:57.083    09 May 2022 11:25:10.366      493.28381165    
10 May 2022 00:45:13.597    10 May 2022 00:52:15.208      421.61173102    
10 May 2022 02:23:05.838    10 May 2022 02:29:35.649      389.81165016    
10 May 2022 10:40:17.326    10 May 2022 10:48:23.173      485.84678450    
10 May 2022 12:20:51.489    10 May 2022 12:22:30.003      98.513784644    
11 May 2022 00:09:00.759    11 May 2022 00:15:06.329      365.56920377    
11 May 2022 01:45:57.331    11 May 2022 01:53:10.132      432.80143565    
11 May 2022 10:03:41.115    11 May 2022 10:11:28.810      467.69422819    
11 May 2022 11:42:37.939    11 May 2022 11:47:22.193      284.25421596    
11 May 2022 23:33:03.959    11 May 2022 23:37:40.486      276.52721980    
12 May 2022 01:08:55.785    12 May 2022 01:16:38.152      462.36696473    
12 May 2022 09:27:08.753    12 May 2022 09:34:26.781      438.02861951    
12 May 2022 11:05:12.403    12 May 2022 11:11:23.979      371.57623748    
12 May 2022 22:58:03.495    12 May 2022 22:59:17.205      73.710885958    
13 May 2022 00:32:00.148    13 May 2022 00:40:00.573      480.42474717    
13 May 2022 08:50:41.120    13 May 2022 08:57:16.007      394.88738895    
13 May 2022 10:28:01.591    13 May 2022 10:35:08.476      426.88511666    
13 May 2022 23:55:09.960    14 May 2022 00:03:17.676      487.71576199    
14 May 2022 08:14:20.308    14 May 2022 08:19:54.197      333.88884760    
14 May 2022 09:50:59.245    14 May 2022 09:58:41.766      462.52095705    
14 May 2022 23:18:25.158    14 May 2022 23:26:29.344      484.18560267    
15 May 2022 00:58:58.576    15 May 2022 01:01:44.653      166.07634786    
15 May 2022 07:38:12.165    15 May 2022 07:42:15.308      243.14239472    
15 May 2022 09:14:02.793    15 May 2022 09:22:06.247      483.45394959    
15 May 2022 22:41:46.066    15 May 2022 22:49:35.081      469.01495440    
16 May 2022 00:21:02.873    16 May 2022 00:25:50.967      288.09354556    
16 May 2022 08:37:10.940    16 May 2022 08:45:23.041      492.10098702    
16 May 2022 22:05:13.524    16 May 2022 22:12:33.878      440.35388193    
16 May 2022 23:43:31.821    16 May 2022 23:49:33.725      361.90462491    
17 May 2022 08:00:23.016    17 May 2022 08:08:32.635      489.61858309    
17 May 2022 21:28:49.304    17 May 2022 21:35:23.794      394.48984440    
17 May 2022 23:06:12.432    17 May 2022 23:13:05.734      413.30146850    
18 May 2022 07:23:38.770    18 May 2022 07:31:35.104      476.33399820    
18 May 2022 09:03:09.213    18 May 2022 09:06:49.379      220.16565856    
18 May 2022 20:52:37.468    18 May 2022 20:58:00.604      323.13608425    
18 May 2022 22:29:01.090    18 May 2022 22:36:30.428      449.33722531    
19 May 2022 06:46:58.318    19 May 2022 06:54:30.141      451.82365319    
19 May 2022 08:25:23.965    19 May 2022 08:30:59.270      335.30487166    
19 May 2022 20:16:51.679    19 May 2022 20:20:10.475      198.79621477    
19 May 2022 21:51:56.246    19 May 2022 21:59:49.172      472.92554002    
20 May 2022 06:10:22.260    20 May 2022 06:17:16.958      414.69845757    
20 May 2022 07:48:01.045    20 May 2022 07:54:44.466      403.42120940    
20 May 2022 21:14:57.182    20 May 2022 21:23:02.504      485.32160473    
21 May 2022 05:33:52.063    21 May 2022 05:39:53.891      361.82867544    
21 May 2022 07:10:48.944    21 May 2022 07:18:16.301      447.35743854    
21 May 2022 20:38:03.656    21 May 2022 20:46:10.487      486.83074177    
21 May 2022 22:19:55.077    21 May 2022 22:20:14.468      19.390333432    
22 May 2022 04:57:31.428    22 May 2022 05:02:17.042      285.61407959    
22 May 2022 06:33:43.861    22 May 2022 06:41:38.405      474.54404456    
22 May 2022 20:01:15.812    22 May 2022 20:09:12.799      476.98634706    
22 May 2022 21:41:01.783    22 May 2022 21:45:05.442      243.65918714    
23 May 2022 04:21:34.829    23 May 2022 04:24:11.735      156.90560827    
23 May 2022 05:56:44.013    23 May 2022 06:04:52.381      488.36802850    
23 May 2022 19:24:34.244    23 May 2022 19:32:08.669      454.42518712    
23 May 2022 21:03:16.428    23 May 2022 21:08:49.821      333.39391435    
24 May 2022 05:19:48.475    24 May 2022 05:27:58.970      490.49516033    
24 May 2022 18:48:00.260    24 May 2022 18:54:56.612      416.35214409    
24 May 2022 20:25:46.383    24 May 2022 20:32:20.047      393.66383142    
25 May 2022 04:42:56.816    25 May 2022 04:50:58.414      481.59796488    
25 May 2022 06:23:13.196    25 May 2022 06:25:22.048      128.85257823    
25 May 2022 18:11:36.702    25 May 2022 18:17:33.608      356.90528759    
25 May 2022 19:48:25.748    25 May 2022 19:55:41.824      436.07568521    
26 May 2022 04:06:08.991    26 May 2022 04:13:50.561      461.57003841    
26 May 2022 05:44:57.262    26 May 2022 05:49:51.838      294.57648005    
26 May 2022 17:35:31.289    26 May 2022 17:39:51.758      260.46927029    
26 May 2022 19:11:12.297    26 May 2022 19:18:57.181      464.88403768    
27 May 2022 03:29:25.384    27 May 2022 03:36:34.822      429.43814734    
27 May 2022 05:07:21.427    27 May 2022 05:13:39.331      377.90377495    
27 May 2022 18:34:05.005    27 May 2022 18:42:06.947      481.94247682    
28 May 2022 02:52:47.064    28 May 2022 02:59:09.919      382.85511949    
28 May 2022 04:29:59.686    28 May 2022 04:37:10.344      430.65744803    
28 May 2022 17:57:03.438    28 May 2022 18:05:11.358      487.92016926    
29 May 2022 02:16:16.632    29 May 2022 02:21:33.036      316.40453192    
29 May 2022 03:52:46.302    29 May 2022 04:00:30.423      464.12102098    
29 May 2022 17:20:07.579    29 May 2022 17:28:10.237      482.65769592    
29 May 2022 19:00:23.841    29 May 2022 19:03:38.113      194.27134272    
30 May 2022 01:40:02.164    30 May 2022 01:43:35.882      213.71761844    
30 May 2022 03:15:38.851    30 May 2022 03:23:41.801      482.94958449    
30 May 2022 16:43:17.829    30 May 2022 16:51:02.990      465.16069392    
30 May 2022 18:22:22.134    30 May 2022 18:27:26.875      304.74117044    
31 May 2022 02:38:36.105    31 May 2022 02:46:45.506      489.40056728    
31 May 2022 16:06:35.181    31 May 2022 16:13:48.430      433.24945079    
31 May 2022 17:44:41.480    31 May 2022 17:50:55.898      374.41826341    
01 Jun 2022 02:01:37.449    01 Jun 2022 02:09:41.953      484.50387380    
01 Jun 2022 15:30:01.766    01 Jun 2022 15:36:24.238      382.47253600    
01 Jun 2022 17:07:11.888    01 Jun 2022 17:14:14.966      423.07796886    
02 Jun 2022 01:24:42.689    02 Jun 2022 01:32:31.128      468.43963629    
02 Jun 2022 03:03:55.017    02 Jun 2022 03:08:03.850      248.83312496    
02 Jun 2022 14:53:42.761    02 Jun 2022 14:58:45.044      302.28339076    
02 Jun 2022 16:29:50.228    02 Jun 2022 16:37:27.003      456.77517751    
03 Jun 2022 00:47:52.042    03 Jun 2022 00:55:12.601      440.55975582    
03 Jun 2022 02:26:04.595    03 Jun 2022 02:31:55.649      351.05378228    
03 Jun 2022 14:18:00.012    03 Jun 2022 14:20:28.811      148.79853660    
03 Jun 2022 15:52:35.120    03 Jun 2022 16:00:33.180      478.05973379    
04 Jun 2022 00:11:06.305    04 Jun 2022 00:17:45.358      399.05288889    
04 Jun 2022 01:48:33.042    04 Jun 2022 01:55:26.275      413.23352605    
04 Jun 2022 15:15:25.941    04 Jun 2022 15:23:33.916      487.97545745    
04 Jun 2022 23:34:27.432    04 Jun 2022 23:40:07.223      339.79175388    
05 Jun 2022 01:11:11.449    05 Jun 2022 01:18:44.439      452.98982224    
05 Jun 2022 14:38:22.532    05 Jun 2022 14:46:29.172      486.64019984    
05 Jun 2022 16:19:12.727    05 Jun 2022 16:21:28.139      135.41213170    
05 Jun 2022 22:58:00.825    05 Jun 2022 23:02:12.575      251.74999803    
06 Jun 2022 00:33:56.561    06 Jun 2022 00:41:53.203      476.64246596    
06 Jun 2022 14:01:25.145    06 Jun 2022 14:09:18.497      473.35177929    
06 Jun 2022 15:40:49.943    06 Jun 2022 15:45:26.301      276.35766668    
06 Jun 2022 22:22:23.284    06 Jun 2022 22:23:24.395      61.110503878    
06 Jun 2022 23:56:46.804    07 Jun 2022 00:04:53.943      487.13881506    
07 Jun 2022 13:24:34.557    07 Jun 2022 13:32:00.923      446.36593221    
07 Jun 2022 15:02:58.529    07 Jun 2022 15:08:54.540      356.01102852    
07 Jun 2022 23:19:41.376    07 Jun 2022 23:27:47.262      485.88617997    
08 Jun 2022 12:47:52.454    08 Jun 2022 12:54:34.577      402.12297005    
08 Jun 2022 14:25:20.212    08 Jun 2022 14:32:10.931      410.71861940    
08 Jun 2022 22:42:39.949    08 Jun 2022 22:50:33.284      473.33514540    
09 Jun 2022 00:22:18.879    09 Jun 2022 00:25:35.564      196.68522491    
09 Jun 2022 12:11:22.685    09 Jun 2022 12:16:55.425      332.73983578    
09 Jun 2022 13:47:50.667    09 Jun 2022 13:55:19.593      448.92634662    
09 Jun 2022 22:05:42.610    09 Jun 2022 22:13:11.717      449.10759281    
09 Jun 2022 23:44:10.957    09 Jun 2022 23:49:34.747      323.78953543    
10 Jun 2022 11:35:17.652    10 Jun 2022 11:38:50.877      213.22493667    
10 Jun 2022 13:10:28.119    10 Jun 2022 13:18:22.102      473.98289322    
10 Jun 2022 21:28:49.963    10 Jun 2022 21:35:41.748      411.78548459    
10 Jun 2022 23:06:29.394    10 Jun 2022 23:13:05.374      395.98069926    
11 Jun 2022 12:33:11.754    11 Jun 2022 12:41:19.073      487.31899036    
11 Jun 2022 20:52:03.547    11 Jun 2022 20:58:01.627      358.07920026    
11 Jun 2022 22:28:59.749    11 Jun 2022 22:36:21.701      441.95238305    
12 Jun 2022 11:56:01.289    12 Jun 2022 12:04:10.598      489.30912396    
12 Jun 2022 13:37:44.838    12 Jun 2022 13:38:20.667      35.829414893    
12 Jun 2022 20:15:27.354    12 Jun 2022 20:20:07.149      279.79484849    
12 Jun 2022 21:51:37.689    12 Jun 2022 21:59:27.873      470.18336614    
13 Jun 2022 11:18:56.860    13 Jun 2022 11:26:56.352      479.49155249    
13 Jun 2022 12:58:40.561    13 Jun 2022 13:02:49.162      248.60064721    
13 Jun 2022 19:39:18.197    13 Jun 2022 19:41:41.288      143.09113162    
13 Jun 2022 21:14:21.252    13 Jun 2022 21:22:25.665      484.41285607    
14 Jun 2022 10:41:59.087    14 Jun 2022 10:49:35.531      456.44391548    
14 Jun 2022 12:20:38.410    14 Jun 2022 12:26:17.183      338.77304429    
14 Jun 2022 20:37:09.441    14 Jun 2022 20:45:15.886      486.44502073    
15 Jun 2022 10:05:09.359    15 Jun 2022 10:12:06.564      417.20454530    
15 Jun 2022 11:42:51.850    15 Jun 2022 11:49:31.073      399.22304613    
15 Jun 2022 20:00:01.801    15 Jun 2022 20:07:58.791      476.98988663    
15 Jun 2022 21:40:12.704    15 Jun 2022 21:42:25.894      133.19036745    
16 Jun 2022 09:28:30.742    16 Jun 2022 09:34:26.203      355.46116572    
16 Jun 2022 11:05:15.003    16 Jun 2022 11:12:36.512      441.50828845    
16 Jun 2022 19:22:58.307    16 Jun 2022 19:30:34.209      455.90179693    
16 Jun 2022 21:01:41.656    16 Jun 2022 21:06:38.709      297.05269971    
17 Jun 2022 08:52:11.847    17 Jun 2022 08:56:25.657      253.81088883    
17 Jun 2022 10:27:45.650    17 Jun 2022 10:35:35.519      469.86864338    
17 Jun 2022 18:45:59.412    17 Jun 2022 18:53:01.478      422.06624884    
17 Jun 2022 20:23:50.201    17 Jun 2022 20:30:09.909      379.70744180    
18 Jun 2022 09:50:22.779    18 Jun 2022 09:58:28.907      486.12770922    
18 Jun 2022 18:09:06.363    18 Jun 2022 18:15:19.140      372.77668454    
18 Jun 2022 19:46:12.984    18 Jun 2022 19:53:24.660      431.67678531    
19 Jun 2022 09:13:05.985    19 Jun 2022 09:21:16.883      490.89779280    
19 Jun 2022 17:32:22.293    19 Jun 2022 17:37:23.844      301.55140482    
19 Jun 2022 19:08:44.310    19 Jun 2022 19:16:28.467      464.15785693    
20 Jun 2022 08:35:55.302    20 Jun 2022 08:43:59.221      483.91856875    
20 Jun 2022 10:15:56.463    20 Jun 2022 10:19:37.964      221.50100637    
20 Jun 2022 16:55:58.076    20 Jun 2022 16:59:04.499      186.42333661    
20 Jun 2022 18:31:21.774    20 Jun 2022 18:39:23.541      481.76703049    
21 Jun 2022 07:58:51.221    21 Jun 2022 08:06:35.234      464.01243458    
21 Jun 2022 09:37:43.796    21 Jun 2022 09:43:06.571      322.77567299    
21 Jun 2022 17:54:04.173    21 Jun 2022 18:02:10.888      486.71478768    
22 Jun 2022 07:21:54.918    22 Jun 2022 07:29:03.553      428.63536365    
22 Jun 2022 08:59:49.687    22 Jun 2022 09:06:18.287      388.59969706    
