GMAT/Constellation/Contact/ContactLocator15.txt

Target: HSEYE15

Observer: Bahrain
Start Time (UTC)            Stop Time (UTC)               Duration (s)         
27 Apr 2022 11:59:28.000    27 Apr 2022 12:00:45.161      77.160569269    
28 Apr 2022 01:22:24.108    28 Apr 2022 01:28:51.893      387.78410351    
28 Apr 2022 02:59:19.785    28 Apr 2022 03:06:36.589      436.80372108    
28 Apr 2022 09:37:08.564    28 Apr 2022 09:42:38.271      329.70692909    
28 Apr 2022 11:13:34.266    28 Apr 2022 11:21:33.095      478.82921984    
29 Apr 2022 00:43:43.842    29 Apr 2022 00:48:43.864      300.02208960    
29 Apr 2022 02:19:33.348    29 Apr 2022 02:27:18.443      465.09478261    
29 Apr 2022 08:58:16.639    29 Apr 2022 09:02:12.961      236.32127809    
29 Apr 2022 10:34:00.231    29 Apr 2022 10:42:10.722      490.49053980    
30 Apr 2022 00:05:55.962    30 Apr 2022 00:07:43.118      107.15546667    
30 Apr 2022 01:39:54.031    30 Apr 2022 01:47:54.409      480.37799438    
30 Apr 2022 09:54:30.710    30 Apr 2022 10:02:39.005      488.29516912    
30 Apr 2022 11:34:41.648    30 Apr 2022 11:36:37.324      115.67620538    
01 May 2022 01:00:21.673    01 May 2022 01:08:24.402      482.72902141    
01 May 2022 02:40:25.208    01 May 2022 02:44:02.132      216.92404216    
01 May 2022 09:15:05.128    01 May 2022 09:22:58.260      473.13123633    
01 May 2022 10:53:40.978    01 May 2022 10:58:46.052      305.07394908    
02 May 2022 00:20:56.634    02 May 2022 00:28:47.823      471.18925204    
02 May 2022 01:59:54.578    02 May 2022 02:05:09.905      315.32764365    
02 May 2022 08:35:43.420    02 May 2022 08:43:08.296      444.87635507    
02 May 2022 10:13:29.234    02 May 2022 10:20:02.106      392.87225140    
02 May 2022 23:41:39.946    02 May 2022 23:49:03.394      443.44734515    
03 May 2022 01:19:41.461    03 May 2022 01:26:02.151      380.69008521    
03 May 2022 07:56:26.120    03 May 2022 08:03:08.336      402.21597649    
03 May 2022 09:33:33.060    03 May 2022 09:40:58.602      445.54205599    
03 May 2022 23:02:33.907    03 May 2022 23:09:08.578      394.67084825    
04 May 2022 00:39:38.944    04 May 2022 00:46:45.606      426.66196357    
04 May 2022 07:17:14.860    04 May 2022 07:22:56.518      341.65779686    
04 May 2022 08:53:45.800    04 May 2022 09:01:41.947      476.14628234    
04 May 2022 22:23:44.188    04 May 2022 22:28:57.472      313.28456921    
04 May 2022 23:59:44.725    05 May 2022 00:07:22.364      457.63839012    
05 May 2022 06:38:14.429    05 May 2022 06:42:27.858      253.42919833    
05 May 2022 08:14:04.695    05 May 2022 08:22:14.654      489.95852103    
05 May 2022 21:45:35.439    05 May 2022 21:48:05.194      149.75466669    
05 May 2022 23:19:57.873    05 May 2022 23:27:53.135      475.26183827    
06 May 2022 05:59:55.050    06 May 2022 06:01:11.976      76.926643448    
06 May 2022 07:34:28.370    06 May 2022 07:42:37.850      489.47929912    
06 May 2022 09:15:31.888    06 May 2022 09:15:40.644      8.7556448998    
06 May 2022 22:40:18.135    06 May 2022 22:48:17.941      479.80546021    
07 May 2022 00:20:35.425    07 May 2022 00:23:43.957      188.53139228    
07 May 2022 06:54:56.169    07 May 2022 07:02:51.942      475.77324479    
07 May 2022 08:33:40.348    07 May 2022 08:38:28.302      287.95358108    
07 May 2022 22:00:45.793    07 May 2022 22:08:36.261      470.46806146    
07 May 2022 23:39:52.687    07 May 2022 23:44:51.132      298.44498433    
08 May 2022 06:15:27.962    08 May 2022 06:22:56.813      448.85053545    
08 May 2022 07:53:18.969    08 May 2022 07:59:42.186      383.21708129    
08 May 2022 21:21:21.790    08 May 2022 21:28:46.921      445.13093715    
08 May 2022 22:59:30.876    08 May 2022 23:05:39.547      368.67076673    
09 May 2022 05:36:04.217    09 May 2022 05:42:51.760      407.54326950    
09 May 2022 07:13:15.107    09 May 2022 07:20:34.705      439.59786014    
09 May 2022 20:42:08.242    09 May 2022 20:48:47.567      399.32538068    
09 May 2022 22:19:20.621    09 May 2022 22:26:18.407      417.78541433    
10 May 2022 04:56:46.434    10 May 2022 05:02:35.062      348.62738728    
10 May 2022 06:33:20.911    10 May 2022 06:41:13.471      472.55921199    
10 May 2022 20:03:10.273    10 May 2022 20:08:32.847      322.57477040    
10 May 2022 21:39:19.128    10 May 2022 21:46:50.305      451.17695897    
11 May 2022 04:17:38.957    11 May 2022 04:22:02.177      263.22051140    
11 May 2022 05:53:33.289    11 May 2022 06:01:41.334      488.04420613    
11 May 2022 19:24:47.819    11 May 2022 19:27:42.595      174.77608379    
11 May 2022 20:59:25.282    11 May 2022 21:07:16.133      470.85099447    
12 May 2022 03:39:04.956    12 May 2022 03:40:49.781      104.82490637    
12 May 2022 05:13:50.726    12 May 2022 05:21:59.561      488.83526595    
12 May 2022 20:19:38.739    12 May 2022 20:27:36.006      477.26656770    
12 May 2022 22:00:08.608    12 May 2022 22:02:50.835      162.22744844    
13 May 2022 04:34:12.488    13 May 2022 04:42:08.635      476.14703262    
13 May 2022 06:13:03.588    13 May 2022 06:17:35.470      271.88214592    
13 May 2022 19:39:59.711    13 May 2022 19:47:49.468      469.75617008    
13 May 2022 21:19:13.845    13 May 2022 21:23:58.260      284.41429606    
14 May 2022 03:54:38.398    14 May 2022 04:02:08.486      450.08798662    
14 May 2022 05:32:33.306    14 May 2022 05:38:47.259      373.95263936    
14 May 2022 19:00:29.063    14 May 2022 19:07:55.411      446.34817777    
14 May 2022 20:38:44.016    14 May 2022 20:44:43.105      359.08886808    
15 May 2022 03:15:08.872    15 May 2022 03:21:58.449      409.57705794    
15 May 2022 04:52:22.467    15 May 2022 04:59:35.908      433.44049657    
15 May 2022 18:21:08.776    15 May 2022 18:27:51.608      402.83158023    
15 May 2022 19:58:26.680    15 May 2022 20:05:17.637      410.95659683    
16 May 2022 02:35:45.343    16 May 2022 02:41:36.859      351.51604089    
16 May 2022 04:12:21.981    16 May 2022 04:20:10.257      468.27632559    
16 May 2022 17:42:03.599    16 May 2022 17:47:33.065      329.46569341    
16 May 2022 19:18:18.535    16 May 2022 19:25:44.946      446.41095812    
17 May 2022 01:56:31.965    17 May 2022 02:00:59.350      267.38499199    
17 May 2022 03:32:28.435    17 May 2022 03:40:33.463      485.02862798    
17 May 2022 17:03:30.807    17 May 2022 17:06:42.261      191.45399983    
17 May 2022 18:38:18.291    17 May 2022 18:46:06.088      467.79714612    
18 May 2022 01:17:49.739    18 May 2022 01:19:44.742      115.00253705    
18 May 2022 02:52:40.181    18 May 2022 03:00:46.909      486.72842985    
18 May 2022 17:58:25.510    18 May 2022 18:06:21.246      475.73604455    
18 May 2022 19:39:05.888    18 May 2022 19:41:26.404      140.51584604    
19 May 2022 02:12:56.416    19 May 2022 02:20:51.129      474.71310545    
19 May 2022 03:51:53.001    19 May 2022 03:56:10.336      257.33443043    
19 May 2022 17:18:40.344    19 May 2022 17:26:30.010      469.66622545    
19 May 2022 18:57:59.780    19 May 2022 19:02:34.160      274.38043408    
20 May 2022 01:33:16.917    20 May 2022 01:40:46.077      449.15967303    
20 May 2022 03:11:14.531    20 May 2022 03:17:19.950      365.41854199    
20 May 2022 16:39:03.592    20 May 2022 16:46:31.313      447.72162857    
20 May 2022 18:17:22.665    20 May 2022 18:23:15.371      352.70666101    
21 May 2022 00:53:42.069    21 May 2022 01:00:31.097      409.02782724    
21 May 2022 02:30:57.282    21 May 2022 02:38:04.705      427.42327256    
21 May 2022 15:59:37.140    21 May 2022 16:06:23.004      405.86425810    
21 May 2022 17:36:58.812    21 May 2022 17:43:45.578      406.76600744    
22 May 2022 00:14:13.282    22 May 2022 00:20:04.525      351.24338942    
22 May 2022 01:50:50.943    22 May 2022 01:58:34.641      463.69758043    
22 May 2022 15:20:25.487    22 May 2022 15:26:00.318      334.83005182    
22 May 2022 16:56:44.473    22 May 2022 17:04:08.300      443.82689637    
22 May 2022 23:34:54.693    22 May 2022 23:39:21.990      267.29726081    
23 May 2022 01:10:51.813    23 May 2022 01:18:53.181      481.36839964    
23 May 2022 14:41:44.335    23 May 2022 14:45:07.287      202.95202323    
23 May 2022 16:16:38.211    23 May 2022 16:24:24.721      466.51076140    
23 May 2022 22:56:07.302    23 May 2022 22:58:02.292      114.99033981    
24 May 2022 00:30:58.130    24 May 2022 00:39:01.806      483.67618202    
24 May 2022 15:36:39.519    24 May 2022 15:44:35.080      475.56172034    
24 May 2022 17:17:26.766    24 May 2022 17:19:33.671      126.90435624    
24 May 2022 23:51:09.034    24 May 2022 23:59:01.087      472.05287043    
25 May 2022 01:30:09.459    25 May 2022 01:34:14.750      245.29061720    
25 May 2022 14:56:48.503    25 May 2022 15:04:38.994      470.49095412    
25 May 2022 16:36:10.977    25 May 2022 16:40:40.267      269.28977855    
25 May 2022 23:11:24.275    25 May 2022 23:18:50.991      446.71649578    
26 May 2022 00:49:23.392    26 May 2022 00:55:21.656      358.26403160    
26 May 2022 14:17:05.929    26 May 2022 14:24:35.424      449.49483265    
26 May 2022 15:55:27.228    26 May 2022 16:01:17.276      350.04849548    
26 May 2022 22:31:44.229    26 May 2022 22:38:30.858      406.62886997    
27 May 2022 00:09:00.036    27 May 2022 00:16:02.176      422.14005118    
27 May 2022 13:37:33.629    27 May 2022 13:44:22.256      408.62767476    
27 May 2022 15:14:57.233    27 May 2022 15:21:42.786      405.55297465    
27 May 2022 21:52:10.328    27 May 2022 21:57:58.988      348.65968066    
27 May 2022 23:28:48.006    27 May 2022 23:36:27.419      459.41297659    
28 May 2022 12:58:15.974    28 May 2022 13:03:54.849      338.87433184    
28 May 2022 14:34:36.956    28 May 2022 14:42:00.602      443.64601417    
28 May 2022 21:12:46.834    28 May 2022 21:17:10.876      264.04165429    
28 May 2022 22:48:43.367    28 May 2022 22:56:41.031      477.66382528    
29 May 2022 12:19:27.864    29 May 2022 12:22:58.032      210.16871802    
29 May 2022 13:54:24.871    29 May 2022 14:02:11.991      467.12005106    
29 May 2022 20:33:56.375    29 May 2022 20:35:43.689      107.31466919    
29 May 2022 22:08:44.276    29 May 2022 22:16:44.569      480.29346237    
30 May 2022 13:14:20.439    30 May 2022 13:22:17.227      476.78829379    
30 May 2022 14:55:09.250    30 May 2022 14:57:13.986      124.73574341    
30 May 2022 21:28:49.840    30 May 2022 21:36:38.638      468.79841401    
30 May 2022 23:07:52.014    30 May 2022 23:11:49.317      237.30266893    
31 May 2022 12:34:23.751    31 May 2022 12:42:15.945      472.19364617    
31 May 2022 14:13:46.709    31 May 2022 14:18:16.352      269.64332471    
31 May 2022 20:48:59.798    31 May 2022 20:56:23.210      443.41254128    
31 May 2022 22:26:59.102    31 May 2022 22:32:52.513      353.41072170    
01 Jun 2022 11:54:35.566    01 Jun 2022 12:02:07.113      451.54726821    
01 Jun 2022 13:32:57.028    01 Jun 2022 13:38:48.318      351.28983983    
01 Jun 2022 20:09:14.545    01 Jun 2022 20:15:57.612      403.06761735    
01 Jun 2022 21:46:29.916    01 Jun 2022 21:53:28.269      418.35284990    
02 Jun 2022 11:14:57.716    02 Jun 2022 11:21:48.627      410.91094228    
02 Jun 2022 12:52:21.279    02 Jun 2022 12:59:08.621      407.34112503    
02 Jun 2022 19:29:35.574    02 Jun 2022 19:35:20.086      344.51172268    
02 Jun 2022 21:06:12.325    02 Jun 2022 21:13:48.439      456.11356184    
03 Jun 2022 10:35:34.567    03 Jun 2022 10:41:15.855      341.28705387    
03 Jun 2022 12:11:55.359    03 Jun 2022 12:19:21.144      445.78534041    
03 Jun 2022 18:50:07.395    03 Jun 2022 18:54:25.886      258.49140527    
03 Jun 2022 20:26:02.255    03 Jun 2022 20:33:56.822      474.56672379    
04 Jun 2022 09:56:40.911    04 Jun 2022 10:00:13.746      212.83461208    
04 Jun 2022 11:31:37.728    04 Jun 2022 11:39:27.182      469.45350784    
04 Jun 2022 18:11:16.105    04 Jun 2022 18:12:48.715      92.609839223    
04 Jun 2022 19:45:57.818    04 Jun 2022 19:53:55.026      477.20864770    
05 Jun 2022 10:51:27.849    05 Jun 2022 10:59:27.014      479.16502508    
05 Jun 2022 12:32:12.557    05 Jun 2022 12:34:27.004      134.44671185    
05 Jun 2022 19:05:58.109    05 Jun 2022 19:13:43.673      465.56490522    
05 Jun 2022 20:44:59.482    05 Jun 2022 20:48:54.469      234.98653346    
06 Jun 2022 10:11:25.825    06 Jun 2022 10:19:20.275      474.44936153    
06 Jun 2022 11:50:46.649    06 Jun 2022 11:55:21.867      275.21752752    
06 Jun 2022 18:26:02.877    06 Jun 2022 18:33:22.736      439.85859349    
06 Jun 2022 20:04:00.952    06 Jun 2022 20:09:52.709      351.75667276    
07 Jun 2022 09:31:32.438    07 Jun 2022 09:39:05.919      453.48037229    
07 Jun 2022 11:09:51.948    07 Jun 2022 11:15:48.064      356.11661252    
07 Jun 2022 17:46:12.552    07 Jun 2022 17:52:51.513      398.96106242    
07 Jun 2022 19:23:26.453    07 Jun 2022 19:30:23.225      416.77208279    
08 Jun 2022 08:51:49.569    08 Jun 2022 08:58:41.803      412.23374521    
08 Jun 2022 10:29:11.059    08 Jun 2022 10:36:02.815      411.75594121    
08 Jun 2022 17:06:28.720    08 Jun 2022 17:12:08.160      339.43997012    
08 Jun 2022 18:43:03.657    08 Jun 2022 18:50:38.076      454.41921941    
09 Jun 2022 08:12:21.707    09 Jun 2022 08:18:03.180      341.47271187    
09 Jun 2022 09:48:40.032    09 Jun 2022 09:56:09.852      449.82060883    
09 Jun 2022 16:26:56.243    09 Jun 2022 16:31:07.584      251.34105587    
09 Jun 2022 18:02:48.456    09 Jun 2022 18:10:41.098      472.64109522    
10 Jun 2022 07:33:24.283    10 Jun 2022 07:36:54.362      210.07821547    
10 Jun 2022 09:08:17.381    10 Jun 2022 09:16:10.425      473.04355293    
10 Jun 2022 15:48:07.796    10 Jun 2022 15:49:16.912      69.116610812    
10 Jun 2022 17:22:38.958    10 Jun 2022 17:30:33.904      474.94598490    
11 Jun 2022 08:28:02.599    11 Jun 2022 08:36:04.784      482.18505151    
11 Jun 2022 10:08:38.915    11 Jun 2022 10:11:11.672      152.75690536    
11 Jun 2022 16:42:34.266    11 Jun 2022 16:50:17.112      462.84595152    
11 Jun 2022 18:21:32.085    11 Jun 2022 18:25:31.397      239.31154269    
12 Jun 2022 07:47:55.821    12 Jun 2022 07:55:52.534      476.71305217    
12 Jun 2022 09:27:12.115    12 Jun 2022 09:31:57.121      285.00643477    
12 Jun 2022 16:02:34.148    12 Jun 2022 16:09:50.672      436.52412028    
12 Jun 2022 17:40:29.554    12 Jun 2022 17:46:23.434      353.88036214    
13 Jun 2022 07:07:57.874    13 Jun 2022 07:15:32.580      454.70661727    
13 Jun 2022 08:46:13.409    13 Jun 2022 08:52:17.147      363.73807937    
13 Jun 2022 15:22:39.074    13 Jun 2022 15:29:13.835      394.76057474    
13 Jun 2022 16:59:50.496    13 Jun 2022 17:06:48.353      417.85660812    
14 Jun 2022 06:28:10.733    14 Jun 2022 06:35:02.681      411.94816162    
14 Jun 2022 08:05:28.143    14 Jun 2022 08:12:26.219      418.07558702    
14 Jun 2022 14:42:50.750    14 Jun 2022 14:48:24.634      333.88374711    
14 Jun 2022 16:19:23.033    14 Jun 2022 16:26:57.755      454.72163586    
15 Jun 2022 05:48:39.156    15 Jun 2022 05:54:17.811      338.65483871    
15 Jun 2022 07:24:52.688    15 Jun 2022 07:32:27.747      455.05959860    
15 Jun 2022 14:03:14.499    15 Jun 2022 14:07:17.505      243.00685872    
15 Jun 2022 15:39:03.147    15 Jun 2022 15:46:55.377      472.22979596    
16 Jun 2022 05:09:40.205    16 Jun 2022 05:13:00.646      200.44069294    
16 Jun 2022 06:44:25.656    16 Jun 2022 06:52:22.869      477.21272382    
16 Jun 2022 13:24:42.115    16 Jun 2022 13:25:00.454      18.339011748    
16 Jun 2022 14:58:48.982    16 Jun 2022 15:06:42.788      473.80646369    
17 Jun 2022 06:04:06.595    17 Jun 2022 06:12:11.773      485.17809188    
17 Jun 2022 07:44:31.987    17 Jun 2022 07:47:27.441      175.45424943    
17 Jun 2022 14:18:39.665    17 Jun 2022 14:26:20.567      460.90167488    
17 Jun 2022 15:57:31.360    17 Jun 2022 16:01:41.546      250.18609583    
18 Jun 2022 05:23:55.686    18 Jun 2022 05:31:54.000      478.31412633    
18 Jun 2022 07:03:05.425    18 Jun 2022 07:08:02.995      297.57054825    
18 Jun 2022 13:38:34.995    18 Jun 2022 13:45:48.619      433.62441607    
18 Jun 2022 15:16:26.354    18 Jun 2022 15:22:26.239      359.88560768    
19 Jun 2022 04:43:53.832    19 Jun 2022 04:51:28.372      454.54051571    
19 Jun 2022 06:22:03.537    19 Jun 2022 06:28:16.641      373.10425770    
19 Jun 2022 12:58:35.501    19 Jun 2022 13:05:06.127      390.62606940    
19 Jun 2022 14:35:43.460    19 Jun 2022 14:42:45.174      421.71368462    
20 Jun 2022 04:04:03.162    20 Jun 2022 04:10:52.477      409.31562586    
20 Jun 2022 05:41:14.548    20 Jun 2022 05:48:19.957      425.40943975    
20 Jun 2022 12:18:43.036    20 Jun 2022 12:24:10.958      327.92156423    
20 Jun 2022 13:55:11.818    20 Jun 2022 14:02:48.924      457.10544158    
21 Jun 2022 03:24:28.903    21 Jun 2022 03:30:00.808      331.90595816    
21 Jun 2022 05:00:35.231    21 Jun 2022 05:08:15.933      460.70225275    
21 Jun 2022 11:39:03.544    21 Jun 2022 11:42:56.919      233.37466707    
21 Jun 2022 13:14:47.618    21 Jun 2022 13:22:41.000      473.38195886    
22 Jun 2022 02:45:31.369    22 Jun 2022 02:48:32.772      181.40276908    
22 Jun 2022 04:20:04.334    22 Jun 2022 04:28:05.554      481.21987022    
22 Jun 2022 12:34:29.084    22 Jun 2022 12:42:22.877      473.79258829    
23 Jun 2022 03:39:41.480    23 Jun 2022 03:47:48.921      487.44064153    
23 Jun 2022 05:19:54.577    23 Jun 2022 05:23:14.034      199.45707733    
23 Jun 2022 11:54:15.393    23 Jun 2022 12:01:55.069      459.67605006    
23 Jun 2022 13:32:58.821    23 Jun 2022 13:37:25.500      266.67910038    
24 Jun 2022 02:59:26.923    24 Jun 2022 03:07:25.489      478.56535931    
24 Jun 2022 04:38:28.408    24 Jun 2022 04:43:39.920      311.51224083    
24 Jun 2022 11:14:06.392    24 Jun 2022 11:21:17.422      431.02992828    
24 Jun 2022 12:51:52.403    24 Jun 2022 12:58:01.862      369.45898540    
25 Jun 2022 02:19:21.677    25 Jun 2022 02:26:53.957      452.27952196    
25 Jun 2022 03:57:23.822    25 Jun 2022 04:03:47.032      383.20947282    
25 Jun 2022 10:34:02.695    25 Jun 2022 10:40:29.025      386.33010190    
25 Jun 2022 12:11:06.195    25 Jun 2022 12:18:14.313      428.11815664    
26 Jun 2022 01:39:28.114    26 Jun 2022 01:46:11.664      403.54993375    
26 Jun 2022 03:16:31.527    26 Jun 2022 03:23:44.456      432.92938928    
26 Jun 2022 09:54:06.363    26 Jun 2022 09:59:27.534      321.17100206    
26 Jun 2022 11:30:30.702    26 Jun 2022 11:38:12.050      461.34732004    


Number of events : 245


Observer: Cape_Town
Start Time (UTC)            Stop Time (UTC)               Duration (s)         
27 Apr 2022 16:52:09.272    27 Apr 2022 17:00:09.157      479.88489645    
27 Apr 2022 18:30:33.293    27 Apr 2022 18:37:09.640      396.34701347    
27 Apr 2022 23:26:45.041    27 Apr 2022 23:33:41.191      416.15034883    
28 Apr 2022 01:03:57.517    28 Apr 2022 01:11:39.587      462.07005739    
28 Apr 2022 16:12:53.054    28 Apr 2022 16:20:33.056      460.00220468    
28 Apr 2022 17:50:40.636    28 Apr 2022 17:57:50.752      430.11645726    
28 Apr 2022 19:32:16.890    28 Apr 2022 19:33:18.689      61.798377335    
28 Apr 2022 22:47:26.347    28 Apr 2022 22:53:47.080      380.73269399    
29 Apr 2022 00:24:22.336    29 Apr 2022 00:32:21.072      478.73574067    
29 Apr 2022 15:33:44.460    29 Apr 2022 15:40:49.926      425.46625523    
29 Apr 2022 17:10:52.027    29 Apr 2022 17:18:28.957      456.93078388    
29 Apr 2022 18:51:37.058    29 Apr 2022 18:54:29.830      172.77220082    
29 Apr 2022 22:08:08.474    29 Apr 2022 22:13:46.853      338.37893779    
29 Apr 2022 23:44:50.188    29 Apr 2022 23:52:54.594      484.40549655    
30 Apr 2022 01:25:04.734    30 Apr 2022 01:26:36.987      92.253750830    
30 Apr 2022 14:54:46.292    30 Apr 2022 15:00:56.833      370.54177034    
30 Apr 2022 16:31:07.616    30 Apr 2022 16:39:04.103      476.48613635    
30 Apr 2022 18:11:17.366    30 Apr 2022 18:15:21.074      243.70831463    
30 Apr 2022 21:28:51.706    30 Apr 2022 21:33:40.325      288.61922510    
30 Apr 2022 23:05:20.216    30 Apr 2022 23:13:20.875      480.65925417    
01 May 2022 00:44:05.416    01 May 2022 00:48:48.836      283.42056402    
01 May 2022 14:16:05.445    01 May 2022 14:20:46.747      281.30104789    
01 May 2022 15:51:27.641    01 May 2022 15:59:35.912      488.27172389    
01 May 2022 17:31:04.422    01 May 2022 17:36:06.152      301.73001636    
01 May 2022 20:49:36.888    01 May 2022 20:53:26.822      229.93458628    
01 May 2022 22:25:51.844    01 May 2022 22:33:40.375      468.53087718    
02 May 2022 00:03:56.281    02 May 2022 00:10:06.182      369.90077383    
02 May 2022 13:38:25.024    02 May 2022 13:39:36.434      71.409920580    
02 May 2022 15:11:52.445    02 May 2022 15:20:03.972      491.52714496    
02 May 2022 16:50:56.217    02 May 2022 16:56:47.341      351.12395170    
02 May 2022 20:10:26.740    02 May 2022 20:13:03.876      157.13604827    
02 May 2022 21:46:24.679    02 May 2022 21:53:53.396      448.71780508    
02 May 2022 23:24:01.387    02 May 2022 23:31:04.821      423.43334280    
03 May 2022 14:32:22.544    03 May 2022 14:40:27.674      485.13052594    
03 May 2022 16:10:52.202    03 May 2022 16:17:25.382      393.18032531    
03 May 2022 19:31:50.042    03 May 2022 19:32:03.038      12.995237613    
03 May 2022 21:06:58.460    03 May 2022 21:14:00.144      421.68421353    
03 May 2022 22:44:14.121    03 May 2022 22:51:51.221      457.10021787    
04 May 2022 13:52:58.742    04 May 2022 14:00:46.112      467.36923561    
04 May 2022 15:30:52.260    04 May 2022 15:38:00.523      428.26324456    
04 May 2022 17:12:37.034    04 May 2022 17:13:22.422      45.388168807    
04 May 2022 20:27:33.047    04 May 2022 20:34:00.746      387.69969377    
04 May 2022 22:04:31.682    04 May 2022 22:12:28.042      476.36024184    
05 May 2022 13:13:42.381    05 May 2022 13:20:57.827      435.44556705    
05 May 2022 14:50:56.447    05 May 2022 14:58:32.781      456.33311940    
05 May 2022 16:31:45.485    05 May 2022 16:34:32.201      166.71565427    
05 May 2022 19:48:08.434    05 May 2022 19:53:55.248      346.81389851    
05 May 2022 21:24:52.547    05 May 2022 21:32:56.667      484.11990101    
06 May 2022 12:34:35.968    06 May 2022 12:41:00.192      384.22395227    
06 May 2022 14:11:04.916    06 May 2022 14:19:02.024      477.10875669    
06 May 2022 15:51:18.453    06 May 2022 15:55:17.752      239.29973175    
06 May 2022 19:08:44.830    06 May 2022 19:13:43.547      298.71696252    
06 May 2022 20:45:15.780    06 May 2022 20:53:17.912      482.13166717    
06 May 2022 22:24:09.458    06 May 2022 22:28:34.078      264.61971549    
07 May 2022 11:55:45.330    07 May 2022 12:00:47.260      301.93004608    
07 May 2022 13:31:17.899    07 May 2022 13:39:28.001      490.10192921    
07 May 2022 15:10:58.488    07 May 2022 15:15:56.899      298.41102882    
07 May 2022 18:29:22.886    07 May 2022 18:33:25.170      242.28340094    
07 May 2022 20:05:40.758    07 May 2022 20:13:32.289      471.53150307    
07 May 2022 21:43:50.128    07 May 2022 21:49:49.858      359.72928938    
08 May 2022 11:17:36.126    08 May 2022 11:19:53.251      137.12524509    
08 May 2022 12:51:35.737    08 May 2022 12:59:50.319      494.58231378    
08 May 2022 14:30:43.396    08 May 2022 14:36:32.136      348.74047382    
08 May 2022 17:50:04.589    08 May 2022 17:52:58.386      173.79646541    
08 May 2022 19:26:07.056    08 May 2022 19:33:40.141      453.08576224    
08 May 2022 21:03:47.216    08 May 2022 21:10:44.846      417.63067109    
09 May 2022 12:11:58.928    09 May 2022 12:20:08.403      489.47472543    
09 May 2022 13:50:32.599    09 May 2022 13:57:04.263      391.66399974    
09 May 2022 17:11:00.730    09 May 2022 17:12:12.744      72.014419350    
09 May 2022 18:46:34.388    09 May 2022 18:53:41.702      427.31366116    
09 May 2022 20:23:52.721    09 May 2022 20:31:26.906      454.18436257    
10 May 2022 11:32:28.241    10 May 2022 11:40:21.388      473.14706681    
10 May 2022 13:10:25.981    10 May 2022 13:17:33.551      427.57011187    
10 May 2022 14:52:13.188    10 May 2022 14:52:54.883      41.695010592    
10 May 2022 18:07:02.588    10 May 2022 18:13:37.128      394.54039262    
10 May 2022 19:44:03.477    10 May 2022 19:51:59.066      475.58935391    
11 May 2022 10:53:04.940    11 May 2022 11:00:27.899      442.95880204    
11 May 2022 12:30:23.601    11 May 2022 12:38:00.029      456.42834966    
11 May 2022 14:11:14.592    11 May 2022 14:13:59.387      164.79516327    
11 May 2022 17:27:31.614    11 May 2022 17:33:26.504      354.88999067    
11 May 2022 19:04:17.812    11 May 2022 19:12:22.864      485.05182836    
12 May 2022 10:13:51.350    12 May 2022 10:20:25.495      394.14488298    
12 May 2022 11:50:25.612    12 May 2022 11:58:23.576      477.96430802    
12 May 2022 13:30:41.329    12 May 2022 13:34:38.973      237.64316007    
12 May 2022 16:48:01.605    12 May 2022 16:53:09.789      308.18338296    
12 May 2022 18:24:34.714    12 May 2022 18:32:39.189      484.47460294    
12 May 2022 20:03:35.054    12 May 2022 20:07:46.191      251.13720652    
13 May 2022 09:34:52.679    13 May 2022 09:40:08.844      316.16451707    
13 May 2022 11:10:32.246    13 May 2022 11:18:43.946      491.69924345    
13 May 2022 12:50:15.179    13 May 2022 12:55:12.255      297.07590449    
13 May 2022 16:08:33.063    13 May 2022 16:12:46.659      253.59530303    
13 May 2022 17:44:53.514    13 May 2022 17:52:48.595      475.08078633    
13 May 2022 19:23:06.637    13 May 2022 19:28:59.946      353.30912266    
14 May 2022 08:56:28.769    14 May 2022 08:59:17.980      169.21022746    
14 May 2022 10:30:43.836    14 May 2022 10:39:00.755      496.91829990    
14 May 2022 12:09:53.956    14 May 2022 12:15:41.730      347.77430085    
14 May 2022 15:29:07.476    14 May 2022 15:32:15.876      188.40069462    
14 May 2022 17:05:13.756    14 May 2022 17:12:51.450      457.69433712    
14 May 2022 18:42:56.528    14 May 2022 18:49:51.133      414.60431580    
15 May 2022 09:51:00.865    15 May 2022 09:59:13.437      492.57207555    
15 May 2022 11:29:37.101    15 May 2022 11:36:08.190      391.08891453    
15 May 2022 14:49:51.289    15 May 2022 14:51:31.329      100.04067833    
15 May 2022 16:25:35.126    15 May 2022 16:32:48.005      432.87932512    
15 May 2022 18:02:55.491    15 May 2022 18:10:28.843      453.35259436    
16 May 2022 09:11:24.073    16 May 2022 09:19:21.146      477.07346374    
16 May 2022 10:49:24.507    16 May 2022 10:56:31.896      427.38892824    
16 May 2022 12:31:09.400    16 May 2022 12:31:56.779      47.379108332    
16 May 2022 15:45:57.428    16 May 2022 15:52:38.433      401.00487268    
16 May 2022 17:23:00.048    16 May 2022 17:30:56.404      476.35652310    
17 May 2022 08:31:54.675    17 May 2022 08:39:22.544      447.86879006    
17 May 2022 10:09:16.237    17 May 2022 10:16:52.868      456.63096058    
17 May 2022 11:50:07.698    17 May 2022 11:52:52.965      165.26696594    
17 May 2022 15:06:20.584    17 May 2022 15:12:22.835      362.25171962    
17 May 2022 16:43:08.404    17 May 2022 16:51:15.463      487.05846415    
18 May 2022 07:52:34.887    18 May 2022 07:59:15.281      400.39340855    
18 May 2022 09:29:12.445    18 May 2022 09:37:10.978      478.53304330    
18 May 2022 11:09:29.098    18 May 2022 11:13:26.569      237.47144222    
18 May 2022 14:26:44.679    18 May 2022 14:32:01.215      316.53636050    
18 May 2022 16:03:19.479    18 May 2022 16:11:26.956      487.47730931    
18 May 2022 17:42:24.215    18 May 2022 17:46:27.780      243.56524403    
19 May 2022 07:13:29.589    19 May 2022 07:18:54.335      324.74615994    
19 May 2022 08:49:13.357    19 May 2022 08:57:25.971      492.61343961    
19 May 2022 10:28:57.436    19 May 2022 10:33:54.145      296.70877021    
19 May 2022 13:47:10.100    19 May 2022 13:51:33.341      263.24092469    
19 May 2022 15:23:32.563    19 May 2022 15:31:31.465      478.90232471    
19 May 2022 17:01:48.095    19 May 2022 17:07:38.673      350.57818451    
20 May 2022 06:34:56.151    20 May 2022 06:38:02.192      186.04112685    
20 May 2022 08:09:19.296    20 May 2022 08:17:37.455      498.15860353    
20 May 2022 09:48:30.665    20 May 2022 09:54:18.048      347.38270420    
20 May 2022 13:07:38.016    20 May 2022 13:10:58.279      200.26360868    
20 May 2022 14:43:47.166    20 May 2022 14:51:29.366      462.20031154    
20 May 2022 16:21:31.594    20 May 2022 16:28:25.724      414.13050243    
21 May 2022 07:29:30.733    21 May 2022 07:37:44.859      494.12528705    
21 May 2022 09:08:08.270    21 May 2022 09:14:39.018      390.74814334    
21 May 2022 12:28:12.939    21 May 2022 12:30:11.838      118.89917435    
21 May 2022 14:04:02.950    21 May 2022 14:11:20.917      437.96756635    
21 May 2022 15:41:24.589    21 May 2022 15:48:58.892      454.30317322    
22 May 2022 06:49:48.393    22 May 2022 06:57:47.333      478.93949761    
22 May 2022 08:27:50.162    22 May 2022 08:34:57.289      427.12714568    
22 May 2022 10:09:31.596    22 May 2022 10:10:26.174      54.577838711    
22 May 2022 13:24:19.694    22 May 2022 13:31:06.297      406.60305350    
22 May 2022 15:01:23.391    22 May 2022 15:09:21.698      478.30603318    
23 May 2022 06:10:13.469    23 May 2022 06:17:43.543      450.07412850    
23 May 2022 07:47:36.412    23 May 2022 07:55:12.861      456.44908795    
23 May 2022 09:28:27.453    23 May 2022 09:31:13.837      166.38434948    
23 May 2022 12:44:37.295    23 May 2022 12:50:45.618      368.32346928    
23 May 2022 14:21:26.119    23 May 2022 14:29:35.857      489.73833953    
24 May 2022 05:30:48.136    24 May 2022 05:37:31.163      403.02622311    
24 May 2022 07:07:27.175    24 May 2022 07:15:25.590      478.41462462    
24 May 2022 08:47:43.852    24 May 2022 08:51:41.500      237.64736789    
24 May 2022 12:04:55.801    24 May 2022 12:10:18.904      323.10232393    
24 May 2022 13:41:31.644    24 May 2022 13:49:42.339      490.69499359    
24 May 2022 15:20:38.293    24 May 2022 15:24:40.067      241.77348744    
25 May 2022 04:51:37.169    25 May 2022 04:57:05.260      328.09083760    
25 May 2022 06:27:22.680    25 May 2022 06:35:35.210      492.52966102    
25 May 2022 08:07:06.937    25 May 2022 08:12:03.410      296.47315397    
25 May 2022 11:25:15.537    25 May 2022 11:29:45.976      270.43915498    
25 May 2022 13:01:39.229    25 May 2022 13:09:41.737      482.50751066    
25 May 2022 14:39:55.746    25 May 2022 14:45:46.839      351.09313595    
26 May 2022 04:12:57.218    26 May 2022 04:16:09.027      191.80945235    
26 May 2022 05:47:23.249    26 May 2022 05:55:41.319      498.07017487    
26 May 2022 07:26:34.828    26 May 2022 07:32:21.755      346.92714284    
26 May 2022 10:45:37.502    26 May 2022 10:49:06.065      208.56262195    
26 May 2022 12:21:48.367    26 May 2022 12:29:34.436      466.06885196    
26 May 2022 13:59:33.410    26 May 2022 14:06:29.132      415.72191309    
27 May 2022 05:07:29.353    27 May 2022 05:15:43.335      493.98143787    
27 May 2022 06:46:07.065    27 May 2022 06:52:37.218      390.15277309    
27 May 2022 10:06:05.353    27 May 2022 10:08:15.831      130.47858750    
27 May 2022 11:41:58.705    27 May 2022 11:49:20.699      441.99358964    
27 May 2022 13:19:20.764    27 May 2022 13:26:57.293      456.52951368    
28 May 2022 04:27:41.723    28 May 2022 04:35:40.396      478.67311717    
28 May 2022 06:05:43.584    28 May 2022 06:12:50.003      426.41843712    
28 May 2022 07:47:22.392    28 May 2022 07:48:21.293      58.900919580    
28 May 2022 11:02:10.014    28 May 2022 11:09:00.710      410.69572361    
28 May 2022 12:39:14.021    28 May 2022 12:47:14.935      480.91376427    
29 May 2022 03:48:01.562    29 May 2022 03:55:31.151      449.58910989    
29 May 2022 05:25:24.475    29 May 2022 05:33:00.096      455.62166933    
29 May 2022 07:06:14.674    29 May 2022 07:09:01.562      166.88878153    
29 May 2022 10:22:22.182    29 May 2022 10:28:34.589      372.40735881    
29 May 2022 11:59:11.260    29 May 2022 12:07:23.809      492.54820693    
30 May 2022 03:08:31.078    30 May 2022 03:15:13.241      402.16299542    
30 May 2022 04:45:09.903    30 May 2022 04:53:07.343      477.44073349    
30 May 2022 06:25:25.953    30 May 2022 06:29:23.382      237.42873443    
30 May 2022 09:42:35.250    30 May 2022 09:48:02.372      327.12229748    
30 May 2022 11:19:11.337    30 May 2022 11:27:24.901      493.56417909    
30 May 2022 12:58:17.423    30 May 2022 13:02:22.519      245.09537397    
31 May 2022 02:29:15.138    31 May 2022 02:34:41.638      326.50068831    
31 May 2022 04:05:00.106    31 May 2022 04:13:11.469      491.36251757    
31 May 2022 05:44:43.744    31 May 2022 05:49:39.641      295.89695387    
31 May 2022 09:02:49.527    31 May 2022 09:07:23.902      274.37541437    
31 May 2022 10:39:13.505    31 May 2022 10:47:18.818      485.31318500    
31 May 2022 12:17:29.565    31 May 2022 12:23:23.786      354.22065934    
01 Jun 2022 01:50:31.016    01 Jun 2022 01:53:38.914      187.89841568    
01 Jun 2022 03:24:55.420    01 Jun 2022 03:33:12.063      496.64279911    
01 Jun 2022 05:04:06.294    01 Jun 2022 05:09:52.409      346.11526646    
01 Jun 2022 08:23:05.977    01 Jun 2022 08:26:38.461      212.48367039    
01 Jun 2022 09:59:17.253    01 Jun 2022 10:07:05.953      468.69961243    
01 Jun 2022 11:37:01.835    01 Jun 2022 11:44:00.612      418.77724252    
02 Jun 2022 02:44:56.331    02 Jun 2022 02:53:08.531      492.20009507    
02 Jun 2022 04:23:33.190    02 Jun 2022 04:30:02.333      389.14316499    
02 Jun 2022 07:43:28.056    02 Jun 2022 07:45:42.928      134.87206221    
02 Jun 2022 09:19:22.233    02 Jun 2022 09:26:46.577      444.34407227    
02 Jun 2022 10:56:43.809    02 Jun 2022 11:04:23.255      459.44628334    
03 Jun 2022 02:05:03.595    03 Jun 2022 02:12:59.996      476.40141228    
03 Jun 2022 03:43:04.396    03 Jun 2022 03:50:09.603      425.20710480    
03 Jun 2022 05:24:42.081    03 Jun 2022 05:25:41.004      58.923328808    
03 Jun 2022 08:39:28.219    03 Jun 2022 08:46:20.881      412.66201279    
03 Jun 2022 10:16:31.715    03 Jun 2022 10:24:35.320      483.60452052    
04 Jun 2022 01:25:18.460    04 Jun 2022 01:32:45.071      446.61063863    
04 Jun 2022 03:02:40.019    04 Jun 2022 03:10:14.197      454.17820250    
04 Jun 2022 04:43:29.215    04 Jun 2022 04:46:15.492      166.27632320    
04 Jun 2022 07:59:35.111    04 Jun 2022 08:05:48.992      373.88095806    
04 Jun 2022 09:36:23.640    04 Jun 2022 09:44:38.563      494.92293033    
05 Jun 2022 00:45:43.228    05 Jun 2022 00:52:21.308      398.07984706    
05 Jun 2022 02:22:20.241    05 Jun 2022 02:30:15.955      475.71391286    
05 Jun 2022 04:02:35.171    05 Jun 2022 04:06:31.784      236.61278727    
05 Jun 2022 07:19:42.967    05 Jun 2022 07:25:10.946      327.97859155    
05 Jun 2022 08:56:18.446    05 Jun 2022 09:04:33.979      495.53283511    
05 Jun 2022 10:35:21.757    05 Jun 2022 10:39:34.172      252.41463402    
06 Jun 2022 00:06:23.055    06 Jun 2022 00:11:43.405      320.35052679    
06 Jun 2022 01:42:05.315    06 Jun 2022 01:50:14.595      489.28019477    
06 Jun 2022 03:21:47.653    06 Jun 2022 03:26:42.593      294.93963753    
06 Jun 2022 06:39:52.130    06 Jun 2022 06:44:26.575      274.44484985    
06 Jun 2022 08:16:15.392    06 Jun 2022 08:24:22.177      486.78509728    
06 Jun 2022 09:54:29.658    06 Jun 2022 10:00:28.849      359.19159490    
06 Jun 2022 23:27:37.276    06 Jun 2022 23:30:31.881      174.60533499    
07 Jun 2022 01:01:55.593    07 Jun 2022 01:10:09.700      494.10649409    
07 Jun 2022 02:41:04.949    07 Jun 2022 02:46:49.964      345.01487921    
07 Jun 2022 06:00:03.644    07 Jun 2022 06:03:35.101      211.45693429    
07 Jun 2022 07:36:13.978    07 Jun 2022 07:44:03.560      469.58164691    
07 Jun 2022 09:13:57.079    07 Jun 2022 09:20:59.721      422.64165874    
08 Jun 2022 00:21:51.588    08 Jun 2022 00:30:00.660      489.07208290    
08 Jun 2022 02:00:26.665    08 Jun 2022 02:06:54.534      387.86893351    
08 Jun 2022 05:20:21.316    08 Jun 2022 05:22:33.075      131.75913496    
08 Jun 2022 06:56:13.864    08 Jun 2022 07:03:38.401      444.53743428    
08 Jun 2022 08:33:34.093    08 Jun 2022 08:41:16.559      462.46595270    
08 Jun 2022 23:41:54.090    08 Jun 2022 23:49:46.567      472.47735044    
09 Jun 2022 01:19:52.778    09 Jun 2022 01:26:56.488      423.70999464    
09 Jun 2022 03:01:31.037    09 Jun 2022 03:02:25.567      54.530022258    
09 Jun 2022 06:16:14.837    09 Jun 2022 06:23:06.894      412.05626082    
09 Jun 2022 07:53:17.032    09 Jun 2022 08:01:22.876      485.84377079    
09 Jun 2022 23:02:04.415    09 Jun 2022 23:09:25.972      441.55726600    
10 Jun 2022 00:39:23.405    10 Jun 2022 00:46:55.799      452.39411473    
10 Jun 2022 02:20:11.534    10 Jun 2022 02:22:56.238      164.70364169    
10 Jun 2022 05:36:16.817    10 Jun 2022 05:42:29.159      372.34162322    
10 Jun 2022 07:13:04.020    10 Jun 2022 07:21:20.397      496.37747164    
10 Jun 2022 22:22:25.015    10 Jun 2022 22:28:56.280      391.26435238    
10 Jun 2022 23:58:58.737    11 Jun 2022 00:06:52.299      473.56261098    
11 Jun 2022 01:39:12.131    11 Jun 2022 01:43:07.587      235.45615379    
11 Jun 2022 04:56:19.896    11 Jun 2022 05:01:45.215      325.31880067    
11 Jun 2022 06:32:53.937    11 Jun 2022 06:41:10.104      496.16672230    
11 Jun 2022 08:11:52.708    11 Jun 2022 08:16:15.094      262.38607460    
11 Jun 2022 21:43:01.532    11 Jun 2022 21:48:11.704      310.17205340    
11 Jun 2022 23:18:39.037    11 Jun 2022 23:26:45.697      486.66035727    
12 Jun 2022 00:58:19.472    12 Jun 2022 01:03:13.393      293.92139283    
12 Jun 2022 04:16:24.486    12 Jun 2022 04:20:54.836      270.34965511    
12 Jun 2022 05:52:46.056    12 Jun 2022 06:00:52.600      486.54375253    
12 Jun 2022 07:30:57.385    12 Jun 2022 07:37:02.594      365.20981846    
12 Jun 2022 21:04:17.433    12 Jun 2022 21:06:48.629      151.19590152    
12 Jun 2022 22:38:24.671    12 Jun 2022 22:46:35.556      490.88553332    
13 Jun 2022 00:17:31.773    13 Jun 2022 00:23:15.767      343.99325367    
13 Jun 2022 03:36:31.834    13 Jun 2022 03:39:57.054      205.22045195    
13 Jun 2022 05:12:39.885    13 Jun 2022 05:20:28.281      468.39576740    
13 Jun 2022 06:50:20.618    13 Jun 2022 06:57:27.323      426.70542353    
13 Jun 2022 21:58:16.173    13 Jun 2022 22:06:21.240      485.06677245    
13 Jun 2022 23:36:48.624    13 Jun 2022 23:43:15.359      386.73480920    
14 Jun 2022 02:56:46.794    14 Jun 2022 02:58:47.386      120.59252855    
14 Jun 2022 04:32:35.093    14 Jun 2022 04:39:57.415      442.32125898    
14 Jun 2022 06:09:53.218    14 Jun 2022 06:17:38.312      465.09418257    
14 Jun 2022 21:18:14.376    14 Jun 2022 21:26:01.791      467.41501966    
14 Jun 2022 22:56:09.992    14 Jun 2022 23:03:12.355      422.36287863    
15 Jun 2022 00:37:50.207    15 Jun 2022 00:38:37.091      46.884158417    
15 Jun 2022 03:52:31.484    15 Jun 2022 03:59:20.183      408.69939190    
15 Jun 2022 05:29:31.679    15 Jun 2022 05:37:38.908      487.22947132    
15 Jun 2022 20:38:20.680    15 Jun 2022 20:45:35.667      434.98773408    
15 Jun 2022 22:15:35.988    15 Jun 2022 22:23:06.720      450.73170987    
15 Jun 2022 23:56:22.851    15 Jun 2022 23:59:05.854      163.00305087    
16 Jun 2022 03:12:28.997    16 Jun 2022 03:18:36.686      367.68912632    
16 Jun 2022 04:49:14.181    16 Jun 2022 04:57:30.775      496.59361221    
16 Jun 2022 19:58:37.744    16 Jun 2022 20:05:00.057      382.31340672    
16 Jun 2022 21:35:06.802    16 Jun 2022 21:42:58.275      471.47248577    
16 Jun 2022 23:15:18.192    16 Jun 2022 23:19:12.849      234.65660603    
17 Jun 2022 02:32:27.772    17 Jun 2022 02:37:46.896      319.12319174    
17 Jun 2022 04:08:59.632    17 Jun 2022 04:17:14.861      495.22842241    
17 Jun 2022 05:47:52.573    17 Jun 2022 05:52:26.361      273.78859555    
17 Jun 2022 19:19:11.926    17 Jun 2022 19:24:08.447      296.52070765    
17 Jun 2022 20:54:42.701    17 Jun 2022 21:02:46.710      484.00969680    
17 Jun 2022 22:34:20.617    17 Jun 2022 22:39:14.096      293.47879754    
18 Jun 2022 01:52:28.338    18 Jun 2022 01:56:50.476      262.13781604    
18 Jun 2022 03:28:47.318    18 Jun 2022 03:36:51.750      484.43147962    
18 Jun 2022 05:06:54.794    18 Jun 2022 05:13:06.420      371.62544921    
18 Jun 2022 18:40:34.956    18 Jun 2022 18:42:28.948      113.99130643    
18 Jun 2022 20:14:24.060    18 Jun 2022 20:22:31.566      487.50561710    
18 Jun 2022 21:53:28.191    18 Jun 2022 21:59:11.843      343.65275342    
19 Jun 2022 01:12:32.303    19 Jun 2022 01:15:46.099      193.79615639    
19 Jun 2022 02:48:36.757    19 Jun 2022 02:56:21.820      465.06350638    
19 Jun 2022 04:26:14.388    19 Jun 2022 04:33:24.926      430.53773685    
19 Jun 2022 19:34:11.439    19 Jun 2022 19:42:12.166      480.72636053    
19 Jun 2022 21:12:40.451    19 Jun 2022 21:19:06.773      386.32255881    
20 Jun 2022 00:32:46.885    20 Jun 2022 00:34:26.921      100.03593711    
20 Jun 2022 02:08:27.629    20 Jun 2022 02:15:45.325      437.69586791    
20 Jun 2022 03:45:43.012    20 Jun 2022 03:53:30.052      467.04006004    
20 Jun 2022 18:54:05.719    20 Jun 2022 19:01:47.488      461.76875458    
20 Jun 2022 20:31:57.342    20 Jun 2022 20:38:59.076      421.73434559    
20 Jun 2022 22:13:39.511    20 Jun 2022 22:14:18.922      39.410890325    
21 Jun 2022 01:28:19.753    21 Jun 2022 01:35:02.423      402.67043678    
21 Jun 2022 03:05:17.358    21 Jun 2022 03:13:24.937      487.57921890    
21 Jun 2022 18:14:08.409    21 Jun 2022 18:21:15.868      427.45893484    
21 Jun 2022 19:51:18.962    21 Jun 2022 19:58:48.711      449.74961746    
21 Jun 2022 21:32:04.006    21 Jun 2022 21:34:46.539      162.53299552    
22 Jun 2022 00:48:13.101    22 Jun 2022 00:54:13.182      360.08139532    
22 Jun 2022 02:24:55.679    22 Jun 2022 02:33:11.161      495.48145111    
22 Jun 2022 04:05:29.779    22 Jun 2022 04:06:25.658      55.878764566    
22 Jun 2022 17:34:22.446    22 Jun 2022 17:40:34.202      371.75641812    
22 Jun 2022 19:10:45.496    22 Jun 2022 19:18:35.488      469.99198246    
22 Jun 2022 20:50:54.227    22 Jun 2022 20:54:49.450      235.22234961    
23 Jun 2022 00:08:07.880    23 Jun 2022 00:13:17.506      309.62625886    
23 Jun 2022 01:44:36.917    23 Jun 2022 01:52:49.629      492.71152359    
23 Jun 2022 03:23:23.076    23 Jun 2022 03:28:08.986      285.90967212    
23 Jun 2022 16:54:55.220    23 Jun 2022 16:59:34.935      279.71484616    
23 Jun 2022 18:30:17.214    23 Jun 2022 18:38:19.077      481.86342217    
23 Jun 2022 20:09:51.881    23 Jun 2022 20:14:46.341      294.46006265    
23 Jun 2022 23:28:04.791    23 Jun 2022 23:32:14.889      250.09738900    
24 Jun 2022 01:04:20.377    24 Jun 2022 01:12:20.898      480.52057024    
24 Jun 2022 02:42:23.261    24 Jun 2022 02:48:41.396      378.13529747    
24 Jun 2022 16:16:44.376    24 Jun 2022 16:17:20.254      35.878776864    
24 Jun 2022 17:49:54.508    24 Jun 2022 17:57:58.991      484.48341965    
24 Jun 2022 19:28:54.866    24 Jun 2022 19:34:39.610      344.74386724    
24 Jun 2022 22:48:06.057    24 Jun 2022 22:51:03.397      177.33993467    
25 Jun 2022 00:24:05.594    25 Jun 2022 00:31:45.328      459.73418474    
25 Jun 2022 02:01:39.520    25 Jun 2022 02:08:53.529      434.00833919    
25 Jun 2022 17:09:37.969    25 Jun 2022 17:17:34.511      476.54171654    
25 Jun 2022 18:48:02.667    25 Jun 2022 18:54:29.978      387.31096247    
25 Jun 2022 22:08:25.056    25 Jun 2022 22:09:30.032      64.976167632    
25 Jun 2022 23:43:52.265    25 Jun 2022 23:51:03.154      430.88832021    
26 Jun 2022 01:21:04.387    26 Jun 2022 01:28:52.674      468.28633704    


Number of events : 336


Observer: Hawaii
Start Time (UTC)            Stop Time (UTC)               Duration (s)         
27 Apr 2022 14:28:18.755    27 Apr 2022 14:28:41.240      22.484967497    
27 Apr 2022 16:01:39.744    27 Apr 2022 16:09:36.200      476.45545984    
28 Apr 2022 00:19:29.211    28 Apr 2022 00:25:53.445      384.23458859    
28 Apr 2022 01:56:32.228    28 Apr 2022 02:03:41.159      428.93088860    
28 Apr 2022 15:22:07.825    28 Apr 2022 15:30:11.095      483.27087468    
28 Apr 2022 23:40:34.958    28 Apr 2022 23:45:38.113      303.15528744    
29 Apr 2022 01:16:46.174    29 Apr 2022 01:24:34.464      468.29030283    
29 Apr 2022 14:42:44.159    29 Apr 2022 14:50:38.078      473.91948674    
29 Apr 2022 16:22:30.677    29 Apr 2022 16:26:09.036      218.35898302    
29 Apr 2022 23:02:09.905    29 Apr 2022 23:04:47.453      157.54813805    
30 Apr 2022 00:37:08.298    30 Apr 2022 00:45:15.658      487.35986345    
30 Apr 2022 14:03:29.604    30 Apr 2022 14:10:55.963      446.35938207    
30 Apr 2022 15:41:56.863    30 Apr 2022 15:47:27.756      330.89326469    
30 Apr 2022 23:57:36.796    01 May 2022 00:05:46.211      489.41484061    
01 May 2022 13:24:26.521    01 May 2022 13:31:02.069      395.54757195    
01 May 2022 15:01:45.893    01 May 2022 15:08:25.484      399.59041458    
01 May 2022 23:18:10.955    01 May 2022 23:26:06.497      475.54249802    
02 May 2022 00:57:33.730    02 May 2022 01:01:04.377      210.64758883    
02 May 2022 12:45:41.278    02 May 2022 12:50:49.712      308.43430383    
02 May 2022 14:21:47.813    02 May 2022 14:29:11.826      444.01271499    
02 May 2022 22:38:50.885    02 May 2022 22:46:16.056      445.17076513    
03 May 2022 00:16:56.141    03 May 2022 00:22:43.727      347.58618266    
03 May 2022 12:07:47.165    03 May 2022 12:09:45.289      118.12419175    
03 May 2022 13:41:59.502    03 May 2022 13:49:49.553      470.05177456    
03 May 2022 21:59:37.764    03 May 2022 22:06:13.354      395.59038881    
03 May 2022 23:36:48.530    03 May 2022 23:43:49.916      421.38552148    
04 May 2022 13:02:19.764    04 May 2022 13:10:19.525      479.76125657    
04 May 2022 21:20:35.100    04 May 2022 21:25:54.524      319.42458507    
04 May 2022 22:56:54.498    04 May 2022 23:04:39.024      464.52605770    
05 May 2022 12:22:48.404    05 May 2022 12:30:41.605      473.20067118    
05 May 2022 14:02:52.931    05 May 2022 14:05:56.454      183.52217175    
05 May 2022 20:41:56.320    05 May 2022 20:45:05.775      189.45514695    
05 May 2022 22:17:09.237    05 May 2022 22:25:15.541      486.30400642    
06 May 2022 11:43:26.137    06 May 2022 11:50:54.759      448.62243212    
06 May 2022 13:22:04.539    06 May 2022 13:27:16.884      312.34589685    
06 May 2022 21:37:30.687    06 May 2022 21:45:41.203      490.51589768    
07 May 2022 11:04:15.076    07 May 2022 11:10:56.560      401.48423414    
07 May 2022 12:41:44.159    07 May 2022 12:48:11.345      387.18630702    
07 May 2022 20:57:58.002    07 May 2022 21:05:56.529      478.52704731    
07 May 2022 22:37:36.334    07 May 2022 22:40:36.415      180.08063879    
08 May 2022 10:25:20.831    08 May 2022 10:30:41.090      320.25859093    
08 May 2022 12:01:37.915    08 May 2022 12:08:53.367      435.45167808    
08 May 2022 20:18:31.187    08 May 2022 20:26:01.171      449.98421310    
08 May 2022 21:56:44.012    08 May 2022 22:02:18.612      334.59985763    
09 May 2022 09:47:08.128    09 May 2022 09:49:43.314      155.18590137    
09 May 2022 11:21:42.004    09 May 2022 11:29:26.413      464.40920464    
09 May 2022 19:39:11.279    09 May 2022 19:45:53.747      402.46731603    
09 May 2022 21:16:27.789    09 May 2022 21:23:21.695      413.90630737    
10 May 2022 10:41:54.981    10 May 2022 10:49:51.589      476.60821845    
10 May 2022 19:00:01.439    10 May 2022 19:05:30.738      329.29817961    
10 May 2022 20:36:26.430    10 May 2022 20:44:06.583      460.15314903    
11 May 2022 10:02:16.515    11 May 2022 10:10:08.894      472.37900997    
11 May 2022 11:42:38.132    11 May 2022 11:45:07.999      149.86701300    
11 May 2022 18:21:13.084    11 May 2022 18:24:40.369      207.28531043    
11 May 2022 19:56:34.425    11 May 2022 20:04:38.469      484.04392954    
12 May 2022 09:22:47.201    12 May 2022 09:30:17.411      450.21012562    
12 May 2022 11:01:34.647    12 May 2022 11:06:31.508      296.86063930    
12 May 2022 19:16:49.475    12 May 2022 19:24:59.328      489.85309449    
13 May 2022 08:43:28.969    13 May 2022 08:50:14.892      405.92235978    
13 May 2022 10:21:05.584    13 May 2022 10:27:22.854      377.27011313    
13 May 2022 18:37:10.613    13 May 2022 18:45:09.792      479.17940654    
13 May 2022 20:17:03.695    13 May 2022 20:19:32.845      149.14982939    
14 May 2022 08:04:26.915    14 May 2022 08:09:55.922      329.00698569    
14 May 2022 09:40:51.886    14 May 2022 09:48:00.741      428.85467196    
14 May 2022 17:57:37.764    14 May 2022 18:05:09.591      451.82743385    
14 May 2022 19:35:56.400    14 May 2022 19:41:18.981      322.58090501    
15 May 2022 07:26:01.465    15 May 2022 07:28:59.757      178.29192452    
15 May 2022 09:00:49.050    15 May 2022 09:08:29.316      460.26570689    
15 May 2022 17:18:11.874    15 May 2022 17:24:57.421      405.54641004    
15 May 2022 18:55:32.387    15 May 2022 19:02:18.982      406.59558146    
16 May 2022 08:20:55.397    16 May 2022 08:28:49.905      474.50839926    
16 May 2022 16:38:55.925    16 May 2022 16:44:29.929      334.00422020    
16 May 2022 18:15:24.427    16 May 2022 18:22:59.748      455.32097819    
17 May 2022 07:41:10.473    17 May 2022 07:49:02.615      472.14264250    
17 May 2022 09:21:47.329    17 May 2022 09:23:47.352      120.02364805    
17 May 2022 16:00:00.458    17 May 2022 16:03:36.200      215.74222556    
17 May 2022 17:35:26.330    17 May 2022 17:43:27.135      480.80481609    
18 May 2022 07:01:34.770    18 May 2022 07:09:06.609      451.83846212    
18 May 2022 08:40:28.947    18 May 2022 08:45:14.593      285.64608033    
18 May 2022 16:55:35.575    18 May 2022 17:03:43.319      487.74349708    
19 May 2022 06:22:10.081    19 May 2022 06:28:59.754      409.67295268    
19 May 2022 07:59:52.097    19 May 2022 08:06:02.699      370.60151151    
19 May 2022 16:15:51.092    19 May 2022 16:23:49.016      477.92406231    
19 May 2022 17:55:58.318    19 May 2022 17:57:56.155      117.83748886    
20 May 2022 05:43:01.149    20 May 2022 05:48:36.966      335.81688011    
20 May 2022 07:19:31.637    20 May 2022 07:26:36.438      424.80111978    
20 May 2022 15:36:12.742    20 May 2022 15:43:43.999      451.25648417    
20 May 2022 17:14:35.507    20 May 2022 17:19:47.392      311.88484209    
21 May 2022 05:04:25.932    21 May 2022 05:07:39.947      194.01479142    
21 May 2022 06:39:22.449    21 May 2022 06:47:00.551      458.10160866    
21 May 2022 14:56:41.422    21 May 2022 15:03:26.989      405.56707196    
21 May 2022 16:34:04.385    21 May 2022 16:40:44.150      399.76574838    
22 May 2022 05:59:22.659    22 May 2022 06:07:16.535      473.87627824    
22 May 2022 14:17:20.053    22 May 2022 14:22:54.673      334.62048874    
22 May 2022 15:53:50.323    22 May 2022 16:01:20.704      450.38081155    
23 May 2022 05:19:31.716    23 May 2022 05:27:24.573      472.85775976    
23 May 2022 07:00:19.737    23 May 2022 07:01:58.553      98.816205806    
23 May 2022 13:38:18.986    23 May 2022 13:41:56.304      217.31797359    
23 May 2022 15:13:46.513    23 May 2022 15:21:43.509      476.99635505    
24 May 2022 04:39:50.040    24 May 2022 04:47:23.880      453.83977583    
24 May 2022 06:18:48.321    24 May 2022 06:23:27.974      279.65324263    
24 May 2022 14:33:50.248    24 May 2022 14:41:54.910      484.66259163    
25 May 2022 04:00:19.335    25 May 2022 04:07:12.394      413.05860621    
25 May 2022 05:38:04.534    25 May 2022 05:44:12.197      367.66257497    
25 May 2022 13:54:00.377    25 May 2022 14:01:55.685      475.30805797    
25 May 2022 15:34:20.771    25 May 2022 15:35:48.177      87.406281335    
26 May 2022 03:21:04.137    26 May 2022 03:26:45.226      341.08895188    
26 May 2022 04:57:37.809    26 May 2022 05:04:41.399      423.58980192    
26 May 2022 13:14:16.727    26 May 2022 13:21:45.627      448.89979652    
26 May 2022 14:52:41.863    26 May 2022 14:57:45.140      303.27693578    
27 May 2022 02:42:21.036    27 May 2022 02:45:45.429      204.39282744    
27 May 2022 04:17:22.615    27 May 2022 04:25:00.720      458.10440455    
27 May 2022 12:34:40.188    27 May 2022 12:41:23.451      403.26294608    
27 May 2022 14:12:04.109    27 May 2022 14:18:38.129      394.02007886    
28 May 2022 03:37:16.958    28 May 2022 03:45:11.771      474.81320361    
28 May 2022 11:55:13.728    28 May 2022 12:00:45.787      332.05853604    
28 May 2022 13:31:44.192    28 May 2022 13:39:10.101      445.90975509    
29 May 2022 02:57:20.232    29 May 2022 03:05:14.780      474.54831556    
29 May 2022 04:38:11.912    29 May 2022 04:39:44.998      93.085718004    
29 May 2022 11:16:08.037    29 May 2022 11:19:41.540      213.50268895    
29 May 2022 12:51:34.803    29 May 2022 12:59:28.004      473.20025219    
30 May 2022 02:17:32.828    30 May 2022 02:25:08.990      456.16168947    
30 May 2022 03:56:32.288    30 May 2022 04:01:11.664      279.37557081    
30 May 2022 12:11:33.103    30 May 2022 12:19:34.310      481.20674165    
31 May 2022 01:37:56.418    31 May 2022 01:44:52.366      415.94800445    
31 May 2022 03:15:42.420    31 May 2022 03:21:51.008      368.58813353    
31 May 2022 11:31:37.895    31 May 2022 11:39:29.843      471.94831866    
31 May 2022 13:12:07.984    31 May 2022 13:13:11.487      63.502955949    
01 Jun 2022 00:58:35.470    01 Jun 2022 01:04:20.090      344.61948053    
01 Jun 2022 02:35:09.872    01 Jun 2022 02:42:15.080      425.20712115    
01 Jun 2022 10:51:48.999    01 Jun 2022 10:59:14.402      445.40325607    
01 Jun 2022 12:30:14.523    01 Jun 2022 12:35:12.417      297.89415468    
02 Jun 2022 00:19:46.090    02 Jun 2022 00:23:15.701      209.61068067    
02 Jun 2022 01:54:48.989    02 Jun 2022 02:02:29.148      460.15861414    
02 Jun 2022 10:12:07.342    02 Jun 2022 10:18:46.669      399.32637080    
02 Jun 2022 11:49:30.696    02 Jun 2022 11:56:00.869      390.17270043    
03 Jun 2022 01:14:37.744    03 Jun 2022 01:22:34.862      477.11738418    
03 Jun 2022 09:32:36.035    03 Jun 2022 09:38:03.134      327.09883024    
03 Jun 2022 11:09:05.186    03 Jun 2022 11:16:27.802      442.61532831    
04 Jun 2022 00:34:35.528    04 Jun 2022 00:42:32.460      476.93207507    
04 Jun 2022 02:15:22.020    04 Jun 2022 02:17:07.199      105.17902051    
04 Jun 2022 08:53:26.599    04 Jun 2022 08:56:51.875      205.27642410    
04 Jun 2022 10:28:50.390    04 Jun 2022 10:36:40.465      470.07455028    
04 Jun 2022 23:54:42.741    05 Jun 2022 00:02:21.184      458.44208125    
05 Jun 2022 01:33:40.356    05 Jun 2022 01:38:24.964      284.60810442    
05 Jun 2022 09:48:43.399    05 Jun 2022 09:56:41.409      478.00921134    
05 Jun 2022 23:15:01.086    05 Jun 2022 23:21:58.979      417.89259918    
06 Jun 2022 00:52:45.427    06 Jun 2022 00:58:58.491      373.06482859    
06 Jun 2022 09:08:43.006    06 Jun 2022 09:16:31.474      468.46820024    
06 Jun 2022 10:49:12.742    06 Jun 2022 10:50:12.722      59.980203607    
06 Jun 2022 22:35:35.106    06 Jun 2022 22:41:20.956      345.85024766    
07 Jun 2022 00:12:07.681    07 Jun 2022 00:19:16.957      429.27598738    
07 Jun 2022 08:28:49.052    07 Jun 2022 08:36:10.444      441.39283695    
07 Jun 2022 10:07:12.790    07 Jun 2022 10:12:09.621      296.83120656    
07 Jun 2022 21:56:41.289    07 Jun 2022 22:00:10.284      208.99519668    
07 Jun 2022 23:31:41.633    07 Jun 2022 23:39:25.468      463.83516707    
08 Jun 2022 07:49:02.535    08 Jun 2022 07:55:36.935      394.40088957    
08 Jun 2022 09:26:23.781    08 Jun 2022 09:32:52.766      388.98559789    
08 Jun 2022 22:51:25.312    08 Jun 2022 22:59:25.625      480.31370561    
09 Jun 2022 07:09:26.791    09 Jun 2022 07:14:47.215      320.42426344    
09 Jun 2022 08:45:53.190    09 Jun 2022 08:53:14.332      441.14182274    
09 Jun 2022 22:11:18.144    09 Jun 2022 22:19:17.635      479.49045959    
09 Jun 2022 23:51:53.424    09 Jun 2022 23:54:02.329      128.90462262    
10 Jun 2022 06:30:14.711    10 Jun 2022 06:33:27.993      193.28207216    
10 Jun 2022 08:05:33.389    10 Jun 2022 08:13:21.592      468.20256254    
10 Jun 2022 21:31:20.576    10 Jun 2022 21:39:00.693      460.11644510    
10 Jun 2022 23:10:13.532    10 Jun 2022 23:15:07.870      294.33799186    
11 Jun 2022 07:25:21.476    11 Jun 2022 07:33:17.092      475.61591752    
11 Jun 2022 20:51:34.395    11 Jun 2022 20:58:32.663      418.26762166    
11 Jun 2022 22:29:14.678    11 Jun 2022 22:35:34.992      380.31455416    
12 Jun 2022 06:45:16.262    12 Jun 2022 06:53:01.651      465.38905248    
12 Jun 2022 08:25:33.431    12 Jun 2022 08:26:55.197      81.766012253    
12 Jun 2022 20:12:04.377    12 Jun 2022 20:17:48.417      344.04031764    
12 Jun 2022 21:48:32.543    12 Jun 2022 21:55:47.632      435.08843071    
13 Jun 2022 06:05:17.630    13 Jun 2022 06:12:35.004      437.37440861    
13 Jun 2022 07:43:37.374    13 Jun 2022 07:48:38.106      300.73192406    
13 Jun 2022 19:33:08.436    13 Jun 2022 19:36:29.693      201.25656560    
13 Jun 2022 21:08:02.040    13 Jun 2022 21:15:50.495      468.45507355    
14 Jun 2022 05:25:26.677    14 Jun 2022 05:31:55.662      388.98460903    
14 Jun 2022 07:02:44.314    14 Jun 2022 07:09:15.257      390.94209817    
14 Jun 2022 20:27:41.316    14 Jun 2022 20:35:45.052      483.73628121    
15 Jun 2022 04:45:47.048    15 Jun 2022 04:50:59.572      312.52385429    
15 Jun 2022 06:22:09.319    15 Jun 2022 06:29:31.222      441.90292018    
15 Jun 2022 19:47:29.871    15 Jun 2022 19:55:31.432      481.56107299    
15 Jun 2022 21:27:51.081    15 Jun 2022 21:30:28.332      157.25121468    
16 Jun 2022 04:06:33.692    16 Jun 2022 04:09:31.372      177.67991661    
16 Jun 2022 05:41:45.036    16 Jun 2022 05:49:32.990      467.95354898    
16 Jun 2022 19:07:28.228    16 Jun 2022 19:15:08.741      460.51326545    
16 Jun 2022 20:46:14.112    16 Jun 2022 20:51:21.189      307.07681458    
17 Jun 2022 05:01:28.648    17 Jun 2022 05:09:23.008      474.36045951    
17 Jun 2022 18:27:38.321    17 Jun 2022 18:34:34.683      416.36175636    
17 Jun 2022 20:05:12.304    17 Jun 2022 20:11:41.599      389.29477130    
18 Jun 2022 04:21:19.018    18 Jun 2022 04:29:02.028      463.01003733    
18 Jun 2022 06:01:18.108    18 Jun 2022 06:03:13.890      115.78262643    
18 Jun 2022 17:48:05.359    18 Jun 2022 17:53:43.685      338.32611985    
18 Jun 2022 19:24:26.526    18 Jun 2022 19:31:48.296      441.77041015    
19 Jun 2022 03:41:16.096    19 Jun 2022 03:48:29.704      433.60763225    
19 Jun 2022 05:19:29.771    19 Jun 2022 05:24:39.378      309.60736218    
19 Jun 2022 17:09:10.279    19 Jun 2022 17:12:14.444      184.16443497    
19 Jun 2022 18:43:52.212    19 Jun 2022 18:51:45.449      473.23674490    
20 Jun 2022 03:01:21.111    20 Jun 2022 03:07:44.393      383.28186764    
20 Jun 2022 04:38:33.691    20 Jun 2022 04:45:09.841      396.15019422    
20 Jun 2022 18:03:27.681    20 Jun 2022 18:11:34.343      486.66160513    
21 Jun 2022 02:21:38.124    21 Jun 2022 02:26:41.612      303.48767160    
21 Jun 2022 03:57:54.885    21 Jun 2022 04:05:19.892      445.00695372    
21 Jun 2022 17:23:12.534    21 Jun 2022 17:31:14.988      482.45347599    
21 Jun 2022 19:03:18.434    21 Jun 2022 19:06:24.685      186.25191202    
22 Jun 2022 01:42:25.253    22 Jun 2022 01:45:02.810      157.55639998    
22 Jun 2022 03:17:26.544    22 Jun 2022 03:25:15.955      469.41085726    
22 Jun 2022 16:43:07.413    22 Jun 2022 16:50:46.357      458.94395598    
22 Jun 2022 18:21:44.183    22 Jun 2022 18:27:05.535      321.35174501    
23 Jun 2022 02:37:06.015    23 Jun 2022 02:45:00.300      474.28530055    
23 Jun 2022 16:03:14.484    23 Jun 2022 16:10:05.909      411.42503876    
23 Jun 2022 17:40:40.034    23 Jun 2022 17:47:19.028      398.99367169    
