GMAT/ProtoCube/Contact/Bahrain.txt

Observer: Bahrain
Start Time (UTC)            Stop Time (UTC)               Duration (s)         
27 Apr 2022 12:05:34.828    27 Apr 2022 12:13:12.732      457.90368898    
27 Apr 2022 13:44:58.302    27 Apr 2022 13:52:09.161      430.85920934    
27 Apr 2022 15:25:14.455    27 Apr 2022 15:30:01.982      287.52664559    
28 Apr 2022 08:07:34.793    28 Apr 2022 08:11:17.473      222.67932615    
28 Apr 2022 09:45:00.038    28 Apr 2022 09:51:59.140      419.10213483    
28 Apr 2022 11:23:49.753    28 Apr 2022 11:31:27.890      458.13723227    
28 Apr 2022 13:03:10.335    28 Apr 2022 13:10:27.728      437.39281999    
28 Apr 2022 14:43:17.390    28 Apr 2022 14:48:30.856      313.46627148    
29 Apr 2022 07:26:14.352    29 Apr 2022 07:29:08.040      173.68819050    
29 Apr 2022 09:03:18.804    29 Apr 2022 09:10:09.220      410.41523328    
29 Apr 2022 10:42:04.047    29 Apr 2022 10:49:41.429      457.38120263    
29 Apr 2022 12:21:21.755    29 Apr 2022 12:28:44.467      442.71240332    
29 Apr 2022 14:01:21.094    29 Apr 2022 14:06:56.466      335.37198367    
30 Apr 2022 06:45:07.829    30 Apr 2022 06:46:42.684      94.855435006    
30 Apr 2022 08:21:37.439    30 Apr 2022 08:28:17.428      399.98922239    
30 Apr 2022 10:00:17.768    30 Apr 2022 10:07:53.374      455.60579138    
30 Apr 2022 11:39:32.597    30 Apr 2022 11:46:59.419      446.82186133    
30 Apr 2022 13:19:25.259    30 Apr 2022 13:25:19.169      353.91034526    
01 May 2022 07:39:56.026    01 May 2022 07:46:23.746      387.71956705    
01 May 2022 09:18:30.956    01 May 2022 09:26:03.769      452.81300673    
01 May 2022 10:57:42.885    01 May 2022 11:05:12.637      449.75287069    
01 May 2022 12:37:29.682    01 May 2022 12:43:39.226      369.54361391    
02 May 2022 06:58:14.649    02 May 2022 07:04:28.144      373.49505628    
02 May 2022 08:36:43.633    02 May 2022 08:44:12.668      449.03479629    
02 May 2022 10:15:52.627    02 May 2022 10:23:24.194      451.56714149    
02 May 2022 11:55:34.217    02 May 2022 12:01:56.845      382.62757910    
03 May 2022 06:16:33.393    03 May 2022 06:22:30.572      357.17848440    
03 May 2022 07:54:55.804    03 May 2022 08:02:20.133      444.32877613    
03 May 2022 09:34:01.817    03 May 2022 09:41:34.173      452.35615256    
03 May 2022 11:13:38.747    03 May 2022 11:20:12.211      393.46347826    
04 May 2022 05:34:52.367    04 May 2022 05:40:30.945      338.57817102    
04 May 2022 07:13:07.458    04 May 2022 07:20:26.229      438.77182736    
04 May 2022 08:52:10.430    04 May 2022 08:59:42.668      452.23839678    
04 May 2022 10:31:43.168    04 May 2022 10:38:25.494      402.32660724    
04 May 2022 12:13:02.044    04 May 2022 12:15:10.749      128.70489748    
05 May 2022 04:53:11.715    05 May 2022 04:58:29.119      317.40433413    
05 May 2022 06:31:18.569    05 May 2022 06:38:31.021      432.45184649    
05 May 2022 08:10:18.425    05 May 2022 08:17:49.779      451.35427583    
05 May 2022 09:49:47.377    05 May 2022 09:56:36.859      409.48165669    
05 May 2022 11:30:40.370    05 May 2022 11:33:48.588      188.21808962    
06 May 2022 04:11:31.659    06 May 2022 04:16:24.856      293.19676578    
06 May 2022 05:49:29.103    06 May 2022 05:56:34.561      425.45808287    
06 May 2022 07:28:25.749    06 May 2022 07:35:55.608      449.85894944    
06 May 2022 09:07:51.272    06 May 2022 09:14:46.461      415.18953253    
06 May 2022 10:48:27.044    06 May 2022 10:52:16.015      228.97147292    
07 May 2022 03:29:52.567    07 May 2022 03:34:17.757      265.19059413    
07 May 2022 05:07:39.023    07 May 2022 05:14:36.893      417.87052187    
07 May 2022 06:46:32.335    07 May 2022 06:54:00.249      447.91356105    
07 May 2022 08:25:54.743    07 May 2022 08:32:54.451      419.70845227    
07 May 2022 10:06:17.476    07 May 2022 10:10:37.661      260.18480945    
08 May 2022 02:48:15.092    08 May 2022 02:52:07.117      232.02540048    
08 May 2022 04:25:48.290    08 May 2022 04:32:38.038      409.74878994    
08 May 2022 06:04:38.113    08 May 2022 06:12:03.788      445.67538985    
08 May 2022 07:43:57.679    08 May 2022 07:51:00.970      423.29099231    
08 May 2022 09:24:09.969    08 May 2022 09:28:55.253      285.28430304    
09 May 2022 02:06:40.578    09 May 2022 02:09:51.535      190.95787624    
09 May 2022 03:43:56.876    09 May 2022 03:50:37.997      401.12105026    
09 May 2022 05:22:43.009    09 May 2022 05:30:06.297      443.28756145    
09 May 2022 07:01:59.966    09 May 2022 07:09:06.144      426.17840624    
09 May 2022 08:42:03.632    09 May 2022 08:47:09.704      306.07262633    
10 May 2022 01:25:12.625    10 May 2022 01:27:27.342      134.71744879    
10 May 2022 03:02:04.768    10 May 2022 03:08:36.741      391.97319421    
10 May 2022 04:40:46.957    10 May 2022 04:48:07.826      440.86903768    
10 May 2022 06:20:01.493    10 May 2022 06:27:10.086      428.59330054    
10 May 2022 07:59:57.902    10 May 2022 08:05:21.583      323.68058787    
11 May 2022 02:20:11.975    11 May 2022 02:26:34.214      382.23855360    
11 May 2022 03:58:49.900    11 May 2022 04:06:08.406      438.50558144    
11 May 2022 05:38:02.154    11 May 2022 05:45:12.886      430.73166496    
11 May 2022 07:17:52.383    11 May 2022 07:23:31.277      338.89430633    
12 May 2022 01:38:18.535    12 May 2022 01:44:30.323      371.78797221    
12 May 2022 03:16:51.797    12 May 2022 03:24:08.039      436.24237737    
12 May 2022 04:56:01.857    12 May 2022 05:03:14.612      432.75520338    
12 May 2022 06:35:46.774    12 May 2022 06:41:39.067      352.29279563    
13 May 2022 00:56:24.523    13 May 2022 01:02:24.943      360.41964472    
13 May 2022 02:34:52.628    13 May 2022 02:42:06.706      434.07885530    
13 May 2022 04:14:00.523    13 May 2022 04:21:15.308      434.78479281    
13 May 2022 05:53:40.841    13 May 2022 05:59:45.154      364.31316677    
14 May 2022 00:14:30.060    14 May 2022 00:20:17.907      347.84727496    
14 May 2022 01:52:52.397    14 May 2022 02:00:04.363      431.96608135    
14 May 2022 03:31:58.096    14 May 2022 03:39:14.992      436.89580247    
14 May 2022 05:11:34.398    14 May 2022 05:17:49.683      375.28437185    
14 May 2022 23:32:35.321    14 May 2022 23:38:09.005      333.68365830    
15 May 2022 01:10:51.136    15 May 2022 01:18:00.943      429.80684820    
15 May 2022 02:49:54.542    15 May 2022 02:57:13.658      439.11577540    
15 May 2022 04:29:27.302    15 May 2022 04:35:52.749      385.44639271    
15 May 2022 06:11:03.431    15 May 2022 06:12:16.769      73.337384791    
15 May 2022 22:50:40.551    15 May 2022 22:55:57.965      317.41403597    
16 May 2022 00:28:48.903    16 May 2022 00:35:56.361      427.45836749    
16 May 2022 02:07:49.853    16 May 2022 02:15:11.278      441.42481915    
16 May 2022 03:47:19.447    16 May 2022 03:53:54.410      394.96278899    
16 May 2022 05:28:19.167    16 May 2022 05:30:55.668      156.50154407    
16 May 2022 22:08:46.091    16 May 2022 22:13:44.439      298.34741961    
16 May 2022 23:46:45.782    16 May 2022 23:53:50.519      424.73719561    
17 May 2022 01:25:44.048    17 May 2022 01:33:07.806      443.75872730    
17 May 2022 03:05:10.760    17 May 2022 03:11:54.691      403.93058761    
17 May 2022 04:45:50.472    17 May 2022 04:49:16.949      206.47685230    
17 May 2022 21:26:52.426    17 May 2022 21:31:27.945      275.51900824    
17 May 2022 23:04:41.881    17 May 2022 23:11:43.307      421.42580333    
18 May 2022 00:43:37.169    18 May 2022 00:51:03.184      446.01466488    
18 May 2022 02:23:01.202    18 May 2022 02:29:53.591      412.38950245    
18 May 2022 04:03:26.600    18 May 2022 04:07:31.292      244.69207734    
18 May 2022 20:45:00.294    18 May 2022 20:49:07.767      247.47306802    
18 May 2022 22:22:37.329    18 May 2022 22:29:34.609      417.27995980    
19 May 2022 00:01:29.283    19 May 2022 00:08:57.342      448.05894631    
19 May 2022 01:40:50.761    19 May 2022 01:47:51.093      420.33149191    
19 May 2022 03:21:05.021    19 May 2022 03:25:41.170      276.14899564    
19 May 2022 20:03:10.966    19 May 2022 20:06:42.664      211.69799709    
19 May 2022 21:40:32.274    19 May 2022 21:47:24.309      412.03596792    
19 May 2022 23:19:20.472    19 May 2022 23:26:50.209      449.73631098    
20 May 2022 00:58:39.452    20 May 2022 01:05:47.163      427.71088259    
20 May 2022 02:38:44.649    20 May 2022 02:43:47.620      302.97097787    
20 May 2022 19:21:27.223    20 May 2022 19:24:09.899      162.67551386    
20 May 2022 20:58:26.873    20 May 2022 21:05:12.290      405.41661575    
20 May 2022 22:37:10.836    20 May 2022 22:44:41.716      450.87994382    
21 May 2022 00:16:27.311    21 May 2022 00:23:41.766      434.45503763    
21 May 2022 01:56:24.911    21 May 2022 02:01:51.176      326.26491899    
21 May 2022 18:40:00.401    21 May 2022 18:41:18.185      77.783751301    
21 May 2022 20:16:21.299    21 May 2022 20:22:58.433      397.13463146    
21 May 2022 21:55:00.479    21 May 2022 22:02:31.801      451.32152323    
21 May 2022 23:34:14.388    21 May 2022 23:41:34.864      440.47527567    
22 May 2022 01:14:05.476    22 May 2022 01:19:52.145      346.66905042    
22 May 2022 19:34:15.730    22 May 2022 19:40:42.622      386.89217828    
22 May 2022 21:12:49.511    22 May 2022 21:20:20.412      450.90059065    
22 May 2022 22:52:00.747    22 May 2022 22:59:26.425      445.67765265    
23 May 2022 00:31:46.146    23 May 2022 00:37:50.719      364.57313192    
23 May 2022 18:52:10.357    23 May 2022 18:58:24.732      374.37443443    
23 May 2022 20:30:38.036    23 May 2022 20:38:07.509      449.47261296    
23 May 2022 22:09:46.454    23 May 2022 22:17:16.427      449.97317571    
23 May 2022 23:49:26.799    23 May 2022 23:55:47.025      380.22592999    
24 May 2022 18:10:05.388    24 May 2022 18:16:04.622      359.23424360    
24 May 2022 19:48:26.153    24 May 2022 19:55:53.068      446.91521258    
24 May 2022 21:27:31.576    24 May 2022 21:35:04.863      453.28694017    
24 May 2022 23:07:07.364    24 May 2022 23:13:41.160      393.79562102    
25 May 2022 17:28:01.058    25 May 2022 17:33:42.121      341.06233546    
25 May 2022 19:06:13.948    25 May 2022 19:13:37.081      443.13213393    
25 May 2022 20:45:16.174    25 May 2022 20:52:51.739      455.56572326    
25 May 2022 22:24:47.798    25 May 2022 22:31:33.205      405.40737690    
26 May 2022 00:05:57.191    26 May 2022 00:08:24.991      147.79963052    
26 May 2022 16:45:57.659    26 May 2022 16:51:16.991      319.33211486    
26 May 2022 18:24:01.494    26 May 2022 18:31:19.549      438.05464783    
26 May 2022 20:03:00.297    26 May 2022 20:10:37.080      456.78360510    
26 May 2022 21:42:28.071    26 May 2022 21:49:23.239      415.16834727    
26 May 2022 23:23:13.339    26 May 2022 23:26:40.213      206.87338662    
27 May 2022 16:03:55.588    27 May 2022 16:08:48.881      293.29361259    
27 May 2022 17:41:48.846    27 May 2022 17:49:00.486      431.64022848    
27 May 2022 19:20:43.981    27 May 2022 19:28:20.927      456.94530647    
27 May 2022 21:00:08.161    27 May 2022 21:07:11.345      423.18469699    
27 May 2022 22:40:36.988    27 May 2022 22:44:45.816      248.82846263    
28 May 2022 15:21:55.457    28 May 2022 15:26:17.207      261.74950374    
28 May 2022 16:59:36.046    28 May 2022 17:06:39.914      423.86842832    
28 May 2022 18:38:27.247    28 May 2022 18:46:03.334      456.08701834    
28 May 2022 20:17:48.040    28 May 2022 20:24:57.613      429.57291892    
28 May 2022 21:58:04.297    28 May 2022 22:02:45.680      281.38232228    
29 May 2022 14:39:58.377    29 May 2022 14:43:40.873      222.49585205    
29 May 2022 16:17:23.120    29 May 2022 16:24:17.854      414.73401234    
29 May 2022 17:56:10.094    29 May 2022 18:03:44.369      454.27466742    
29 May 2022 19:35:27.676    29 May 2022 19:42:42.143      434.46657542    
29 May 2022 21:15:33.785    29 May 2022 21:20:41.332      307.54674546    
30 May 2022 13:58:06.884    30 May 2022 14:00:57.335      170.45043586    
30 May 2022 15:35:10.086    30 May 2022 15:41:54.324      404.23739261    
30 May 2022 17:13:52.510    30 May 2022 17:21:24.109      451.59970644    
30 May 2022 18:53:07.023    30 May 2022 19:00:25.042      438.01914492    
30 May 2022 20:33:04.678    30 May 2022 20:38:33.597      328.91902757    
31 May 2022 13:16:31.326    31 May 2022 13:17:56.223      84.897540417    
31 May 2022 14:52:56.955    31 May 2022 14:59:29.327      392.37239398    
31 May 2022 16:31:34.461    31 May 2022 16:39:02.633      448.17266024    
31 May 2022 18:10:46.024    31 May 2022 18:18:06.428      440.40341049    
31 May 2022 19:50:36.494    31 May 2022 19:56:23.004      346.50992523    
01 Jun 2022 14:10:43.741    01 Jun 2022 14:17:02.852      379.11118580    
01 Jun 2022 15:49:15.905    01 Jun 2022 15:56:40.020      444.11477860    
01 Jun 2022 17:28:24.610    01 Jun 2022 17:35:46.418      441.80785934    
01 Jun 2022 19:08:08.897    01 Jun 2022 19:14:09.940      361.04338939    
02 Jun 2022 13:28:30.470    02 Jun 2022 13:34:34.855      364.38580707    
02 Jun 2022 15:06:56.790    02 Jun 2022 15:14:16.338      439.54830769    
02 Jun 2022 16:46:02.701    02 Jun 2022 16:53:25.132      442.43055701    
02 Jun 2022 18:25:41.621    02 Jun 2022 18:31:54.708      373.08682417    
03 Jun 2022 12:46:17.190    03 Jun 2022 12:52:05.255      348.06488687    
03 Jun 2022 14:24:37.061    03 Jun 2022 14:31:51.647      434.58592733    
03 Jun 2022 16:03:40.210    03 Jun 2022 16:11:02.682      442.47106423    
03 Jun 2022 17:43:14.446    03 Jun 2022 17:49:37.559      383.11312264    
04 Jun 2022 12:04:03.992    04 Jun 2022 12:09:33.915      329.92247057    
04 Jun 2022 13:42:16.666    04 Jun 2022 13:49:25.986      429.32001060    
04 Jun 2022 15:21:17.047    04 Jun 2022 15:28:39.168      442.12104947    
04 Jun 2022 17:00:47.178    04 Jun 2022 17:07:18.709      391.53072276    
04 Jun 2022 18:42:13.379    04 Jun 2022 18:43:50.920      97.540853138    
05 Jun 2022 11:21:51.031    05 Jun 2022 11:27:00.623      309.59229172    
05 Jun 2022 12:59:55.561    05 Jun 2022 13:06:59.373      423.81231473    
05 Jun 2022 14:38:53.123    05 Jun 2022 14:46:14.677      441.55434753    
05 Jun 2022 16:18:19.641    05 Jun 2022 16:24:58.338      398.69716165    
05 Jun 2022 17:59:14.331    05 Jun 2022 18:02:02.588      168.25712209    
06 Jun 2022 10:39:38.566    06 Jun 2022 10:44:25.059      286.49237804    
06 Jun 2022 12:17:33.717    06 Jun 2022 12:24:31.802      418.08472843    
06 Jun 2022 13:56:28.357    06 Jun 2022 14:03:49.274      440.91723855    
06 Jun 2022 15:35:51.676    06 Jun 2022 15:42:36.600      404.92366995    
06 Jun 2022 17:16:27.280    06 Jun 2022 17:20:00.565      213.28475454    
07 Jun 2022 09:57:27.036    07 Jun 2022 10:01:46.719      259.68253647    
07 Jun 2022 11:35:11.125    07 Jun 2022 11:42:03.237      412.11153769    
07 Jun 2022 13:14:02.681    07 Jun 2022 13:21:23.000      440.31977240    
07 Jun 2022 14:53:23.141    07 Jun 2022 15:00:13.616      410.47502977    
07 Jun 2022 16:33:44.778    07 Jun 2022 16:37:52.283      247.50483460    
08 Jun 2022 09:15:17.218    08 Jun 2022 09:19:04.765      227.54668370    
08 Jun 2022 10:52:47.801    08 Jun 2022 10:59:33.615      405.81353166    
08 Jun 2022 12:31:36.044    08 Jun 2022 12:38:55.872      439.82883103    
08 Jun 2022 14:10:53.913    08 Jun 2022 14:17:49.481      415.56734901    
08 Jun 2022 15:51:04.595    08 Jun 2022 15:55:39.939      275.34458628    
09 Jun 2022 08:33:10.674    09 Jun 2022 08:36:17.577      186.90285775    
09 Jun 2022 10:10:23.792    09 Jun 2022 10:17:02.846      399.05400127    
09 Jun 2022 11:49:08.417    09 Jun 2022 11:56:27.881      439.46357545    
09 Jun 2022 13:28:23.891    09 Jun 2022 13:35:24.256      420.36550463    
09 Jun 2022 15:08:25.661    09 Jun 2022 15:13:24.563      298.90252717    
10 Jun 2022 07:51:11.638    10 Jun 2022 07:53:20.880      129.24177001    
10 Jun 2022 09:27:59.175    10 Jun 2022 09:34:30.812      391.63633694    
10 Jun 2022 11:06:39.798    10 Jun 2022 11:13:58.992      439.19363249    
10 Jun 2022 12:45:52.996    10 Jun 2022 12:52:57.977      424.98148618    
10 Jun 2022 14:25:47.349    10 Jun 2022 14:31:06.729      319.38002561    
11 Jun 2022 08:45:34.065    11 Jun 2022 08:51:57.368      383.30249906    
11 Jun 2022 10:24:10.209    11 Jun 2022 10:31:29.149      438.94020460    
11 Jun 2022 12:03:21.178    11 Jun 2022 12:10:30.652      429.47448038    
11 Jun 2022 13:43:09.255    11 Jun 2022 13:48:46.787      337.53161350    
12 Jun 2022 08:03:08.614    12 Jun 2022 08:09:22.345      373.73103714    
12 Jun 2022 09:41:39.700    12 Jun 2022 09:48:58.280      438.57992725    
12 Jun 2022 11:20:48.413    12 Jun 2022 11:28:02.266      433.85312667    
12 Jun 2022 13:00:31.103    12 Jun 2022 13:06:24.953      353.85008482    
13 Jun 2022 07:20:43.013    13 Jun 2022 07:26:45.545      362.53242935    
13 Jun 2022 08:59:08.347    13 Jun 2022 09:06:26.298      437.95109214    
13 Jun 2022 10:38:14.706    13 Jun 2022 10:45:32.786      438.08006574    
13 Jun 2022 12:17:52.704    13 Jun 2022 12:24:01.361      368.65714373    
14 Jun 2022 06:38:17.503    14 Jun 2022 06:44:06.741      349.23811590    
14 Jun 2022 08:16:36.248    14 Jun 2022 08:23:53.109      436.86158796    
14 Jun 2022 09:55:40.085    14 Jun 2022 10:03:02.163      442.07863809    
14 Jun 2022 11:35:13.934    14 Jun 2022 11:41:36.088      382.15462791    
15 Jun 2022 05:55:52.382    15 Jun 2022 06:01:25.659      333.27680355    
15 Jun 2022 07:34:03.518    15 Jun 2022 07:41:18.616      435.09782923    
15 Jun 2022 09:13:04.603    15 Jun 2022 09:20:30.344      445.74136559    
15 Jun 2022 10:52:34.718    15 Jun 2022 10:59:09.175      394.45747464    
15 Jun 2022 12:33:45.934    15 Jun 2022 12:35:54.871      128.93778132    
16 Jun 2022 05:13:28.032    16 Jun 2022 05:18:41.958      313.92548683    
16 Jun 2022 06:51:30.290    16 Jun 2022 06:58:42.724      432.43382613    
16 Jun 2022 08:30:28.333    16 Jun 2022 08:37:57.273      448.93970528    
16 Jun 2022 10:09:55.020    16 Jun 2022 10:16:40.637      405.61766827    
16 Jun 2022 11:50:39.844    16 Jun 2022 11:53:53.960      194.11644358    
17 Jun 2022 04:31:04.967    17 Jun 2022 04:35:55.174      290.20708487    
17 Jun 2022 06:08:56.704    17 Jun 2022 06:16:05.343      428.63956959    
17 Jun 2022 07:47:51.360    17 Jun 2022 07:55:22.895      451.53445867    
17 Jun 2022 09:27:14.834    17 Jun 2022 09:34:10.478      415.64343239    
17 Jun 2022 11:07:42.525    17 Jun 2022 11:11:42.268      239.74278092    
18 Jun 2022 03:48:43.946    18 Jun 2022 03:53:04.607      260.66092837    
18 Jun 2022 05:26:22.904    18 Jun 2022 05:33:26.392      423.48786498    
18 Jun 2022 07:05:13.779    18 Jun 2022 07:12:47.166      453.38613811    
18 Jun 2022 08:44:34.179    18 Jun 2022 08:51:38.695      424.51559685    
18 Jun 2022 10:24:49.057    18 Jun 2022 10:29:24.688      275.63136555    
19 Jun 2022 03:06:26.271    19 Jun 2022 03:10:09.018      222.74727897    
19 Jun 2022 04:43:49.039    19 Jun 2022 04:50:45.797      416.75872633    
19 Jun 2022 06:22:35.689    19 Jun 2022 06:30:10.054      454.36460325    
19 Jun 2022 08:01:53.088    19 Jun 2022 08:09:05.290      432.20194560    
19 Jun 2022 09:41:57.755    19 Jun 2022 09:47:02.899      305.14387961    
20 Jun 2022 02:24:14.807    20 Jun 2022 02:27:05.603      170.79562359    
20 Jun 2022 04:01:15.252    20 Jun 2022 04:08:03.493      408.24045818    
20 Jun 2022 05:39:57.184    20 Jun 2022 05:47:31.541      454.35729527    
20 Jun 2022 07:19:11.603    20 Jun 2022 07:26:30.272      438.66971220    
20 Jun 2022 08:59:07.817    20 Jun 2022 09:04:37.714      329.89685086    
21 Jun 2022 01:42:21.430    21 Jun 2022 01:43:42.547      81.117550924    
21 Jun 2022 03:18:41.690    21 Jun 2022 03:25:19.416      397.72640588    
21 Jun 2022 04:57:18.353    21 Jun 2022 05:04:51.628      453.27555608    
21 Jun 2022 06:36:29.768    21 Jun 2022 06:43:53.665      443.89615017    
21 Jun 2022 08:16:18.799    21 Jun 2022 08:22:09.608      350.80907776    
22 Jun 2022 02:36:08.495    22 Jun 2022 02:42:33.501      385.00614980    
22 Jun 2022 04:14:39.271    22 Jun 2022 04:22:10.330      451.05860975    
22 Jun 2022 05:53:47.627    22 Jun 2022 06:01:15.504      447.87695833    
22 Jun 2022 07:33:30.430    22 Jun 2022 07:39:38.897      368.46657980    
23 Jun 2022 01:53:35.820    23 Jun 2022 01:59:45.670      369.84918080    
23 Jun 2022 03:32:00.002    23 Jun 2022 03:39:27.677      447.67496819    
23 Jun 2022 05:11:05.212    23 Jun 2022 05:18:35.845      450.63235508    
23 Jun 2022 06:50:42.534    23 Jun 2022 06:57:05.817      383.28306426    
24 Jun 2022 01:11:03.835    24 Jun 2022 01:16:55.812      351.97754827    
24 Jun 2022 02:49:20.591    24 Jun 2022 02:56:43.712      443.12114934    
24 Jun 2022 04:28:22.546    24 Jun 2022 04:35:54.756      452.21055828    
24 Jun 2022 06:07:54.984    24 Jun 2022 06:14:30.566      395.58138099    
24 Jun 2022 07:49:47.107    24 Jun 2022 07:50:35.082      47.974222410    
25 Jun 2022 00:28:32.747    25 Jun 2022 00:34:03.767      331.02043440    
25 Jun 2022 02:06:41.067    25 Jun 2022 02:13:58.485      437.41773278    
25 Jun 2022 03:45:39.633    25 Jun 2022 03:53:12.322      452.68858167    
25 Jun 2022 05:25:07.680    25 Jun 2022 05:31:53.318      405.63856718    
25 Jun 2022 07:06:10.407    25 Jun 2022 07:08:48.085      157.67739359    
25 Jun 2022 23:46:02.843    25 Jun 2022 23:51:09.278      306.43494898    
26 Jun 2022 01:24:01.445    26 Jun 2022 01:31:12.048      430.60292018    
26 Jun 2022 03:02:56.466    26 Jun 2022 03:10:28.636      452.17031665    
26 Jun 2022 04:42:20.531    26 Jun 2022 04:49:14.242      413.71152619    
26 Jun 2022 06:23:00.231    26 Jun 2022 06:26:32.905      212.67389674    
26 Jun 2022 23:03:34.562    26 Jun 2022 23:08:11.917      277.35441620    
27 Jun 2022 00:41:21.727    27 Jun 2022 00:48:24.451      422.72386886    
27 Jun 2022 02:20:13.017    27 Jun 2022 02:27:43.800      450.78204215    
27 Jun 2022 03:59:33.449    27 Jun 2022 04:06:33.500      420.05103993    
27 Jun 2022 05:39:57.127    27 Jun 2022 05:44:09.051      251.92395479    
27 Jun 2022 22:21:08.663    27 Jun 2022 22:25:10.914      242.25159759    
27 Jun 2022 23:58:41.906    28 Jun 2022 00:05:35.732      413.82609570    
28 Jun 2022 01:37:29.248    28 Jun 2022 01:44:57.913      448.66562427    
28 Jun 2022 03:16:46.342    28 Jun 2022 03:23:51.250      424.90805254    
28 Jun 2022 04:56:57.709    28 Jun 2022 05:01:39.966      282.25742534    
28 Jun 2022 21:38:46.692    28 Jun 2022 21:42:04.693      198.00128597    
28 Jun 2022 23:16:01.973    28 Jun 2022 23:22:45.914      403.94129748    
29 Jun 2022 00:54:45.105    29 Jun 2022 01:02:11.075      445.96985083    
29 Jun 2022 02:33:59.111    29 Jun 2022 02:41:07.645      428.53441243    
29 Jun 2022 04:14:00.557    29 Jun 2022 04:19:07.119      306.56167612    
29 Jun 2022 20:56:32.969    29 Jun 2022 20:58:48.889      135.91936498    
29 Jun 2022 22:33:21.922    29 Jun 2022 22:39:54.995      393.07381406    
30 Jun 2022 00:12:00.529    30 Jun 2022 00:19:23.369      442.84044747    
30 Jun 2022 01:51:11.653    30 Jun 2022 01:58:22.832      431.17962257    
30 Jun 2022 03:31:04.885    30 Jun 2022 03:36:31.336      326.45139769    
30 Jun 2022 21:50:41.759    30 Jun 2022 21:57:02.945      381.18574675    
30 Jun 2022 23:29:15.459    30 Jun 2022 23:36:34.868      439.40940405    
01 Jul 2022 01:08:23.859    01 Jul 2022 01:15:36.944      433.08471370    
01 Jul 2022 02:48:10.177    01 Jul 2022 02:53:53.161      342.98439712    
01 Jul 2022 21:08:01.513    01 Jul 2022 21:14:09.693      368.18039899    
01 Jul 2022 22:46:29.835    01 Jul 2022 22:53:45.620      435.78437876    
02 Jul 2022 00:25:35.623    02 Jul 2022 00:32:50.097      434.47430679    
02 Jul 2022 02:05:16.056    02 Jul 2022 02:11:12.982      356.92633486    
02 Jul 2022 20:25:21.245    02 Jul 2022 20:31:15.128      353.88290469    
02 Jul 2022 22:03:43.610    02 Jul 2022 22:10:55.648      432.03882852    
02 Jul 2022 23:42:46.839    02 Jul 2022 23:50:02.387      435.54784219    
03 Jul 2022 01:22:22.226    03 Jul 2022 01:28:31.092      368.86610237    
03 Jul 2022 19:42:41.062    03 Jul 2022 19:48:19.078      338.01557128    
03 Jul 2022 21:20:56.747    03 Jul 2022 21:28:04.951      428.20361339    
03 Jul 2022 22:59:57.415    03 Jul 2022 23:07:13.886      436.47094873    
04 Jul 2022 00:39:28.444    04 Jul 2022 00:45:47.715      379.27065989    
04 Jul 2022 19:00:01.141    04 Jul 2022 19:05:21.304      320.16259341    
04 Jul 2022 20:38:09.235    04 Jul 2022 20:45:13.495      424.26056372    
04 Jul 2022 22:17:07.270    04 Jul 2022 22:24:24.638      437.36782767    
04 Jul 2022 23:56:34.507    05 Jul 2022 00:03:03.020      388.51232578    
05 Jul 2022 01:37:47.298    05 Jul 2022 01:39:44.402      117.10334761    
05 Jul 2022 18:17:21.757    05 Jul 2022 18:22:21.470      299.71258206    
05 Jul 2022 19:55:21.083    05 Jul 2022 20:02:21.221      420.13840398    
05 Jul 2022 21:34:16.345    05 Jul 2022 21:41:34.660      438.31547548    
05 Jul 2022 23:13:40.247    05 Jul 2022 23:20:17.130      396.88279781    
06 Jul 2022 00:54:25.473    06 Jul 2022 00:57:26.872      181.39896925    
06 Jul 2022 17:34:43.337    06 Jul 2022 17:39:19.089      275.75166703    
06 Jul 2022 19:12:32.331    06 Jul 2022 19:19:28.042      415.71110483    
06 Jul 2022 20:51:24.603    06 Jul 2022 20:58:43.943      439.34032061    
06 Jul 2022 22:30:45.526    06 Jul 2022 22:37:30.127      404.60097411    
07 Jul 2022 00:11:13.124    07 Jul 2022 00:14:58.450      225.32540193    
07 Jul 2022 16:52:06.581    07 Jul 2022 16:56:13.415      246.83443835    
07 Jul 2022 18:29:43.046    07 Jul 2022 18:36:33.845      410.79848312    
07 Jul 2022 20:08:32.033    07 Jul 2022 20:15:52.451      440.41768225    
07 Jul 2022 21:47:50.241    07 Jul 2022 21:54:42.060      411.81837141    
07 Jul 2022 23:28:04.774    07 Jul 2022 23:32:24.537      259.76280849    
08 Jul 2022 16:09:32.754    08 Jul 2022 16:13:03.148      210.39465662    
08 Jul 2022 17:46:53.329    08 Jul 2022 17:53:38.497      405.16848480    
08 Jul 2022 19:25:38.652    08 Jul 2022 19:33:00.126      441.47413743    
08 Jul 2022 21:04:54.318    08 Jul 2022 21:11:52.942      418.62426200    
08 Jul 2022 22:44:58.557    08 Jul 2022 22:49:46.924      288.36748197    
09 Jul 2022 15:27:04.712    09 Jul 2022 15:29:45.408      160.69636359    
09 Jul 2022 17:04:03.308    09 Jul 2022 17:10:41.848      398.54026311    
09 Jul 2022 18:42:44.503    09 Jul 2022 18:50:06.896      442.39261025    
09 Jul 2022 20:21:57.714    09 Jul 2022 20:29:02.765      425.05163768    
09 Jul 2022 22:01:53.552    09 Jul 2022 22:07:06.454      312.90239875    
10 Jul 2022 14:44:54.669    10 Jul 2022 14:46:07.974      73.305572639    
10 Jul 2022 16:21:13.143    10 Jul 2022 16:27:43.729      390.58671102    
10 Jul 2022 17:59:49.655    10 Jul 2022 18:07:12.674      443.01975147    
10 Jul 2022 19:39:00.415    10 Jul 2022 19:46:11.500      431.08456425    
10 Jul 2022 21:18:49.228    10 Jul 2022 21:24:23.585      334.35673005    
11 Jul 2022 15:38:23.024    11 Jul 2022 15:44:43.958      380.93460398    
11 Jul 2022 17:16:54.194    11 Jul 2022 17:24:17.369      443.17496902    
11 Jul 2022 18:56:02.435    11 Jul 2022 19:03:19.102      436.66696834    
11 Jul 2022 20:35:45.255    11 Jul 2022 20:41:38.581      353.32625317    
12 Jul 2022 14:55:33.173    12 Jul 2022 15:01:42.333      369.15956506    
12 Jul 2022 16:33:58.228    12 Jul 2022 16:41:20.888      442.66032499    
12 Jul 2022 18:13:03.811    12 Jul 2022 18:20:25.524      441.71264417    
12 Jul 2022 19:52:41.422    12 Jul 2022 19:58:51.602      370.17941878    
13 Jul 2022 14:12:43.853    13 Jul 2022 14:18:38.624      354.77140067    
13 Jul 2022 15:51:01.873    13 Jul 2022 15:58:23.143      441.27042544    
13 Jul 2022 17:30:04.597    13 Jul 2022 17:37:30.713      446.11600775    
13 Jul 2022 19:09:37.599    13 Jul 2022 19:16:02.742      385.14357299    
14 Jul 2022 13:29:55.376    14 Jul 2022 13:35:32.558      337.18186214    
14 Jul 2022 15:08:05.253    14 Jul 2022 15:15:24.054      438.80144586    
14 Jul 2022 16:47:04.861    14 Jul 2022 16:54:34.624      449.76301321    
14 Jul 2022 18:26:33.706    14 Jul 2022 18:33:12.063      398.35623738    
14 Jul 2022 20:07:42.930    14 Jul 2022 20:09:57.062      134.13225029    
15 Jul 2022 12:47:08.145    15 Jul 2022 12:52:23.784      315.63863761    
15 Jul 2022 14:25:08.493    15 Jul 2022 14:32:23.552      435.05853623    
15 Jul 2022 16:04:04.680    15 Jul 2022 16:11:37.221      452.54163895    
15 Jul 2022 17:43:29.705    15 Jul 2022 17:50:19.604      409.89914148    
15 Jul 2022 19:24:11.912    15 Jul 2022 19:27:32.940      201.02861377    
16 Jul 2022 12:04:22.712    16 Jul 2022 12:09:11.799      289.08750579    
16 Jul 2022 13:42:11.715    16 Jul 2022 13:49:21.576      429.86085584    
16 Jul 2022 15:21:04.129    16 Jul 2022 15:28:38.481      454.35131531    
16 Jul 2022 17:00:25.580    16 Jul 2022 17:07:25.403      419.82277409    
16 Jul 2022 18:40:50.297    16 Jul 2022 18:44:57.597      247.29981063    
17 Jul 2022 11:21:39.936    17 Jul 2022 11:25:55.792      255.85611009    
17 Jul 2022 12:59:15.037    17 Jul 2022 13:06:18.080      423.04372323    
17 Jul 2022 14:38:03.285    17 Jul 2022 14:45:38.396      455.11080123    
17 Jul 2022 16:17:21.331    17 Jul 2022 16:24:29.496      428.16498675    
17 Jul 2022 17:57:32.985    17 Jul 2022 18:02:16.128      283.14366544    
18 Jul 2022 10:39:01.422    18 Jul 2022 10:42:34.202      212.78010750    
18 Jul 2022 12:16:18.566    18 Jul 2022 12:23:13.023      414.45723886    
18 Jul 2022 13:55:02.211    18 Jul 2022 14:02:36.975      454.76399192    
18 Jul 2022 15:34:16.963    18 Jul 2022 15:41:31.928      434.96531385    
18 Jul 2022 17:14:18.215    18 Jul 2022 17:19:30.308      312.09265755    
19 Jul 2022 09:56:31.259    19 Jul 2022 09:59:02.970      151.71075300    
19 Jul 2022 11:33:22.405    19 Jul 2022 11:40:06.366      403.96081244    
19 Jul 2022 13:12:00.959    19 Jul 2022 13:19:34.243      453.28331291    
19 Jul 2022 14:51:12.482    19 Jul 2022 14:58:32.758      440.27568097    
19 Jul 2022 16:31:05.133    19 Jul 2022 16:36:41.017      335.88328050    
20 Jul 2022 10:50:26.653    20 Jul 2022 10:56:58.066      391.41274790    
20 Jul 2022 12:28:59.569    20 Jul 2022 12:36:30.239      450.67045712    
20 Jul 2022 14:08:07.887    20 Jul 2022 14:15:32.055      444.16774426    
20 Jul 2022 15:47:53.247    20 Jul 2022 15:53:48.788      355.54086819    
21 Jul 2022 10:07:31.410    21 Jul 2022 10:13:48.063      376.65357428    
21 Jul 2022 11:45:58.059    21 Jul 2022 11:53:25.013      446.95438142    
21 Jul 2022 13:25:03.165    21 Jul 2022 13:32:29.902      446.73697161    
21 Jul 2022 15:04:42.236    21 Jul 2022 15:10:53.991      371.75564206    
22 Jul 2022 09:24:36.790    22 Jul 2022 09:30:36.270      359.48074227    
22 Jul 2022 11:02:56.434    22 Jul 2022 11:10:18.621      442.18664928    
22 Jul 2022 12:41:58.292    22 Jul 2022 12:49:26.395      448.10352431    
22 Jul 2022 14:21:31.867    22 Jul 2022 14:27:56.912      385.04537113    
23 Jul 2022 08:41:42.939    23 Jul 2022 08:47:22.549      339.60984258    
23 Jul 2022 10:19:54.684    23 Jul 2022 10:27:11.119      436.43436078    
23 Jul 2022 11:58:53.226    23 Jul 2022 12:06:21.636      448.41011841    
23 Jul 2022 13:38:21.954    23 Jul 2022 13:44:57.789      395.83511126    
23 Jul 2022 15:19:51.204    23 Jul 2022 15:21:22.029      90.824871347    
24 Jul 2022 07:58:50.065    24 Jul 2022 08:04:06.677      316.61181052    
24 Jul 2022 09:36:52.787    24 Jul 2022 09:44:02.558      429.77103065    
24 Jul 2022 11:15:47.914    24 Jul 2022 11:23:15.732      447.81713826    
24 Jul 2022 12:55:12.336    24 Jul 2022 13:01:56.834      404.49859053    
24 Jul 2022 14:36:05.179    24 Jul 2022 14:38:58.215      173.03611102    
25 Jul 2022 07:15:58.495    25 Jul 2022 07:20:48.297      289.80127838    
25 Jul 2022 08:53:50.713    25 Jul 2022 09:00:52.979      422.26583851    
25 Jul 2022 10:32:42.290    25 Jul 2022 10:40:08.785      446.49535655    
25 Jul 2022 12:12:02.860    25 Jul 2022 12:18:54.239      411.37928552    
25 Jul 2022 13:52:34.960    25 Jul 2022 13:56:17.132      222.17200706    
26 Jul 2022 06:33:08.788    26 Jul 2022 06:37:26.797      258.00943840    
26 Jul 2022 08:10:48.432    26 Jul 2022 08:17:42.404      413.97172267    
26 Jul 2022 09:49:36.277    26 Jul 2022 09:57:00.894      444.61682840    
26 Jul 2022 11:28:53.380    26 Jul 2022 11:35:50.180      416.79963714    
26 Jul 2022 13:09:10.577    26 Jul 2022 13:13:28.772      258.19499802    
27 Jul 2022 05:50:22.013    27 Jul 2022 05:54:01.039      219.02542604    
27 Jul 2022 07:27:45.918    27 Jul 2022 07:34:30.831      404.91273188    
27 Jul 2022 09:06:29.796    27 Jul 2022 09:13:52.141      442.34457911    
27 Jul 2022 10:45:43.753    27 Jul 2022 10:52:44.816      421.06284513    
27 Jul 2022 12:25:49.371    27 Jul 2022 12:30:35.806      286.43532777    
28 Jul 2022 05:07:40.689    28 Jul 2022 05:10:28.424      167.73462285    
28 Jul 2022 06:44:43.157    28 Jul 2022 06:51:18.228      395.07097872    
28 Jul 2022 08:23:22.770    28 Jul 2022 08:30:42.592      439.82184869    
28 Jul 2022 10:02:33.838    28 Jul 2022 10:09:38.288      424.44999326    
28 Jul 2022 11:42:30.098    28 Jul 2022 11:47:39.478      309.38036557    
29 Jul 2022 04:25:15.128    29 Jul 2022 04:26:38.549      83.421183319    
29 Jul 2022 06:01:40.158    29 Jul 2022 06:08:04.531      384.37322412    
29 Jul 2022 07:40:15.128    29 Jul 2022 07:47:32.289      437.16165139    
29 Jul 2022 09:19:23.501    29 Jul 2022 09:26:30.716      427.21438055    
29 Jul 2022 10:59:12.022    29 Jul 2022 11:04:40.510      328.48824039    
30 Jul 2022 05:18:36.958    30 Jul 2022 05:24:49.635      372.67675769    
30 Jul 2022 06:57:06.810    30 Jul 2022 07:04:21.248      434.43747744    
30 Jul 2022 08:36:12.618    30 Jul 2022 08:43:22.192      429.57456345    
30 Jul 2022 10:15:54.643    30 Jul 2022 10:21:39.372      344.72920824    
31 Jul 2022 04:35:33.635    31 Jul 2022 04:41:33.388      359.75346226    
31 Jul 2022 06:13:57.779    31 Jul 2022 06:21:09.455      431.67578294    
31 Jul 2022 07:53:01.079    31 Jul 2022 08:00:12.786      431.70736344    
31 Jul 2022 09:32:37.593    31 Jul 2022 09:38:36.390      358.79722342    
01 Aug 2022 03:52:30.319    01 Aug 2022 03:58:15.589      345.26958482    
01 Aug 2022 05:30:48.019    01 Aug 2022 05:37:56.869      428.85085515    
01 Aug 2022 07:09:48.793    01 Aug 2022 07:17:02.535      433.74188299    
01 Aug 2022 08:49:20.586    01 Aug 2022 08:55:31.792      371.20623094    
02 Aug 2022 03:09:27.212    02 Aug 2022 03:14:55.968      328.75611983    
02 Aug 2022 04:47:37.541    02 Aug 2022 04:54:43.423      425.88233248    
02 Aug 2022 06:26:35.696    02 Aug 2022 06:33:51.451      435.75539833    
02 Aug 2022 08:06:03.399    02 Aug 2022 08:12:25.738      382.33884255    
02 Aug 2022 09:47:39.861    02 Aug 2022 09:48:39.683      59.822229459    
03 Aug 2022 02:26:24.611    03 Aug 2022 02:31:34.170      309.55895449    
03 Aug 2022 04:04:26.386    03 Aug 2022 04:11:29.021      422.63541820    
03 Aug 2022 05:43:21.746    03 Aug 2022 05:50:39.517      437.77171019    
03 Aug 2022 07:22:45.860    03 Aug 2022 07:29:18.333      392.47349325    
03 Aug 2022 09:03:39.307    03 Aug 2022 09:06:16.202      156.89499490    
04 Aug 2022 01:43:22.959    04 Aug 2022 01:48:09.703      286.74419975    
04 Aug 2022 03:21:14.627    04 Aug 2022 03:28:13.550      418.92345885    
04 Aug 2022 05:00:06.933    04 Aug 2022 05:07:26.695      439.76228385    
04 Aug 2022 06:39:27.836    04 Aug 2022 06:46:09.638      401.80160506    
04 Aug 2022 08:19:59.728    04 Aug 2022 08:23:30.149      210.42107156    
05 Aug 2022 01:00:22.949    05 Aug 2022 01:04:41.844      258.89512058    
05 Aug 2022 02:38:02.365    05 Aug 2022 02:44:56.877      414.51230388    
05 Aug 2022 04:16:51.275    05 Aug 2022 04:24:12.925      441.65020109    
05 Aug 2022 05:56:09.239    05 Aug 2022 06:02:59.680      410.44034850    
05 Aug 2022 07:36:26.086    05 Aug 2022 07:40:36.473      250.38698522    
06 Aug 2022 00:17:25.778    06 Aug 2022 00:21:09.380      223.60178330    
06 Aug 2022 01:54:49.731    06 Aug 2022 02:01:38.856      409.12546709    
06 Aug 2022 03:33:34.817    06 Aug 2022 03:40:58.134      443.31661323    
06 Aug 2022 05:12:50.014    06 Aug 2022 05:19:48.458      418.44382456    
06 Aug 2022 06:52:55.347    06 Aug 2022 06:57:38.122      282.77491933    
06 Aug 2022 23:34:33.981    06 Aug 2022 23:37:29.772      175.79124406    
07 Aug 2022 01:11:36.882    07 Aug 2022 01:18:19.331      402.44889240    
07 Aug 2022 02:50:17.631    07 Aug 2022 02:57:42.240      444.60924917    
07 Aug 2022 04:29:30.139    07 Aug 2022 04:36:35.953      425.81398990    
07 Aug 2022 06:09:26.232    07 Aug 2022 06:14:36.296      310.06324729    
07 Aug 2022 22:51:56.489    07 Aug 2022 22:53:34.103      97.613865277    
08 Aug 2022 00:28:24.001    08 Aug 2022 00:34:58.134      394.13366108    
08 Aug 2022 02:06:59.807    08 Aug 2022 02:14:25.159      445.35220242    
08 Aug 2022 03:46:09.621    08 Aug 2022 03:53:22.132      432.51193310    
08 Aug 2022 05:25:58.067    08 Aug 2022 05:31:31.606      333.53873823    
08 Aug 2022 23:45:11.295    08 Aug 2022 23:51:35.090      383.79453931    
09 Aug 2022 01:23:41.452    09 Aug 2022 01:31:06.808      445.35625119    
09 Aug 2022 03:02:48.491    09 Aug 2022 03:10:06.960      438.46950143    
09 Aug 2022 04:42:30.454    09 Aug 2022 04:48:24.400      353.94564512    
09 Aug 2022 23:01:59.002    09 Aug 2022 23:08:10.003      371.00120351    
10 Aug 2022 00:40:22.681    10 Aug 2022 00:47:47.110      444.42888937    
10 Aug 2022 02:19:26.799    10 Aug 2022 02:26:50.400      443.60106244    
10 Aug 2022 03:59:03.151    10 Aug 2022 04:05:14.891      371.74001117    
10 Aug 2022 22:18:47.394    10 Aug 2022 22:24:42.651      355.25701116    
10 Aug 2022 23:57:03.616    11 Aug 2022 00:04:25.999      442.38324095    
11 Aug 2022 01:36:04.605    11 Aug 2022 01:43:32.420      447.81499836    
11 Aug 2022 03:15:36.005    11 Aug 2022 03:22:03.217      387.21183903    
11 Aug 2022 21:35:36.802    11 Aug 2022 21:41:12.757      335.95545968    
11 Aug 2022 23:13:44.374    11 Aug 2022 23:21:03.420      439.04514079    
12 Aug 2022 00:52:41.978    12 Aug 2022 01:00:13.002      451.02431886    
12 Aug 2022 02:32:08.925    12 Aug 2022 02:38:49.478      400.55313755    
12 Aug 2022 04:13:14.213    12 Aug 2022 04:15:35.627      141.41374620    
12 Aug 2022 20:52:27.652    12 Aug 2022 20:57:39.945      312.29322476    
12 Aug 2022 22:30:25.070    12 Aug 2022 22:37:39.328      434.25774376    
13 Aug 2022 00:09:18.983    13 Aug 2022 00:16:52.139      453.15589425    
13 Aug 2022 01:48:41.855    13 Aug 2022 01:55:33.755      411.90020372    
13 Aug 2022 03:29:20.424    13 Aug 2022 03:32:47.927      207.50271552    
13 Aug 2022 20:09:20.560    13 Aug 2022 20:14:03.647      283.08694552    
13 Aug 2022 21:47:05.807    13 Aug 2022 21:54:13.690      427.88303703    
13 Aug 2022 23:25:55.682    13 Aug 2022 23:33:29.840      454.15772918    
14 Aug 2022 01:05:14.759    14 Aug 2022 01:12:16.121      421.36192851    
14 Aug 2022 02:45:35.860    14 Aug 2022 02:49:49.091      253.23077103    
14 Aug 2022 19:26:16.544    14 Aug 2022 19:30:22.880      246.33547298    
14 Aug 2022 21:03:46.678    14 Aug 2022 21:10:46.478      419.79982926    
14 Aug 2022 22:42:32.123    14 Aug 2022 22:50:06.127      454.00385850    
15 Aug 2022 00:21:47.612    15 Aug 2022 00:28:56.651      429.03939486    
15 Aug 2022 02:01:55.630    15 Aug 2022 02:06:44.019      288.38876782    
15 Aug 2022 18:43:17.685    15 Aug 2022 18:46:35.584      197.89900454    
15 Aug 2022 20:20:27.768    15 Aug 2022 20:27:17.666      409.89773363    
15 Aug 2022 21:59:08.344    15 Aug 2022 22:06:41.040      452.69657895    
15 Aug 2022 23:38:20.390    15 Aug 2022 23:45:35.429      435.03934691    
16 Aug 2022 01:18:17.988    16 Aug 2022 01:23:34.484      316.49680221    
16 Aug 2022 18:00:30.400    16 Aug 2022 18:02:35.347      124.94663011    
16 Aug 2022 19:37:09.155    16 Aug 2022 19:43:47.221      398.06666096    
16 Aug 2022 21:15:44.362    16 Aug 2022 21:23:14.628      450.26588057    
16 Aug 2022 22:54:53.064    16 Aug 2022 23:02:12.547      439.48277420    
17 Aug 2022 00:34:42.058    17 Aug 2022 00:40:21.393      339.33544034    
17 Aug 2022 18:53:50.914    17 Aug 2022 19:00:15.095      384.18091665    
17 Aug 2022 20:32:20.181    17 Aug 2022 20:39:46.947      446.76612272    
17 Aug 2022 22:11:25.594    17 Aug 2022 22:18:48.103      442.50933883    
17 Aug 2022 23:51:07.317    17 Aug 2022 23:57:05.306      357.98883287    
18 Aug 2022 18:10:33.134    18 Aug 2022 18:16:41.211      368.07626338    
18 Aug 2022 19:48:55.788    18 Aug 2022 19:56:18.058      442.27012109    
18 Aug 2022 21:27:57.928    18 Aug 2022 21:35:22.206      444.27805975    
18 Aug 2022 23:07:33.409    18 Aug 2022 23:13:46.619      373.20973766    
19 Aug 2022 17:27:15.927    19 Aug 2022 17:33:05.443      349.51647450    
19 Aug 2022 19:05:31.154    19 Aug 2022 19:12:48.015      436.86095051    
19 Aug 2022 20:44:30.001    19 Aug 2022 20:51:54.965      444.96466303    
19 Aug 2022 22:24:00.062    19 Aug 2022 22:30:25.639      385.57678013    
20 Aug 2022 16:43:59.455    20 Aug 2022 16:49:27.597      328.14202923    
20 Aug 2022 18:22:06.245    20 Aug 2022 18:29:16.867      430.62191462    
20 Aug 2022 20:01:01.736    20 Aug 2022 20:08:26.492      444.75603097    
20 Aug 2022 21:40:27.052    20 Aug 2022 21:47:02.622      395.57014400    
20 Aug 2022 23:21:40.659    20 Aug 2022 23:23:39.157      118.49789440    
21 Aug 2022 16:00:43.976    21 Aug 2022 16:05:47.360      303.38418883    
21 Aug 2022 17:38:41.019    21 Aug 2022 17:45:44.644      423.62515961    
21 Aug 2022 19:17:33.048    21 Aug 2022 19:24:56.890      443.84229057    
21 Aug 2022 20:56:54.178    21 Aug 2022 21:03:37.788      403.60936123    
21 Aug 2022 22:37:37.568    21 Aug 2022 22:40:45.253      187.68517849    
22 Aug 2022 15:17:29.926    22 Aug 2022 15:22:04.228      274.30226456    
22 Aug 2022 16:55:15.438    22 Aug 2022 17:02:11.357      415.91950713    
22 Aug 2022 18:34:03.844    22 Aug 2022 18:41:26.252      442.40719979    
22 Aug 2022 20:13:21.256    22 Aug 2022 20:20:11.327      410.07128240    
22 Aug 2022 21:53:45.741    22 Aug 2022 21:57:38.470      232.72901326    
23 Aug 2022 14:34:18.098    23 Aug 2022 14:38:17.319      239.22032568    
23 Aug 2022 16:11:49.473    23 Aug 2022 16:18:36.991      407.51793771    
23 Aug 2022 17:50:34.035    23 Aug 2022 17:57:54.653      440.61761673    
23 Aug 2022 19:29:48.112    23 Aug 2022 19:36:43.409      415.29678841    
23 Aug 2022 21:09:58.697    23 Aug 2022 21:14:25.277      266.57951017    
24 Aug 2022 13:51:10.167    24 Aug 2022 13:54:24.863      194.69643692    
24 Aug 2022 15:28:23.111    24 Aug 2022 15:35:01.496      398.38509585    
24 Aug 2022 17:07:03.535    24 Aug 2022 17:14:22.147      438.61284361    
24 Aug 2022 18:46:14.584    24 Aug 2022 18:53:14.174      419.59093160    
24 Aug 2022 20:26:14.277    24 Aug 2022 20:31:07.811      293.53356961    
25 Aug 2022 13:08:10.959    25 Aug 2022 13:10:21.932      130.97333657    
25 Aug 2022 14:44:56.367    25 Aug 2022 14:51:24.791      388.42483191    
25 Aug 2022 16:23:32.270    25 Aug 2022 16:30:48.765      436.49472651    
25 Aug 2022 18:02:40.521    25 Aug 2022 18:09:43.740      423.21942385    
25 Aug 2022 19:42:31.386    25 Aug 2022 19:47:47.129      315.74224862    
26 Aug 2022 14:01:29.285    26 Aug 2022 14:07:46.752      377.46742900    
26 Aug 2022 15:40:00.186    26 Aug 2022 15:47:14.505      434.31927814    
26 Aug 2022 17:19:05.789    26 Aug 2022 17:26:12.193      426.40350340    
26 Aug 2022 18:58:49.351    26 Aug 2022 19:04:23.854      334.50368912    
27 Aug 2022 13:18:01.956    27 Aug 2022 13:24:07.212      365.25528347    
27 Aug 2022 14:56:27.250    27 Aug 2022 15:03:39.341      432.09049604    
27 Aug 2022 16:35:30.276    27 Aug 2022 16:42:39.591      429.31471680    
27 Aug 2022 18:15:07.706    27 Aug 2022 18:20:58.391      350.68498808    
28 Aug 2022 12:34:34.526    28 Aug 2022 12:40:25.950      351.42449259    
28 Aug 2022 14:12:53.459    28 Aug 2022 14:20:03.216      429.75683589    
28 Aug 2022 15:51:53.892    28 Aug 2022 15:59:05.963      432.07080695    
28 Aug 2022 17:31:26.111    28 Aug 2022 17:37:31.008      364.89628761    
29 Aug 2022 11:51:07.208    29 Aug 2022 11:56:42.685      335.47719992    
29 Aug 2022 13:29:18.836    29 Aug 2022 13:36:26.046      427.21046316    
29 Aug 2022 15:08:16.576    29 Aug 2022 15:15:31.310      434.73356817    
29 Aug 2022 16:47:44.311    29 Aug 2022 16:54:01.885      377.57407038    
30 Aug 2022 11:07:40.316    30 Aug 2022 11:12:57.050      316.73393160    
30 Aug 2022 12:45:43.437    30 Aug 2022 12:52:47.726      424.28920342    
30 Aug 2022 14:24:38.294    30 Aug 2022 14:31:55.604      437.30924162    
30 Aug 2022 16:04:02.111    30 Aug 2022 16:10:31.137      389.02610071    
30 Aug 2022 17:45:03.819    30 Aug 2022 17:47:17.064      133.24514581    
31 Aug 2022 10:24:14.303    31 Aug 2022 10:29:08.545      294.24185981    
31 Aug 2022 12:02:07.349    31 Aug 2022 12:09:08.130      420.78063703    
31 Aug 2022 13:40:59.046    31 Aug 2022 13:48:18.797      439.75162930    
31 Aug 2022 15:20:19.371    31 Aug 2022 15:26:58.830      399.45886668    
31 Aug 2022 17:00:54.819    31 Aug 2022 17:04:12.160      197.34030019    
01 Sep 2022 09:40:49.868    01 Sep 2022 09:45:16.446      266.57767170    
01 Sep 2022 11:18:30.688    01 Sep 2022 11:25:27.115      416.42759820    
01 Sep 2022 12:57:18.856    01 Sep 2022 13:04:40.824      441.96786558    
01 Sep 2022 14:36:35.996    01 Sep 2022 14:43:24.993      408.99692379    
01 Sep 2022 16:16:54.357    01 Sep 2022 16:20:56.707      242.34993114    
02 Sep 2022 08:57:28.195    02 Sep 2022 09:01:19.551      231.35600975    
02 Sep 2022 10:34:53.595    02 Sep 2022 10:41:44.529      410.93395500    
02 Sep 2022 12:13:37.780    02 Sep 2022 12:21:01.607      443.82641263    
02 Sep 2022 13:52:51.926    02 Sep 2022 13:59:49.625      417.69852396    
02 Sep 2022 15:32:57.590    02 Sep 2022 15:37:35.455      277.86517460    
03 Sep 2022 08:14:11.745    03 Sep 2022 08:17:15.399      183.65422224    
03 Sep 2022 09:51:16.238    03 Sep 2022 09:58:00.207      403.96924631    
03 Sep 2022 11:29:55.894    03 Sep 2022 11:37:21.060      445.16669812    
03 Sep 2022 13:09:07.139    03 Sep 2022 13:16:12.708      425.56971662    
03 Sep 2022 14:49:02.781    03 Sep 2022 14:54:10.054      307.27260316    
04 Sep 2022 07:31:08.721    04 Sep 2022 07:32:55.793      107.07191314    
04 Sep 2022 09:07:38.806    04 Sep 2022 09:14:13.977      395.17037059    
04 Sep 2022 10:46:13.290    04 Sep 2022 10:53:39.100      445.80957427    
04 Sep 2022 12:25:21.637    04 Sep 2022 12:32:34.215      432.57780449    
04 Sep 2022 14:05:09.075    04 Sep 2022 14:10:41.291      332.21646084    
05 Sep 2022 08:24:01.515    05 Sep 2022 08:30:25.653      384.13786185    
05 Sep 2022 10:02:30.075    05 Sep 2022 10:09:55.643      445.56778193    
05 Sep 2022 11:41:35.449    05 Sep 2022 11:48:54.113      438.66439577    
05 Sep 2022 13:21:15.983    05 Sep 2022 13:27:09.602      353.61874272    
06 Sep 2022 07:40:24.606    06 Sep 2022 07:46:35.029      370.42301721    
06 Sep 2022 09:18:46.362    06 Sep 2022 09:26:10.618      444.25554459    
06 Sep 2022 10:57:48.614    06 Sep 2022 11:05:12.372      443.75789874    
06 Sep 2022 12:37:23.209    06 Sep 2022 12:43:35.249      372.04024026    
07 Sep 2022 06:56:48.363    07 Sep 2022 07:02:41.862      353.49948228    
07 Sep 2022 08:35:02.264    07 Sep 2022 08:42:23.960      441.69651100    
07 Sep 2022 10:14:01.185    07 Sep 2022 10:21:28.970      447.78508848    
07 Sep 2022 11:53:30.563    07 Sep 2022 11:59:58.405      387.84253491    
08 Sep 2022 06:13:13.137    08 Sep 2022 06:18:45.844      332.70666985    
08 Sep 2022 07:51:17.890    08 Sep 2022 07:58:35.619      437.72933119    
08 Sep 2022 09:30:13.216    08 Sep 2022 09:37:43.898      450.68127543    
08 Sep 2022 11:09:37.924    08 Sep 2022 11:16:19.197      401.27331445    
08 Sep 2022 12:50:38.847    08 Sep 2022 12:53:06.363      147.51582284    
09 Sep 2022 05:29:39.402    09 Sep 2022 05:34:46.538      307.13648190    
09 Sep 2022 07:07:33.342    09 Sep 2022 07:14:45.552      432.21029837    
09 Sep 2022 08:46:24.760    09 Sep 2022 08:53:57.159      452.39860952    
09 Sep 2022 10:25:45.209    09 Sep 2022 10:32:37.726      412.51682304    
09 Sep 2022 12:06:19.690    09 Sep 2022 12:09:52.622      212.93134606    
10 Sep 2022 04:46:07.871    10 Sep 2022 04:50:43.259      275.38800569    
10 Sep 2022 06:23:48.714    10 Sep 2022 06:30:53.726      425.01256093    
10 Sep 2022 08:02:35.860    10 Sep 2022 08:10:08.772      452.91207831    
10 Sep 2022 09:41:52.360    10 Sep 2022 09:48:54.086      421.72606731    
10 Sep 2022 11:22:09.423    10 Sep 2022 11:26:27.706      258.28329121    
11 Sep 2022 04:02:39.811    11 Sep 2022 04:06:34.756      234.94544160    
11 Sep 2022 05:40:04.089    11 Sep 2022 05:47:00.110      416.02145695    
11 Sep 2022 07:18:46.549    11 Sep 2022 07:26:18.772      452.22285641    
11 Sep 2022 08:57:59.328    11 Sep 2022 09:05:08.372      429.04412854    
11 Sep 2022 10:38:03.324    11 Sep 2022 10:42:56.342      293.01816272    
12 Sep 2022 03:19:18.091    12 Sep 2022 03:22:18.157      180.06572801    
12 Sep 2022 04:56:19.544    12 Sep 2022 05:03:04.669      405.12546615    
12 Sep 2022 06:34:56.844    12 Sep 2022 06:42:27.203      450.35881063    
12 Sep 2022 08:14:06.065    12 Sep 2022 08:21:20.683      434.61798403    
12 Sep 2022 09:53:59.656    12 Sep 2022 09:59:20.286      320.62931475    
13 Sep 2022 02:36:14.692    13 Sep 2022 02:37:41.462      86.770519847    
13 Sep 2022 04:12:35.154    13 Sep 2022 04:19:07.356      392.20199628    
13 Sep 2022 05:51:06.748    13 Sep 2022 05:58:34.120      447.37206611    
13 Sep 2022 07:30:12.519    13 Sep 2022 07:37:31.125      438.60660024    
13 Sep 2022 09:09:57.532    13 Sep 2022 09:15:40.448      342.91660994    
14 Sep 2022 03:28:51.000    14 Sep 2022 03:35:08.096      377.09662816    
14 Sep 2022 05:07:16.248    14 Sep 2022 05:14:39.582      443.33377926    
14 Sep 2022 06:46:18.627    14 Sep 2022 06:53:39.811      441.18424889    
14 Sep 2022 08:25:56.408    14 Sep 2022 08:31:57.403      360.99423801    
15 Sep 2022 02:45:07.185    15 Sep 2022 02:51:06.778      359.59306061    
15 Sep 2022 04:23:25.318    15 Sep 2022 04:30:43.645      438.32636765    
15 Sep 2022 06:02:24.317    15 Sep 2022 06:09:46.856      442.53973779    
15 Sep 2022 07:41:55.909    15 Sep 2022 07:48:11.555      375.64683720    
16 Sep 2022 02:01:23.855    16 Sep 2022 02:07:03.223      339.36800309    
16 Sep 2022 03:39:33.923    16 Sep 2022 03:46:46.357      432.43365608    
16 Sep 2022 05:18:29.506    16 Sep 2022 05:25:52.378      442.87219205    
16 Sep 2022 06:57:55.740    16 Sep 2022 07:04:23.223      387.48301759    
17 Sep 2022 01:17:41.235    17 Sep 2022 01:22:57.153      315.91818655    
17 Sep 2022 02:55:42.023    17 Sep 2022 03:02:47.753      425.72942928    
17 Sep 2022 04:34:34.102    17 Sep 2022 04:41:56.486      442.38398307    
17 Sep 2022 06:13:55.660    17 Sep 2022 06:20:32.668      397.00871527    
17 Sep 2022 07:54:53.419    17 Sep 2022 07:57:21.401      147.98172726    
18 Sep 2022 00:33:59.697    18 Sep 2022 00:38:48.125      288.42834716    
18 Sep 2022 02:11:49.580    18 Sep 2022 02:18:47.845      418.26495621    
18 Sep 2022 03:50:38.010    18 Sep 2022 03:57:59.282      441.27159314    
18 Sep 2022 05:29:55.450    18 Sep 2022 05:36:40.113      404.66318240    
18 Sep 2022 07:10:27.941    18 Sep 2022 07:13:54.857      206.91593725    
18 Sep 2022 23:50:19.899    18 Sep 2022 23:54:35.393      255.49416872    
19 Sep 2022 01:27:56.565    19 Sep 2022 01:34:46.620      410.05598155    
19 Sep 2022 03:06:41.133    19 Sep 2022 03:14:00.848      439.71514727    
19 Sep 2022 04:45:54.912    19 Sep 2022 04:52:45.748      410.83556707    
19 Sep 2022 06:26:10.400    19 Sep 2022 06:30:18.307      247.90695724    
19 Sep 2022 23:06:43.146    19 Sep 2022 23:10:17.552      214.40635471    
20 Sep 2022 00:44:02.962    20 Sep 2022 00:50:44.032      401.06954242    
20 Sep 2022 02:22:43.378    20 Sep 2022 02:30:01.246      437.86753955    
20 Sep 2022 04:01:53.864    20 Sep 2022 04:08:49.735      415.87064588    
20 Sep 2022 05:41:56.556    20 Sep 2022 05:46:35.965      279.40867420    
20 Sep 2022 22:23:12.696    20 Sep 2022 22:25:51.235      158.53924613    
21 Sep 2022 00:00:08.784    21 Sep 2022 00:06:39.995      391.21068986    
21 Sep 2022 01:38:44.666    21 Sep 2022 01:46:00.510      435.84401370    
21 Sep 2022 03:17:52.137    21 Sep 2022 03:24:52.206      420.06847565    
21 Sep 2022 04:57:44.701    21 Sep 2022 05:02:49.495      304.79388937    
21 Sep 2022 21:40:06.959    21 Sep 2022 21:40:57.917      50.957368570    
21 Sep 2022 23:16:14.075    21 Sep 2022 23:22:34.384      380.30870967    
22 Sep 2022 00:54:44.934    22 Sep 2022 01:01:58.647      433.71309398    
22 Sep 2022 02:33:49.580    22 Sep 2022 02:40:53.261      423.68096486    
22 Sep 2022 04:13:33.897    22 Sep 2022 04:18:59.778      325.88120175    
22 Sep 2022 22:32:18.923    22 Sep 2022 22:38:27.025      368.10161623    
23 Sep 2022 00:10:44.142    23 Sep 2022 00:17:55.631      431.48957613    
23 Sep 2022 01:49:46.062    23 Sep 2022 01:56:52.970      426.90738413    
23 Sep 2022 03:29:23.540    23 Sep 2022 03:35:07.349      343.80929992    
23 Sep 2022 21:48:23.471    23 Sep 2022 21:54:17.688      354.21621013    
23 Sep 2022 23:26:42.275    23 Sep 2022 23:33:51.405      429.13012058    
24 Sep 2022 01:05:41.478    24 Sep 2022 01:12:51.368      429.89039733    
24 Sep 2022 02:45:13.202    24 Sep 2022 02:51:12.553      359.35069149    
24 Sep 2022 21:04:27.936    24 Sep 2022 21:10:06.074      338.13817610    
24 Sep 2022 22:42:39.352    24 Sep 2022 22:49:45.884      426.53166982    
25 Sep 2022 00:21:35.749    25 Sep 2022 00:28:48.463      432.71364758    
25 Sep 2022 02:01:02.567    25 Sep 2022 02:07:15.616      373.04904683    
25 Sep 2022 20:20:32.634    25 Sep 2022 20:25:51.795      319.16066104    
25 Sep 2022 21:58:35.420    25 Sep 2022 22:05:38.952      423.53258474    
25 Sep 2022 23:37:28.827    25 Sep 2022 23:44:44.228      435.40169375    
26 Sep 2022 01:16:51.397    26 Sep 2022 01:23:16.685      385.28816899    
26 Sep 2022 02:58:00.099    26 Sep 2022 02:59:51.302      111.20287859    
26 Sep 2022 19:36:38.034    26 Sep 2022 19:41:34.319      296.28514547    
26 Sep 2022 21:14:30.559    26 Sep 2022 21:21:30.475      419.91603136    
26 Sep 2022 22:53:20.694    26 Sep 2022 23:00:38.616      437.92260551    
27 Sep 2022 00:32:39.513    27 Sep 2022 00:39:15.845      396.33116381    
27 Sep 2022 02:13:16.764    27 Sep 2022 02:16:23.035      186.27017504    
27 Sep 2022 18:52:44.863    27 Sep 2022 18:57:12.870      268.00709182    
27 Sep 2022 20:30:24.881    27 Sep 2022 20:37:20.296      415.41474945    
27 Sep 2022 22:09:11.363    27 Sep 2022 22:16:31.556      440.19323919    
27 Sep 2022 23:48:26.789    27 Sep 2022 23:55:13.134      406.34578209    
28 Sep 2022 01:28:45.080    28 Sep 2022 01:32:40.576      235.49524311    
28 Sep 2022 18:08:54.377    28 Sep 2022 18:12:46.152      231.77472007    
28 Sep 2022 19:46:18.527    28 Sep 2022 19:53:08.243      409.71602068    
28 Sep 2022 21:25:00.877    28 Sep 2022 21:32:22.964      442.08688117    
28 Sep 2022 23:04:13.138    28 Sep 2022 23:11:08.561      415.42331659    
29 Sep 2022 00:44:17.720    29 Sep 2022 00:48:51.134      273.41405303    
29 Sep 2022 17:25:09.253    29 Sep 2022 17:28:11.463      182.20980742    
29 Sep 2022 19:02:11.665    29 Sep 2022 19:08:54.130      402.46524559    
29 Sep 2022 20:40:49.301    29 Sep 2022 20:48:12.743      443.44266333    
29 Sep 2022 22:19:58.514    29 Sep 2022 22:27:02.109      423.59452239    
29 Sep 2022 23:59:52.446    30 Sep 2022 00:04:56.838      304.39209896    
30 Sep 2022 16:41:39.051    30 Sep 2022 16:43:19.226      100.17564604    
30 Sep 2022 18:18:04.491    30 Sep 2022 18:24:37.757      393.26599612    
30 Sep 2022 19:56:36.721    30 Sep 2022 20:04:00.797      444.07598505    
30 Sep 2022 21:35:42.902    30 Sep 2022 21:42:53.746      430.84422093    
30 Sep 2022 23:15:28.208    30 Sep 2022 23:20:58.641      330.43263018    
01 Oct 2022 17:33:57.230    01 Oct 2022 17:40:18.904      381.67354460    
01 Oct 2022 19:12:23.239    01 Oct 2022 19:19:47.028      443.78908948    
01 Oct 2022 20:51:26.310    01 Oct 2022 20:58:43.435      437.12520960    
01 Oct 2022 22:31:04.422    01 Oct 2022 22:36:57.051      352.62882152    
02 Oct 2022 16:49:50.147    02 Oct 2022 16:55:57.324      367.17706727    
02 Oct 2022 18:28:08.964    02 Oct 2022 18:35:31.345      442.38085588    
02 Oct 2022 20:07:08.766    02 Oct 2022 20:14:31.138      442.37151708    
02 Oct 2022 21:46:40.729    02 Oct 2022 21:52:52.365      371.63567848    
03 Oct 2022 16:05:43.558    03 Oct 2022 16:11:32.719      349.16177038    
03 Oct 2022 17:43:54.009    03 Oct 2022 17:51:13.664      439.65495850    
03 Oct 2022 19:22:50.312    03 Oct 2022 19:30:16.823      446.51072467    
03 Oct 2022 21:02:16.902    03 Oct 2022 21:08:44.773      387.87102595    
04 Oct 2022 15:21:37.870    04 Oct 2022 15:27:04.703      326.83278518    
04 Oct 2022 16:59:38.489    04 Oct 2022 17:06:53.914      435.42554729    
04 Oct 2022 18:38:30.994    04 Oct 2022 18:46:00.468      449.47487544    
04 Oct 2022 20:17:52.787    04 Oct 2022 20:24:34.405      401.61759787    
04 Oct 2022 21:58:46.283    04 Oct 2022 22:01:24.732      158.44840819    
05 Oct 2022 14:37:33.659    05 Oct 2022 14:42:32.717      299.05729933    
05 Oct 2022 16:15:22.509    05 Oct 2022 16:22:32.029      429.51971437    
05 Oct 2022 17:54:10.858    05 Oct 2022 18:01:42.067      451.20947080    
05 Oct 2022 19:33:28.284    05 Oct 2022 19:40:21.366      413.08178521    
05 Oct 2022 21:13:56.437    05 Oct 2022 21:17:38.365      221.92835551    
06 Oct 2022 13:53:31.848    06 Oct 2022 13:57:55.849      264.00091478    
06 Oct 2022 15:31:06.175    06 Oct 2022 15:38:07.951      421.77603246    
06 Oct 2022 17:09:49.946    06 Oct 2022 17:17:21.626      451.68007056    
06 Oct 2022 18:49:03.316    06 Oct 2022 18:56:05.746      422.43044829    
06 Oct 2022 20:29:14.496    06 Oct 2022 20:33:41.069      266.57321651    
07 Oct 2022 13:09:34.216    07 Oct 2022 13:13:12.320      218.10483470    
07 Oct 2022 14:46:49.583    07 Oct 2022 14:53:41.621      412.03844917    
07 Oct 2022 16:25:28.291    07 Oct 2022 16:32:59.167      450.87609150    
07 Oct 2022 18:04:37.824    07 Oct 2022 18:11:47.639      429.81495737    
07 Oct 2022 19:44:36.206    07 Oct 2022 19:49:37.083      300.87718862    
08 Oct 2022 12:25:45.539    08 Oct 2022 12:28:17.338      151.79919581    
08 Oct 2022 14:02:32.831    08 Oct 2022 14:09:12.975      400.14458138    
08 Oct 2022 15:41:05.913    08 Oct 2022 15:48:34.725      448.81158632    
08 Oct 2022 17:20:11.752    08 Oct 2022 17:27:27.139      435.38677826    
08 Oct 2022 18:59:59.923    08 Oct 2022 19:05:28.055      328.13255150    
09 Oct 2022 13:18:16.022    09 Oct 2022 13:24:41.929      385.90696875    
09 Oct 2022 14:56:42.822    09 Oct 2022 15:04:08.344      445.52292230    
09 Oct 2022 16:35:45.045    09 Oct 2022 16:43:04.352      439.30671966    
09 Oct 2022 18:15:24.788    09 Oct 2022 18:21:14.859      350.07130390    
10 Oct 2022 12:33:59.280    10 Oct 2022 12:40:08.365      369.08449538    
10 Oct 2022 14:12:19.011    10 Oct 2022 14:19:40.074      441.06346085    
10 Oct 2022 15:51:17.639    10 Oct 2022 15:58:39.388      441.74906553    
10 Oct 2022 17:30:50.270    10 Oct 2022 17:36:58.049      367.77905084    
11 Oct 2022 11:49:42.767    11 Oct 2022 11:55:32.105      349.33835644    
